aileron,elevator,rudder,flaps,slats,speedbrake,throttle,engine-pump0,engine-pump1,electric-pump0,electric-pump1,external-power,APU-generator,latitude-deg,longitude-deg,altitude-ft,roll-deg,pitch-deg,heading-deg,side-slip-deg,airspeed-kt,glideslope,vertical-speed-fps,airspeed-indicator_indicated-speed-kt,altimeter_indicated-altitude-ft,altimeter_pressure-alt-ft,attitude-indicator_indicated-pitch-deg,attitude-indicator_indicated-roll-deg,attitude-indicator_internal-pitch-deg,attitude-indicator_internal-roll-deg,encoder_indicated-altitude-ft,encoder_pressure-alt-ft,gps_indicated-altitude-ft,gps_indicated-ground-speed-kt,gps_indicated-vertical-speed,indicated-heading-deg,magnetic-compass_indicated-heading-deg,slip-skid-ball_indicated-slip-skid,turn-indicator_indicated-turn-rate,vertical-speed-indicator_indicated-speed-fpm,engine_rpm
0.0,0.0,0.0,0.0,0.0,0.0,0.96652,2.501804E8,2.501804E8,2.50180416E8,2.50180416E8,2.50180464E8,2.50180496E8,63.985043,-22.592484,-9999.0,0.0,0.424,270.02136,0.0,0.0,0.0,0.0,0.0,0.0,0.0,0.0,0.0,0.0,0.0,0.0,0.0,0.0,0.0,0.0,0.0,0.0,0.0,0.0,0.0,0.0
0.0,0.0,0.0,0.0,0.0,0.0,0.96652,2.501804E8,2.501804E8,2.50180416E8,2.50180416E8,2.50180464E8,2.50180496E8,63.985043,-22.592484,-9999.0,0.0,0.424,270.02136,0.0,0.0,0.0,0.0,0.0,177.4758,1.193444,12.0,40.0,0.0,0.0,0.0,0.0,0.0,0.0,0.0,282.91263,0.0,0.0,0.0,0.0,0.0
0.0,0.0,0.0,0.0,0.0,0.0,0.96652,2.501804E8,2.501804E8,2.50180416E8,2.50180416E8,2.50180464E8,2.50180496E8,63.991837,-22.605425,-9999.0,0.0,0.424,180.01839,0.0,0.0,0.0,0.0,0.0,177.4758,1.193444,12.0,40.0,0.0,0.0,0.0,0.0,0.0,0.0,0.0,282.91263,0.0,0.0,0.0,0.0,0.0
0.0,0.0,0.0,0.0,0.0,0.0,0.96652,2.501804E8,2.501804E8,2.50180416E8,2.50180416E8,2.50180464E8,2.50180496E8,63.991837,-22.605425,-9999.0,0.0,0.424,180.01839,0.0,0.0,0.0,0.0,0.0,177.4758,1.193444,12.0,40.0,0.0,0.0,0.0,0.0,0.0,0.0,0.0,282.91263,0.0,0.0,0.0,0.0,0.0
0.0,0.0,0.0,0.0,0.0,0.0,0.96652,2.501804E8,2.501804E8,2.50180416E8,2.50180416E8,2.50180464E8,2.50180496E8,63.991837,-22.605425,-9999.0,0.0,0.424,180.01839,0.0,0.0,0.0,0.0,0.0,177.4758,1.193444,12.0,40.0,0.0,0.0,0.0,0.0,0.0,0.0,0.0,282.91263,0.0,0.0,0.0,0.0,0.0
0.0,0.0,0.0,0.0,0.0,0.0,0.96652,2.501804E8,2.501804E8,2.50180416E8,2.50180416E8,2.50180464E8,2.50180496E8,63.991837,-22.605425,-9999.0,0.0,0.424,180.01839,0.0,0.0,0.0,0.0,0.0,177.4758,1.193444,12.0,40.0,0.0,0.0,0.0,0.0,0.0,0.0,0.0,282.91263,0.0,0.0,0.0,0.0,0.0
0.0,0.0,0.0,0.0,0.0,0.0,0.96652,2.501804E8,2.501804E8,2.50180416E8,2.50180416E8,2.50180464E8,2.50180496E8,63.991837,-22.605425,-9999.0,0.0,0.424,180.01839,0.0,0.0,0.0,0.0,0.0,177.4758,1.193444,12.0,40.0,0.0,0.0,0.0,0.0,0.0,0.0,0.0,282.91263,0.0,0.0,0.0,0.0,0.0
0.0,0.0,0.0,0.0,0.0,0.0,0.96652,2.501804E8,2.501804E8,2.50180416E8,2.50180416E8,2.50180464E8,2.50180496E8,63.991837,-22.605425,-9999.0,0.0,0.424,180.01839,0.0,0.0,0.0,0.0,0.0,177.4758,1.193444,12.0,40.0,0.0,0.0,0.0,0.0,0.0,0.0,0.0,282.91263,0.0,0.0,0.0,0.0,0.0
0.0,0.0,0.0,0.0,0.0,0.0,0.96652,2.501804E8,2.501804E8,2.50180416E8,2.50180416E8,2.50180464E8,2.50180496E8,63.991837,-22.605425,-9999.0,0.0,0.424,180.01839,0.0,0.0,0.0,0.0,0.0,177.4758,1.193444,12.0,40.0,0.0,0.0,0.0,0.0,0.0,0.0,0.0,282.91263,0.0,0.0,0.0,0.0,0.0
0.0,0.0,0.0,0.0,0.0,0.0,0.96652,2.501804E8,2.501804E8,2.50180416E8,2.50180416E8,2.50180464E8,2.50180496E8,63.991837,-22.605425,-9999.0,0.0,0.424,180.01839,0.0,0.0,0.0,0.0,0.0,177.4758,1.193444,12.0,40.0,0.0,0.0,0.0,0.0,0.0,0.0,0.0,282.91263,0.0,0.0,0.0,0.0,0.0
0.0,0.0,0.0,0.0,0.0,0.0,0.96652,2.501804E8,2.501804E8,2.50180416E8,2.50180416E8,2.50180464E8,2.50180496E8,63.991837,-22.605425,-9999.0,0.0,0.424,180.01839,0.0,0.0,0.0,0.0,0.0,177.4758,1.193444,12.0,40.0,0.0,0.0,0.0,0.0,0.0,0.0,0.0,282.91263,0.0,0.0,0.0,0.0,0.0
0.0,0.0,0.0,0.0,0.0,0.0,0.96652,2.501804E8,2.501804E8,2.50180416E8,2.50180416E8,2.50180464E8,2.50180496E8,63.991837,-22.605425,-9999.0,0.0,0.424,180.01839,0.0,0.0,0.0,0.0,0.0,177.4758,1.193444,12.0,40.0,0.0,0.0,0.0,0.0,0.0,0.0,0.0,282.91263,0.0,0.0,0.0,0.0,0.0
0.0,0.0,0.0,0.0,0.0,0.0,0.96652,2.501804E8,2.501804E8,2.50180416E8,2.50180416E8,2.50180464E8,2.50180496E8,63.991837,-22.605425,-9999.0,0.0,0.424,180.01839,0.0,0.0,0.0,0.0,0.0,177.4758,1.193444,12.0,40.0,0.0,0.0,0.0,0.0,0.0,0.0,0.0,282.91263,0.0,0.0,0.0,0.0,0.0
0.0,0.0,0.0,0.0,0.0,0.0,0.96652,2.501804E8,2.501804E8,2.50180416E8,2.50180416E8,2.50180464E8,2.50180496E8,63.991837,-22.605425,-9999.0,0.0,0.424,180.01839,0.0,0.0,0.0,0.0,0.0,177.4758,1.193444,12.0,40.0,0.0,0.0,0.0,0.0,0.0,0.0,0.0,282.91263,0.0,0.0,0.0,0.0,0.0
0.0,0.0,0.0,0.0,0.0,0.0,0.96652,2.501804E8,2.501804E8,2.50180416E8,2.50180416E8,2.50180464E8,2.50180496E8,63.991837,-22.605425,-9999.0,0.0,0.424,180.01839,0.0,0.0,0.0,0.0,0.0,177.4758,1.193444,12.0,40.0,0.0,0.0,0.0,0.0,0.0,0.0,0.0,282.91263,0.0,0.0,0.0,0.0,0.0
0.0,0.0,0.0,0.0,0.0,0.0,0.96652,2.501804E8,2.501804E8,2.50180416E8,2.50180416E8,2.50180464E8,2.50180496E8,63.991837,-22.605425,-9999.0,0.0,0.424,180.01839,0.0,0.0,0.0,0.0,0.0,177.4758,1.193444,12.0,40.0,0.0,0.0,0.0,0.0,0.0,0.0,0.0,282.91263,0.0,0.0,0.0,0.0,0.0
0.0,0.0,0.0,0.0,0.0,0.0,0.96652,2.501804E8,2.501804E8,2.50180416E8,2.50180416E8,2.50180464E8,2.50180496E8,63.991837,-22.605425,-9999.0,0.0,0.424,180.01839,0.0,0.0,0.0,0.0,0.0,177.4758,1.193444,12.0,40.0,0.0,0.0,0.0,0.0,0.0,0.0,0.0,282.91263,0.0,0.0,0.0,0.0,0.0
0.0,0.0,0.0,0.0,0.0,0.0,0.96652,2.501804E8,2.501804E8,2.50180416E8,2.50180416E8,2.50180464E8,2.50180496E8,63.991837,-22.605425,-9999.0,0.0,0.424,180.01839,0.0,0.0,0.0,0.0,0.0,177.4758,1.193444,12.0,40.0,0.0,0.0,0.0,0.0,0.0,0.0,0.0,282.91263,0.0,0.0,0.0,0.0,0.0
0.0,0.0,0.0,0.0,0.0,0.0,0.96652,2.501804E8,2.501804E8,2.50180416E8,2.50180416E8,2.50180464E8,2.50180496E8,63.991837,-22.605425,-9999.0,0.0,0.424,180.01839,0.0,0.0,0.0,0.0,0.0,177.4758,1.193444,12.0,40.0,0.0,0.0,0.0,0.0,0.0,0.0,0.0,282.91263,0.0,0.0,0.0,0.0,0.0
0.0,0.0,0.0,0.0,0.0,0.0,0.96652,2.501804E8,2.501804E8,2.50180416E8,2.50180416E8,2.50180464E8,2.50180496E8,63.991837,-22.605425,-9999.0,0.0,0.424,180.01839,0.0,0.0,0.0,0.0,0.0,177.4758,1.193444,12.0,40.0,0.0,0.0,0.0,0.0,0.0,0.0,0.0,282.91263,0.0,0.0,0.0,0.0,0.0
0.0,0.0,0.0,0.0,0.0,0.0,0.96652,2.501804E8,2.501804E8,2.50180416E8,2.50180416E8,2.50180464E8,2.50180496E8,63.991837,-22.605425,-9999.0,0.0,0.424,180.01839,0.0,0.0,0.0,0.0,0.0,177.4758,1.193444,12.0,40.0,0.0,0.0,0.0,0.0,0.0,0.0,0.0,282.91263,0.0,0.0,0.0,0.0,0.0
0.0,0.0,0.0,0.0,0.0,0.0,0.96652,2.501804E8,2.501804E8,2.50180416E8,2.50180416E8,2.50180464E8,2.50180496E8,63.991837,-22.605425,-9999.0,0.0,0.424,180.01839,0.0,0.0,0.0,0.0,0.0,177.4758,1.193444,12.0,40.0,0.0,0.0,0.0,0.0,0.0,0.0,0.0,282.91263,0.0,0.0,0.0,0.0,0.0
0.0,0.0,0.0,0.0,0.0,0.0,0.96652,2.501804E8,2.501804E8,2.50180416E8,2.50180416E8,2.50180464E8,2.50180496E8,63.991837,-22.605425,-9999.0,0.0,0.424,180.01839,0.0,0.0,0.0,0.0,0.0,177.4758,1.193444,12.0,40.0,0.0,0.0,0.0,0.0,0.0,0.0,0.0,282.91263,0.0,0.0,0.0,0.0,0.0
0.0,0.0,0.0,0.0,0.0,0.0,0.96652,2.501804E8,2.501804E8,2.50180416E8,2.50180416E8,2.50180464E8,2.50180496E8,63.991837,-22.605425,-9999.0,0.0,0.424,180.01839,0.0,0.0,0.0,0.0,0.0,177.4758,1.193444,12.0,40.0,0.0,0.0,0.0,0.0,0.0,0.0,0.0,282.91263,0.0,0.0,0.0,0.0,0.0
0.0,0.0,0.0,0.0,0.0,0.0,0.96652,2.501804E8,2.501804E8,2.50180416E8,2.50180416E8,2.50180464E8,2.50180496E8,63.991837,-22.605425,-9999.0,0.0,0.424,180.01839,0.0,0.0,0.0,0.0,0.0,177.4758,1.193444,12.0,40.0,0.0,0.0,0.0,0.0,0.0,0.0,0.0,282.91263,0.0,0.0,0.0,0.0,0.0
0.0,0.0,0.0,0.0,0.0,0.0,0.96652,2.501804E8,2.501804E8,2.50180416E8,2.50180416E8,2.50180464E8,2.50180496E8,63.991837,-22.605425,-9999.0,0.0,0.424,180.01839,0.0,0.0,0.0,0.0,0.0,177.4758,1.193444,12.0,40.0,0.0,0.0,0.0,0.0,0.0,0.0,0.0,282.91263,0.0,0.0,0.0,0.0,0.0
0.0,0.0,0.0,0.0,0.0,0.0,0.96652,2.501804E8,2.501804E8,2.50180416E8,2.50180416E8,2.50180464E8,2.50180496E8,63.991837,-22.605425,-9999.0,0.0,0.424,180.01839,0.0,0.0,0.0,0.0,0.0,177.4758,1.193444,12.0,40.0,0.0,0.0,0.0,0.0,0.0,0.0,0.0,282.91263,0.0,0.0,0.0,0.0,0.0
0.0,0.0,0.0,0.0,0.0,0.0,0.96652,2.501804E8,2.501804E8,2.50180416E8,2.50180416E8,2.50180464E8,2.50180496E8,63.991837,-22.605425,-9999.0,0.0,0.424,180.01839,0.0,0.0,0.0,0.0,0.0,177.4758,1.193444,12.0,40.0,0.0,0.0,0.0,0.0,0.0,0.0,0.0,282.91263,0.0,0.0,0.0,0.0,0.0
0.0,0.0,0.0,0.0,0.0,0.0,0.96652,2.501804E8,2.501804E8,2.50180416E8,2.50180416E8,2.50180464E8,2.50180496E8,63.991837,-22.605425,-9999.0,0.0,0.424,180.01839,0.0,0.0,0.0,0.0,0.0,177.4758,1.193444,12.0,40.0,0.0,0.0,0.0,0.0,0.0,0.0,0.0,282.91263,0.0,0.0,0.0,0.0,0.0
0.0,0.0,0.0,0.0,0.0,0.0,0.96652,2.501804E8,2.501804E8,2.50180416E8,2.50180416E8,2.50180464E8,2.50180496E8,63.991837,-22.605425,-9999.0,0.0,0.424,180.01839,0.0,0.0,0.0,0.0,0.0,177.4758,1.193444,12.0,40.0,0.0,0.0,0.0,0.0,0.0,0.0,0.0,282.91263,0.0,0.0,0.0,0.0,0.0
0.0,0.0,0.0,0.0,0.0,0.0,0.96652,2.501804E8,2.501804E8,2.50180416E8,2.50180416E8,2.50180464E8,2.50180496E8,63.991837,-22.605425,-9999.0,0.0,0.424,180.01839,0.0,0.0,0.0,0.0,0.0,177.4758,1.193444,12.0,40.0,0.0,0.0,0.0,0.0,0.0,0.0,0.0,282.91263,0.0,0.0,0.0,0.0,0.0
0.0,0.0,0.0,0.0,0.0,0.0,0.96652,2.501804E8,2.501804E8,2.50180416E8,2.50180416E8,2.50180464E8,2.50180496E8,63.991837,-22.605425,-9999.0,0.0,0.424,180.01839,0.0,0.0,0.0,0.0,0.0,177.4758,1.193444,12.0,40.0,0.0,0.0,0.0,0.0,0.0,0.0,0.0,282.91263,0.0,0.0,0.0,0.0,0.0
0.0,0.0,0.0,0.0,0.0,0.0,0.96652,2.501804E8,2.501804E8,2.50180416E8,2.50180416E8,2.50180464E8,2.50180496E8,63.991837,-22.605425,-9999.0,0.0,0.424,180.01839,0.0,0.0,0.0,0.0,0.0,177.4758,1.193444,12.0,40.0,0.0,0.0,0.0,0.0,0.0,0.0,0.0,282.91263,0.0,0.0,0.0,0.0,0.0
0.0,0.0,0.0,0.0,0.0,0.0,0.96652,2.501804E8,2.501804E8,2.50180416E8,2.50180416E8,2.50180464E8,2.50180496E8,63.991837,-22.605425,-9999.0,0.0,0.424,180.01839,0.0,0.0,0.0,0.0,0.0,177.4758,1.193444,12.0,40.0,0.0,0.0,0.0,0.0,0.0,0.0,0.0,282.91263,0.0,0.0,0.0,0.0,0.0
0.0,0.0,0.0,0.0,0.0,0.0,0.96652,2.501804E8,2.501804E8,2.50180416E8,2.50180416E8,2.50180464E8,2.50180496E8,63.991837,-22.605425,-9999.0,0.0,0.424,180.01839,0.0,0.0,0.0,0.0,0.0,177.4758,1.193444,12.0,40.0,0.0,0.0,0.0,0.0,0.0,0.0,0.0,282.91263,0.0,0.0,0.0,0.0,0.0
0.0,0.0,0.0,0.0,0.0,0.0,0.96652,2.501804E8,2.501804E8,2.50180416E8,2.50180416E8,2.50180464E8,2.50180496E8,63.991837,-22.605425,-9999.0,0.0,0.424,180.01839,0.0,0.0,0.0,0.0,0.0,177.4758,1.193444,12.0,40.0,0.0,0.0,0.0,0.0,0.0,0.0,0.0,282.91263,0.0,0.0,0.0,0.0,0.0
0.0,0.0,0.0,0.0,0.0,0.0,0.96652,2.501804E8,2.501804E8,2.50180416E8,2.50180416E8,2.50180464E8,2.50180496E8,63.991837,-22.605425,-9999.0,0.0,0.424,180.01839,0.0,0.0,0.0,0.0,0.0,177.4758,1.193444,12.0,40.0,0.0,0.0,0.0,0.0,0.0,0.0,0.0,282.91263,0.0,0.0,0.0,0.0,0.0
0.0,0.0,0.0,0.0,0.0,0.0,0.96652,2.501804E8,2.501804E8,2.50180416E8,2.50180416E8,2.50180464E8,2.50180496E8,63.991837,-22.605425,-9999.0,0.0,0.424,180.01839,0.0,0.0,0.0,0.0,0.0,177.4758,1.193444,12.0,40.0,0.0,0.0,0.0,0.0,0.0,0.0,0.0,282.91263,0.0,0.0,0.0,0.0,0.0
0.0,0.0,0.0,0.0,0.0,0.0,0.96652,2.501804E8,2.501804E8,2.50180416E8,2.50180416E8,2.50180464E8,2.50180496E8,63.991837,-22.605425,-9999.0,0.0,0.424,180.01839,0.0,0.0,0.0,0.0,0.0,177.4758,1.193444,12.0,40.0,0.0,0.0,0.0,0.0,0.0,0.0,0.0,282.91263,0.0,0.0,0.0,0.0,0.0
0.0,0.0,0.0,0.0,0.0,0.0,0.96652,2.501804E8,2.501804E8,2.50180416E8,2.50180416E8,2.50180464E8,2.50180496E8,63.991837,-22.605425,-9999.0,0.0,0.424,180.01839,0.0,0.0,0.0,0.0,0.0,177.4758,1.193444,12.0,40.0,0.0,0.0,0.0,0.0,0.0,0.0,0.0,282.91263,0.0,0.0,0.0,0.0,0.0
0.0,0.0,0.0,0.0,0.0,0.0,0.96652,2.501804E8,2.501804E8,2.50180416E8,2.50180416E8,2.50180464E8,2.50180496E8,63.991837,-22.605425,-9999.0,0.0,0.424,180.01839,0.0,0.0,0.0,0.0,0.0,177.4758,1.193444,12.0,40.0,0.0,0.0,0.0,0.0,0.0,0.0,0.0,282.91263,0.0,0.0,0.0,0.0,0.0
0.0,0.0,0.0,0.0,0.0,0.0,0.96652,2.501804E8,2.501804E8,2.50180416E8,2.50180416E8,2.50180464E8,2.50180496E8,63.991837,-22.605425,-9999.0,0.0,0.424,180.01839,0.0,0.0,0.0,0.0,0.0,177.4758,1.193444,12.0,40.0,0.0,0.0,0.0,0.0,0.0,0.0,0.0,282.91263,0.0,0.0,0.0,0.0,0.0
0.0,0.0,0.0,0.0,0.0,0.0,0.96652,2.501804E8,2.501804E8,2.50180416E8,2.50180416E8,2.50180464E8,2.50180496E8,63.991837,-22.605425,-9999.0,0.0,0.424,180.01839,0.0,0.0,0.0,0.0,0.0,177.4758,1.193444,12.0,40.0,0.0,0.0,0.0,0.0,0.0,0.0,0.0,282.91263,0.0,0.0,0.0,0.0,0.0
0.0,0.0,0.0,0.0,0.0,0.0,0.96652,2.501804E8,2.501804E8,2.50180416E8,2.50180416E8,2.50180464E8,2.50180496E8,63.991837,-22.605425,-9999.0,0.0,0.424,180.01839,0.0,0.0,0.0,0.0,0.0,177.4758,1.193444,12.0,40.0,0.0,0.0,0.0,0.0,0.0,0.0,0.0,282.91263,0.0,0.0,0.0,0.0,0.0
0.0,0.0,0.0,0.0,0.0,0.0,0.96652,2.501804E8,2.501804E8,2.50180416E8,2.50180416E8,2.50180464E8,2.50180496E8,63.991837,-22.605425,-9999.0,0.0,0.424,180.01839,0.0,0.0,0.0,0.0,0.0,177.4758,1.193444,12.0,40.0,0.0,0.0,0.0,0.0,0.0,0.0,0.0,282.91263,0.0,0.0,0.0,0.0,0.0
0.0,0.0,0.0,0.0,0.0,0.0,0.96652,2.501804E8,2.501804E8,2.50180416E8,2.50180416E8,2.50180464E8,2.50180496E8,63.991837,-22.605425,-9999.0,0.0,0.424,180.01839,0.0,0.0,0.0,0.0,0.0,177.4758,1.193444,12.0,40.0,0.0,0.0,0.0,0.0,0.0,0.0,0.0,282.91263,0.0,0.0,0.0,0.0,0.0
0.0,0.0,0.0,0.0,0.0,0.0,0.96652,2.501804E8,2.501804E8,2.50180416E8,2.50180416E8,2.50180464E8,2.50180496E8,63.991837,-22.605425,-9999.0,0.0,0.424,180.01839,0.0,0.0,0.0,0.0,0.0,177.4758,1.193444,12.0,40.0,0.0,0.0,0.0,0.0,0.0,0.0,0.0,282.91263,0.0,0.0,0.0,0.0,0.0
0.0,0.0,0.0,0.0,0.0,0.0,0.96652,2.501804E8,2.501804E8,2.50180416E8,2.50180416E8,2.50180464E8,2.50180496E8,63.991837,-22.605425,-9999.0,0.0,0.424,180.01839,0.0,0.0,0.0,0.0,0.0,177.4758,1.193444,12.0,40.0,0.0,0.0,0.0,0.0,0.0,0.0,0.0,282.91263,0.0,0.0,0.0,0.0,0.0
0.0,0.0,0.0,0.0,0.0,0.0,0.96652,2.501804E8,2.501804E8,2.50180416E8,2.50180416E8,2.50180464E8,2.50180496E8,63.991837,-22.605425,-9999.0,0.0,0.424,180.01839,0.0,0.0,0.0,0.0,0.0,177.4758,1.193444,12.0,40.0,0.0,0.0,0.0,0.0,0.0,0.0,0.0,282.91263,0.0,0.0,0.0,0.0,0.0
0.0,0.0,0.0,0.0,0.0,0.0,0.96652,2.501804E8,2.501804E8,2.50180416E8,2.50180416E8,2.50180464E8,2.50180496E8,63.991837,-22.605425,-9999.0,0.0,0.424,180.01839,0.0,0.0,0.0,0.0,0.0,177.4758,1.193444,12.0,40.0,0.0,0.0,0.0,0.0,0.0,0.0,0.0,282.91263,0.0,0.0,0.0,0.0,0.0
0.0,0.0,0.0,0.0,0.0,0.0,0.96652,2.501804E8,2.501804E8,2.50180416E8,2.50180416E8,2.50180464E8,2.50180496E8,63.991837,-22.605425,-9999.0,0.0,0.424,180.01839,0.0,0.0,0.0,0.0,0.0,177.4758,1.193444,12.0,40.0,0.0,0.0,0.0,0.0,0.0,0.0,0.0,282.91263,0.0,0.0,0.0,0.0,0.0
0.0,0.0,0.0,0.0,0.0,0.0,0.96652,2.501804E8,2.501804E8,2.50180416E8,2.50180416E8,2.50180464E8,2.50180496E8,63.991837,-22.605425,-9999.0,0.0,0.424,180.01839,0.0,0.0,0.0,0.0,0.0,177.4758,1.193444,12.0,40.0,0.0,0.0,0.0,0.0,0.0,0.0,0.0,282.91263,0.0,0.0,0.0,0.0,0.0
0.0,0.0,0.0,0.0,0.0,0.0,0.96652,2.501804E8,2.501804E8,2.50180416E8,2.50180416E8,2.50180464E8,2.50180496E8,63.991837,-22.605425,-9999.0,0.0,0.424,180.01839,0.0,0.0,0.0,0.0,0.0,177.4758,1.193444,12.0,40.0,0.0,0.0,0.0,0.0,0.0,0.0,0.0,282.91263,0.0,0.0,0.0,0.0,0.0
0.0,0.0,0.0,0.0,0.0,0.0,0.96652,2.501804E8,2.501804E8,2.50180416E8,2.50180416E8,2.50180464E8,2.50180496E8,63.991837,-22.605425,-9999.0,0.0,0.424,180.01839,0.0,0.0,0.0,0.0,0.0,177.4758,1.193444,12.0,40.0,0.0,0.0,0.0,0.0,0.0,0.0,0.0,282.91263,0.0,0.0,0.0,0.0,0.0
0.0,0.0,0.0,0.0,0.0,0.0,0.96652,2.501804E8,2.501804E8,2.50180416E8,2.50180416E8,2.50180464E8,2.50180496E8,63.991837,-22.605425,-9999.0,0.0,0.424,180.01839,0.0,0.0,0.0,0.0,0.0,177.4758,1.193444,12.0,40.0,0.0,0.0,0.0,0.0,0.0,0.0,0.0,282.91263,0.0,0.0,0.0,0.0,0.0
0.0,0.0,0.0,0.0,0.0,0.0,0.96652,2.501804E8,2.501804E8,2.50180416E8,2.50180416E8,2.50180464E8,2.50180496E8,63.991837,-22.605425,-9999.0,0.0,0.424,180.01839,0.0,0.0,0.0,0.0,0.0,177.4758,1.193444,12.0,40.0,0.0,0.0,0.0,0.0,0.0,0.0,0.0,282.91263,0.0,0.0,0.0,0.0,0.0
0.0,0.0,0.0,0.0,0.0,0.0,0.96652,2.501804E8,2.501804E8,2.50180416E8,2.50180416E8,2.50180464E8,2.50180496E8,63.991837,-22.605425,-9999.0,0.0,0.424,180.01839,0.0,0.0,0.0,0.0,0.0,177.4758,1.193444,12.0,40.0,0.0,0.0,0.0,0.0,0.0,0.0,0.0,282.91263,0.0,0.0,0.0,0.0,0.0
0.0,0.0,0.0,0.0,0.0,0.0,0.96652,2.501804E8,2.501804E8,2.50180416E8,2.50180416E8,2.50180464E8,2.50180496E8,63.991837,-22.605425,-9999.0,0.0,0.424,180.01839,0.0,0.0,0.0,0.0,0.0,177.4758,1.193444,12.0,40.0,0.0,0.0,0.0,0.0,0.0,0.0,0.0,282.91263,0.0,0.0,0.0,0.0,0.0
0.0,0.0,0.0,0.0,0.0,0.0,0.96652,2.501804E8,2.501804E8,2.50180416E8,2.50180416E8,2.50180464E8,2.50180496E8,63.991837,-22.605425,-9999.0,0.0,0.424,180.01839,0.0,0.0,0.0,0.0,0.0,177.4758,1.193444,12.0,40.0,0.0,0.0,0.0,0.0,0.0,0.0,0.0,282.91263,0.0,0.0,0.0,0.0,0.0
0.0,0.0,0.0,0.0,0.0,0.0,0.96652,2.501804E8,2.501804E8,2.50180416E8,2.50180416E8,2.50180464E8,2.50180496E8,63.991837,-22.605425,-9999.0,0.0,0.424,180.01839,0.0,0.0,0.0,0.0,0.0,177.4758,1.193444,12.0,40.0,0.0,0.0,0.0,0.0,0.0,0.0,0.0,282.91263,0.0,0.0,0.0,0.0,0.0
0.0,0.0,0.0,0.0,0.0,0.0,0.96652,2.501804E8,2.501804E8,2.50180416E8,2.50180416E8,2.50180464E8,2.50180496E8,63.991837,-22.605425,-9999.0,0.0,0.424,180.01839,0.0,0.0,0.0,0.0,0.0,177.4758,1.193444,12.0,40.0,0.0,0.0,0.0,0.0,0.0,0.0,0.0,282.91263,0.0,0.0,0.0,0.0,0.0
0.0,0.0,0.0,0.0,0.0,0.0,0.96652,2.501804E8,2.501804E8,2.50180416E8,2.50180416E8,2.50180464E8,2.50180496E8,63.991837,-22.605425,-9999.0,0.0,0.424,180.01839,0.0,0.0,0.0,0.0,0.0,177.4758,1.193444,12.0,40.0,0.0,0.0,0.0,0.0,0.0,0.0,0.0,282.91263,0.0,0.0,0.0,0.0,0.0
0.0,0.0,0.0,0.0,0.0,0.0,0.96652,2.501804E8,2.501804E8,2.50180416E8,2.50180416E8,2.50180464E8,2.50180496E8,63.991837,-22.605425,-9999.0,0.0,0.424,180.01839,0.0,0.0,0.0,0.0,0.0,177.4758,1.193444,12.0,40.0,0.0,0.0,0.0,0.0,0.0,0.0,0.0,282.91263,0.0,0.0,0.0,0.0,0.0
0.0,0.0,0.0,0.0,0.0,0.0,0.96652,2.501804E8,2.501804E8,2.50180416E8,2.50180416E8,2.50180464E8,2.50180496E8,63.991837,-22.605425,-9999.0,0.0,0.424,180.01839,0.0,0.0,0.0,0.0,0.0,177.4758,1.193444,12.0,40.0,0.0,0.0,0.0,0.0,0.0,0.0,0.0,282.91263,0.0,0.0,0.0,0.0,0.0
0.0,0.0,0.0,0.0,0.0,0.0,0.96652,2.501804E8,2.501804E8,2.50180416E8,2.50180416E8,2.50180464E8,2.50180496E8,63.991837,-22.605425,-9999.0,0.0,0.424,180.01839,0.0,0.0,0.0,0.0,0.0,177.4758,1.193444,12.0,40.0,0.0,0.0,0.0,0.0,0.0,0.0,0.0,282.91263,0.0,0.0,0.0,0.0,0.0
0.0,0.0,0.0,0.0,0.0,0.0,0.96652,2.501804E8,2.501804E8,2.50180416E8,2.50180416E8,2.50180464E8,2.50180496E8,63.991837,-22.605425,-9999.0,0.0,0.424,180.01839,0.0,0.0,0.0,0.0,0.0,177.4758,1.193444,12.0,40.0,0.0,0.0,0.0,0.0,0.0,0.0,0.0,282.91263,0.0,0.0,0.0,0.0,0.0
0.0,0.0,0.0,0.0,0.0,0.0,0.96652,2.501804E8,2.501804E8,2.50180416E8,2.50180416E8,2.50180464E8,2.50180496E8,63.991837,-22.605425,-9999.0,0.0,0.424,180.01839,0.0,0.0,0.0,0.0,0.0,177.4758,1.193444,12.0,40.0,0.0,0.0,0.0,0.0,0.0,0.0,0.0,282.91263,0.0,0.0,0.0,0.0,0.0
0.0,0.0,0.0,0.0,0.0,0.0,0.96652,2.501804E8,2.501804E8,2.50180416E8,2.50180416E8,2.50180464E8,2.50180496E8,63.991837,-22.605425,-9999.0,0.0,0.424,180.01839,0.0,0.0,0.0,0.0,0.0,177.4758,1.193444,12.0,40.0,0.0,0.0,0.0,0.0,0.0,0.0,0.0,282.91263,0.0,0.0,0.0,0.0,0.0
0.0,0.0,0.0,0.0,0.0,0.0,0.0,2.501804E8,2.501804E8,2.50180416E8,2.50180416E8,2.50180464E8,2.50180496E8,63.991837,-22.605427,146.22935,0.104769,4.95379,180.01332,0.0,0.0,0.0,0.0,0.0,177.4758,1.193444,12.0,40.0,0.0,0.0,0.0,0.0,0.0,0.0,0.0,282.91263,0.0,0.0,0.0,0.0,0.0
0.0,0.0,0.0,0.0,0.0,0.0,0.0,2.501804E8,2.501804E8,2.50180416E8,2.50180416E8,2.50180464E8,2.50180496E8,63.991837,-22.605427,146.22926,0.09626,4.971026,180.01266,89.85928,3.012082,-0.017267,-4.5E-5,0.0,324.55453,148.27217,12.0,40.0,0.0,0.0,140.00014,140.0,146.22926,7.4E-5,-0.012948,282.91257,357.3431,-0.005776,-0.454028,3973.0757,0.0
0.0,0.0,0.0,0.0,0.0,0.0,0.0,2.501804E8,2.501804E8,2.50180416E8,2.50180416E8,2.50180464E8,2.50180496E8,63.991837,-22.605427,146.22954,0.095407,4.951319,180.01257,83.88314,2.733594,0.114129,2.6E-5,0.0,298.50818,122.22582,12.0,40.0,0.0,0.0,120.000145,120.0,146.22954,6.1E-5,0.003992,282.91257,330.81226,-0.012576,-1.260351,2438.6619,0.0
0.0,0.0,0.0,0.0,0.0,0.0,0.0,2.501804E8,2.501804E8,2.50180416E8,2.50180416E8,2.50180464E8,2.50180496E8,63.991837,-22.605427,146.22954,0.095432,4.951106,180.01259,83.36956,2.714113,0.136879,2.4E-5,4.74331,297.3537,121.07135,12.0,40.0,0.0,0.0,120.000145,120.0,146.22954,6.0E-5,0.002147,282.91257,327.87833,-0.012827,-1.30607,2326.9814,0.0
0.0,0.0,0.0,0.0,0.0,0.0,0.0,2.501804E8,2.501804E8,2.50180416E8,2.50180416E8,2.50180464E8,2.50180496E8,63.991837,-22.605427,146.22954,0.095797,4.95082,180.0126,81.84331,2.659058,0.07678,1.0E-5,4.259609,290.982,114.69964,12.0,40.0,0.0,0.0,120.000145,120.0,146.22954,5.7E-5,6.37E-4,282.91257,318.81647,-0.013505,-1.428895,1904.097,0.0
0.0,0.0,0.0,0.0,0.0,0.0,0.0,2.501804E8,2.501804E8,2.50180416E8,2.50180416E8,2.50180464E8,2.50180496E8,63.991837,-22.605427,146.22954,0.095893,4.950786,180.01262,81.42132,2.644554,0.045959,6.0E-6,5.410109,290.15048,113.86812,12.0,40.0,0.0,0.0,120.000145,120.0,146.22954,5.7E-5,2.01E-4,282.91257,316.23917,-0.01372,-1.459748,1812.5625,0.0
0.0,0.0,0.0,0.0,0.0,0.0,0.0,2.501804E8,2.501804E8,2.50180416E8,2.50180416E8,2.50180464E8,2.50180496E8,63.991837,-22.605427,146.22954,0.095963,4.950769,180.01262,81.11709,2.634284,-0.11723,-1.4E-5,6.183461,289.31982,113.03746,12.0,40.0,0.0,0.0,110.000145,110.0,146.22954,5.6E-5,2.01E-4,282.91257,314.36514,-0.013819,-1.48124,1737.6805,0.0
0.0,0.0,0.0,0.0,0.0,0.0,0.0,2.501804E8,2.501804E8,2.50180416E8,2.50180416E8,2.50180464E8,2.50180496E8,63.991837,-22.605427,146.22954,0.09606,4.950758,180.01263,80.6872,2.620031,-0.113973,-1.3E-5,6.806162,287.95105,111.66871,12.0,40.0,0.0,0.0,110.000145,110.0,146.22954,5.5E-5,-0.001241,282.91257,311.69705,-0.014013,-1.510585,1622.5898,0.0
0.0,0.0,0.0,0.0,0.0,0.0,0.0,2.501804E8,2.501804E8,2.50180416E8,2.50180416E8,2.50180464E8,2.50180496E8,63.991837,-22.605427,146.22954,0.096146,4.950761,180.01263,80.31497,2.607938,-0.122545,-1.6E-5,7.062926,286.68192,110.39958,12.0,40.0,0.0,0.0,110.000145,110.0,146.22954,5.5E-5,-0.001107,282.91257,309.37045,-0.01419,-1.535064,1516.8566,0.0
0.0,0.0,0.0,0.0,0.0,0.0,0.0,2.501804E8,2.501804E8,2.50180416E8,2.50180416E8,2.50180464E8,2.50180496E8,63.991837,-22.605427,146.22954,0.096239,4.950772,180.01265,79.93925,2.595957,-0.123961,-1.7E-5,7.270339,285.337,109.05466,12.0,40.0,0.0,0.0,110.000145,110.0,146.22954,5.4E-5,-0.001275,282.91257,307.0089,-0.014274,-1.558938,1403.8883,0.0
0.0,0.0,0.0,0.0,0.0,0.0,0.0,2.501804E8,2.501804E8,2.50180416E8,2.50180416E8,2.50180464E8,2.50180496E8,63.991837,-22.605427,146.22954,0.096322,4.950786,180.01265,79.62345,2.586056,-0.114541,-1.7E-5,7.318003,284.2034,107.92104,12.0,40.0,0.0,0.0,110.000145,110.0,146.22954,5.4E-5,-0.001543,282.91257,305.01532,-0.014355,-1.578381,1305.2694,0.0
0.0,0.0,0.0,0.0,0.0,0.0,0.0,2.501804E8,2.501804E8,2.50180416E8,2.50180416E8,2.50180464E8,2.50180496E8,63.991837,-22.605427,146.22954,0.096356,4.950793,180.01265,79.49646,2.582119,-0.119861,-1.8E-5,7.376086,283.73434,107.45199,12.0,40.0,0.0,0.0,110.000145,110.0,146.22954,5.4E-5,-0.001543,282.91257,304.21158,-0.014435,-1.586045,1263.8716,0.0
0.0,0.0,0.0,0.0,0.0,0.0,0.0,2.501804E8,2.501804E8,2.50180416E8,2.50180416E8,2.50180464E8,2.50180496E8,63.991837,-22.605427,146.2295,0.098315,4.95138,180.01282,74.731804,2.450927,-0.155694,-1.4E-5,0.124369,264.53738,88.255035,12.0,40.0,0.0,0.0,90.000145,90.0,146.2295,4.8E-5,-0.002449,282.91257,273.81866,-0.015665,-1.820518,-532.17505,0.0
0.0,0.0,0.0,0.0,0.0,0.0,0.0,2.501804E8,2.501804E8,2.50180416E8,2.50180416E8,2.50180464E8,2.50180496E8,63.991837,-22.605427,146.2295,0.098369,4.951402,180.01282,74.30626,2.440657,-0.253661,-2.1E-5,3.978664,264.10324,87.8209,12.0,40.0,0.0,0.0,90.000145,90.0,146.2295,4.7E-5,-0.001577,282.91257,271.12704,-0.015718,-1.83733,-530.9636,0.0
0.0,0.0,0.0,0.0,0.0,0.0,0.0,2.501804E8,2.501804E8,2.50180416E8,2.50180416E8,2.50180464E8,2.50180496E8,63.991837,-22.605427,146.2295,0.098413,4.951421,180.01282,73.94895,2.432209,-0.238931,-2.0E-5,5.410989,263.46143,87.17908,12.0,40.0,0.0,0.0,90.000145,90.0,146.2295,4.7E-5,-0.00161,282.91257,268.8746,-0.015765,-1.851021,-561.7054,0.0
0.0,0.0,0.0,0.0,0.0,0.0,0.0,2.501804E8,2.501804E8,2.50180416E8,2.50180416E8,2.50180464E8,2.50180496E8,63.991837,-22.605427,146.2295,0.09848,4.951451,180.01282,73.444595,2.420545,-0.21439,-2.1E-5,6.437806,262.25244,85.9701,12.0,40.0,0.0,0.0,90.000145,90.0,146.2295,4.6E-5,-0.001778,282.91257,265.70844,-0.015853,-1.869714,-629.38934,0.0
0.0,0.0,0.0,0.0,0.0,0.0,0.0,2.501804E8,2.501804E8,2.50180416E8,2.50180416E8,2.50180464E8,2.50180496E8,63.991837,-22.605427,146.2295,0.098546,4.951479,180.01283,73.00842,2.410699,-0.202764,-2.2E-5,6.917058,261.044,84.76164,12.0,40.0,0.0,0.0,90.000145,90.0,146.2295,4.6E-5,-0.001677,282.91257,262.9843,-0.015935,-1.885308,-692.953,0.0
0.0,0.0,0.0,0.0,0.0,0.0,0.0,2.501804E8,2.501804E8,2.50180416E8,2.50180416E8,2.50180464E8,2.50180496E8,63.991837,-22.605427,146.2295,0.09861,4.951503,180.01283,72.64219,2.402609,-0.057014,-7.0E-6,7.093217,259.9816,83.69924,12.0,40.0,0.0,0.0,90.000145,90.0,146.2295,4.5E-5,-0.001442,282.91257,260.70813,-0.01597,-1.898008,-743.0886,0.0
0.0,0.0,0.0,0.0,0.0,0.0,0.0,2.501804E8,2.501804E8,2.50180416E8,2.50180416E8,2.50180464E8,2.50180496E8,63.991837,-22.605427,146.2295,0.098684,4.951526,180.01285,72.27349,2.394612,-0.07499,-1.0E-5,7.26366,258.86197,82.57961,12.0,40.0,0.0,0.0,80.000145,80.0,146.2295,4.5E-5,-0.001006,282.91257,258.42725,-0.016009,-1.910445,-791.8444,0.0
0.0,0.0,0.0,0.0,0.0,0.0,0.0,2.501804E8,2.501804E8,2.50180416E8,2.50180416E8,2.50180464E8,2.50180496E8,63.991837,-22.605427,146.2295,0.098813,4.951561,180.01285,71.67845,2.382018,-0.077632,-1.1E-5,7.270051,256.9405,80.65813,12.0,40.0,0.0,0.0,80.000145,80.0,146.2295,4.5E-5,-0.001174,282.91257,254.77022,-0.016083,-1.929813,-868.15125,0.0
0.0,0.0,0.0,0.0,0.0,0.0,0.0,2.501804E8,2.501804E8,2.50180416E8,2.50180416E8,2.50180464E8,2.50180496E8,63.991837,-22.605427,146.2295,0.098912,4.95159,180.01286,71.228035,2.37274,-0.094696,-1.4E-5,7.337485,255.57295,79.290596,12.0,40.0,0.0,0.0,80.000145,80.0,146.2295,4.4E-5,-0.001073,282.91257,252.02301,-0.016157,-1.94392,-912.80646,0.0
0.0,0.0,0.0,0.0,0.0,0.0,0.0,2.501804E8,2.501804E8,2.50180416E8,2.50180416E8,2.50180464E8,2.50180496E8,63.991837,-22.605427,146.2295,0.099005,4.951621,180.01286,70.77411,2.363599,-0.192289,-2.6E-5,7.353261,254.20073,77.91838,12.0,40.0,0.0,0.0,80.000145,80.0,146.2295,4.4E-5,-0.002549,282.91257,249.27357,-0.016197,-1.957678,-953.28296,0.0
0.0,0.0,0.0,0.0,0.0,0.0,0.0,2.501804E8,2.501804E8,2.50180416E8,2.50180416E8,2.50180464E8,2.50180496E8,63.991837,-22.605427,146.2295,0.099079,4.951651,180.01288,70.39318,2.356102,-0.194172,-2.6E-5,7.387611,253.03885,76.7565,12.0,40.0,0.0,0.0,80.000145,80.0,146.2295,4.3E-5,-0.002147,282.91257,246.98167,-0.016233,-1.968883,-985.2717,0.0
0.0,0.0,0.0,0.0,0.0,0.0,0.0,2.501804E8,2.501804E8,2.50180416E8,2.50180416E8,2.50180464E8,2.50180496E8,63.991837,-22.605427,146.2295,0.099182,4.951696,180.01288,69.855804,2.345786,-0.188963,-2.6E-5,7.446569,251.3972,75.114845,12.0,40.0,0.0,0.0,80.000145,80.0,146.2295,4.3E-5,-0.00218,282.91257,243.77354,-0.016303,-1.984181,-1027.059,0.0
0.0,0.0,0.0,0.0,0.0,0.0,0.0,2.501804E8,2.501804E8,2.50180416E8,2.50180416E8,2.50180464E8,2.50180496E8,63.991837,-22.605427,146.22949,0.099257,4.95173,180.0129,69.469055,2.338548,-0.060901,-9.0E-6,7.429847,250.22444,73.942085,12.0,40.0,0.0,0.0,80.000145,80.0,146.22949,4.2E-5,-0.002214,282.91257,241.48347,-0.016335,-1.994838,-1054.4276,0.0
0.0,0.0,0.0,0.0,0.0,0.0,0.0,2.501804E8,2.501804E8,2.50180416E8,2.50180416E8,2.50180464E8,2.50180496E8,63.991837,-22.605427,146.22949,0.099374,4.951775,180.0129,68.92357,2.328598,-0.08217,-1.3E-5,7.479756,248.5724,72.290054,12.0,40.0,0.0,0.0,70.000145,70.0,146.22949,4.2E-5,-0.00104,282.91257,238.28108,-0.016392,-2.009389,-1090.37,0.0
0.0,0.0,0.0,0.0,0.0,0.0,0.0,2.501804E8,2.501804E8,2.50180416E8,2.50180416E8,2.50180464E8,2.50180496E8,63.991837,-22.605427,146.22949,0.099461,4.951804,180.01291,68.53107,2.321616,-0.084211,-1.3E-5,7.485718,247.3935,71.111145,12.0,40.0,0.0,0.0,70.000145,70.0,146.22949,4.2E-5,-0.001241,282.91257,235.99736,-0.016423,-2.019526,-1114.077,0.0
0.0,0.0,0.0,0.0,0.0,0.0,0.0,2.501804E8,2.501804E8,2.50180416E8,2.50180416E8,2.50180464E8,2.50180496E8,63.991837,-22.605427,146.22949,0.099582,4.951844,180.01291,67.97761,2.312015,-0.176171,-2.6E-5,7.487418,245.73988,69.45754,12.0,40.0,0.0,0.0,70.000145,70.0,146.22949,4.1E-5,-0.002717,282.91257,232.80695,-0.016489,-2.033365,-1145.0988,0.0
0.0,0.0,0.0,0.0,0.0,0.0,0.0,2.501804E8,2.501804E8,2.50180416E8,2.50180416E8,2.50180464E8,2.50180496E8,63.991837,-22.605427,146.22949,0.09966,4.951876,180.01292,67.579506,2.305292,-0.189477,-2.7E-5,7.478205,244.56157,68.27922,12.0,40.0,0.0,0.0,70.000145,70.0,146.22949,4.1E-5,-0.002147,282.91257,230.53395,-0.01652,-2.043006,-1165.6039,0.0
0.0,0.0,0.0,0.0,0.0,0.0,0.0,2.501804E8,2.501804E8,2.50180416E8,2.50180416E8,2.50180464E8,2.50180496E8,63.991837,-22.605427,146.22949,0.099766,4.951923,180.01292,67.01828,2.296072,-0.181866,-2.6E-5,7.479072,242.9081,66.62575,12.0,40.0,0.0,0.0,70.000145,70.0,146.22949,4.0E-5,-0.00218,282.91257,227.3616,-0.01658,-2.05617,-1192.6602,0.0
0.0,0.0,0.0,0.0,0.0,0.0,0.0,2.501804E8,2.501804E8,2.50180416E8,2.50180416E8,2.50180464E8,2.50180496E8,63.991837,-22.605427,146.22949,0.099857,4.951964,180.01294,66.53366,2.288351,-0.06358,-9.0E-6,7.491236,241.4838,65.20145,12.0,40.0,0.0,0.0,70.000145,70.0,146.22949,4.0E-5,-0.001879,282.91257,224.65294,-0.016626,-2.067151,-1214.6556,0.0
0.0,0.0,0.0,0.0,0.0,0.0,0.0,2.501804E8,2.501804E8,2.50180416E8,2.50180416E8,2.50180464E8,2.50180496E8,63.991837,-22.605427,146.22949,0.099938,4.951996,180.01294,66.1273,2.282045,-0.077079,-1.2E-5,7.488424,240.30579,64.02344,12.0,40.0,0.0,0.0,70.000145,70.0,146.22949,4.0E-5,-7.72E-4,282.91257,222.40407,-0.016651,-2.076093,-1231.523,0.0
0.0,0.0,0.0,0.0,0.0,0.0,0.0,2.501804E8,2.501804E8,2.50180416E8,2.50180416E8,2.50180464E8,2.50180496E8,63.991837,-22.605427,146.22949,0.100058,4.952036,180.01295,65.554596,2.273404,-0.069848,-1.1E-5,7.448889,238.6557,62.37335,12.0,40.0,0.0,0.0,60.00014,60.0,146.22949,3.9E-5,-0.001308,282.91257,219.26987,-0.016704,-2.088304,-1253.7928,0.0
0.0,0.0,0.0,0.0,0.0,0.0,0.0,2.501804E8,2.501804E8,2.50180416E8,2.50180416E8,2.50180464E8,2.50180496E8,63.991837,-22.605427,146.22949,0.100161,4.952069,180.01295,65.06028,2.266178,-0.083154,-1.3E-5,7.490348,237.2317,60.94935,12.0,40.0,0.0,0.0,60.00014,60.0,146.22949,3.9E-5,-0.001107,282.91257,216.59792,-0.016729,-2.09849,-1272.2026,0.0
0.0,0.0,0.0,0.0,0.0,0.0,0.0,2.501804E8,2.501804E8,2.50180416E8,2.50180416E8,2.50180464E8,2.50180496E8,63.991837,-22.605427,146.22949,0.100262,4.952101,180.01297,64.56281,2.259119,-0.081671,-1.2E-5,7.452109,235.82596,59.54361,12.0,40.0,0.0,0.0,60.00014,60.0,146.22949,3.8E-5,-0.001342,282.91257,213.94061,-0.016781,-2.108423,-1288.7142,0.0
0.0,0.0,0.0,0.0,0.0,0.0,0.0,2.501804E8,2.501804E8,2.50180416E8,2.50180416E8,2.50180464E8,2.50180496E8,63.991837,-22.605427,146.22949,0.100361,4.952132,180.01297,64.06229,2.252233,-0.093268,-1.4E-5,7.496399,234.40004,58.117687,12.0,40.0,0.0,0.0,60.00014,60.0,146.22949,3.8E-5,-0.001107,282.91257,211.29915,-0.016805,-2.118111,-1305.3195,0.0
0.0,0.0,0.0,0.0,0.0,0.0,0.0,2.501804E8,2.501804E8,2.50180416E8,2.50180416E8,2.50180464E8,2.50180496E8,63.991837,-22.605427,146.22949,0.100439,4.952159,180.01299,63.642822,2.246618,-0.183268,-2.4E-5,7.453682,233.22395,56.9416,12.0,40.0,0.0,0.0,60.00014,60.0,146.22949,3.8E-5,-0.002851,282.91257,209.11086,-0.016835,-2.126001,-1317.9031,0.0
0.0,0.0,0.0,0.0,0.0,0.0,0.0,2.501804E8,2.501804E8,2.50180416E8,2.50180416E8,2.50180464E8,2.50180496E8,63.991837,-22.605427,146.22948,0.100523,4.952195,180.01299,63.136784,2.240046,-0.202835,-2.6E-5,7.494461,231.79955,55.5172,12.0,40.0,0.0,0.0,60.00014,60.0,146.22948,3.7E-5,-0.001979,282.91257,206.50142,-0.016886,-2.135255,-1332.9221,0.0
0.0,0.0,0.0,0.0,0.0,0.0,0.0,2.501804E8,2.501804E8,2.50180416E8,2.50180416E8,2.50180464E8,2.50180496E8,63.991837,-22.605427,146.22948,0.100618,4.952239,180.013,62.54267,2.232605,-0.192176,-2.5E-5,7.49247,230.14798,53.86563,12.0,40.0,0.0,0.0,60.00014,60.0,146.22948,3.7E-5,-0.001845,282.91257,203.48123,-0.016931,-2.145761,-1349.0253,0.0
0.0,0.0,0.0,0.0,0.0,0.0,0.0,2.501804E8,2.501804E8,2.50180416E8,2.50180416E8,2.50180464E8,2.50180496E8,63.991837,-22.605427,146.22948,0.100685,4.952271,180.013,62.115894,2.227438,-0.18399,-2.3E-5,7.496114,228.96924,52.68689,12.0,40.0,0.0,0.0,60.00014,60.0,146.22948,3.6E-5,-0.001811,282.91257,201.34082,-0.016952,-2.15308,-1359.9241,0.0
0.0,0.0,0.0,0.0,0.0,0.0,0.0,2.501804E8,2.501804E8,2.50180416E8,2.50180416E8,2.50180464E8,2.50180496E8,63.991837,-22.605427,146.22948,0.100781,4.952315,180.013,61.515125,2.220422,-0.075254,-1.0E-5,7.497696,227.31575,51.033405,12.0,40.0,0.0,0.0,50.00014,50.0,146.22948,3.6E-5,-2.35E-4,282.91257,198.36914,-0.01699,-2.163073,-1374.5953,0.0
0.0,0.0,0.0,0.0,0.0,0.0,0.0,2.501804E8,2.501804E8,2.50180416E8,2.50180416E8,2.50180464E8,2.50180496E8,63.991837,-22.605427,146.22948,0.100857,4.952342,180.01302,61.083652,2.215558,-0.058362,-8.0E-6,7.488551,226.13747,49.85512,12.0,40.0,0.0,0.0,50.00014,50.0,146.22948,3.6E-5,-0.00104,282.91257,196.26515,-0.017009,-2.170034,-1384.4519,0.0
0.0,0.0,0.0,0.0,0.0,0.0,0.0,2.501804E8,2.501804E8,2.50180416E8,2.50180416E8,2.50180464E8,2.50180496E8,63.991837,-22.605427,146.22948,0.100964,4.952377,180.01302,60.476433,2.208956,-0.064194,-9.0E-6,7.48944,224.484,48.201645,12.0,40.0,0.0,0.0,50.00014,50.0,146.22948,3.5E-5,-0.00104,282.91257,193.34692,-0.017049,-2.179538,-1397.7843,0.0
0.0,0.0,0.0,0.0,0.0,0.0,0.0,2.501804E8,2.501804E8,2.50180416E8,2.50180416E8,2.50180464E8,2.50180496E8,63.991837,-22.605427,146.22948,0.101037,4.952401,180.01303,60.040474,2.204385,-0.168413,-2.1E-5,7.491438,223.30473,47.022385,12.0,40.0,0.0,0.0,50.00014,50.0,146.22948,3.5E-5,-0.002482,282.91257,191.2828,-0.017074,-2.186159,-1406.7942,0.0
0.0,0.0,0.0,0.0,0.0,0.0,0.0,2.501804E8,2.501804E8,2.50180416E8,2.50180416E8,2.50180464E8,2.50180496E8,63.991837,-22.605427,146.22948,0.101115,4.952433,180.01303,59.51502,2.199073,-0.181167,-2.1E-5,7.535977,221.89635,45.614002,12.0,40.0,0.0,0.0,50.00014,50.0,146.22948,3.5E-5,-0.001811,282.91257,188.82915,-0.017095,-2.193924,-1416.8572,0.0
0.0,0.0,0.0,0.0,0.0,0.0,0.0,2.501804E8,2.501804E8,2.50180416E8,2.50180416E8,2.50180464E8,2.50180496E8,63.991837,-22.605427,146.22948,0.101201,4.952472,180.01305,58.89885,2.193115,-0.174528,-2.0E-5,7.583006,220.23799,43.955647,12.0,40.0,0.0,0.0,50.00014,50.0,146.22948,3.4E-5,-0.001644,282.91257,185.99988,-0.017134,-2.20274,-1428.7086,0.0
0.0,0.0,0.0,0.0,0.0,0.0,0.0,2.501804E8,2.501804E8,2.50180416E8,2.50180416E8,2.50180464E8,2.50180496E8,63.991837,-22.605427,146.22948,0.101275,4.952505,180.01305,58.36806,2.188212,-0.162354,-1.8E-5,7.552976,218.82797,42.545624,12.0,40.0,0.0,0.0,50.00014,50.0,146.22948,3.4E-5,-0.00151,282.91257,183.60442,-0.017169,-2.210095,-1437.8842,0.0
0.0,0.0,0.0,0.0,0.0,0.0,0.0,2.501804E8,2.501804E8,2.50180416E8,2.50180416E8,2.50180464E8,2.50180496E8,63.991837,-22.605427,146.22948,0.101347,4.952538,180.01305,57.834923,2.183498,-0.153025,-1.7E-5,7.559801,217.415,41.13265,12.0,40.0,0.0,0.0,40.00014,40.0,146.22948,3.4E-5,-0.001442,282.91257,181.23729,-0.017186,-2.217267,-1446.7942,0.0
0.0,0.0,0.0,0.0,0.0,0.0,0.0,2.501804E8,2.501804E8,2.50180416E8,2.50180416E8,2.50180464E8,2.50180496E8,63.991837,-22.605427,146.22948,0.101407,4.952566,180.01306,57.388905,2.179715,-0.148864,-1.7E-5,7.598743,216.2296,39.94725,12.0,40.0,0.0,0.0,40.00014,40.0,146.22948,3.3E-5,-0.001409,282.91257,179.28697,-0.017202,-2.223109,-1454.2762,0.0
0.0,0.0,0.0,0.0,0.0,0.0,0.0,2.501804E8,2.501804E8,2.50180416E8,2.50180416E8,2.50180464E8,2.50180496E8,63.991837,-22.605427,146.22946,0.101491,4.952602,180.01306,56.76191,2.174641,-0.140823,-1.6E-5,7.611214,214.5689,38.286545,12.0,40.0,0.0,0.0,40.00014,40.0,146.22946,3.3E-5,-0.001275,282.91257,176.5916,-0.017235,-2.231084,-1464.3595,0.0
0.0,0.0,0.0,0.0,0.0,0.0,0.0,2.501804E8,2.501804E8,2.50180416E8,2.50180416E8,2.50180464E8,2.50180496E8,63.991837,-22.605427,146.22946,0.101563,4.952633,180.01308,56.222183,2.170499,-0.129518,-1.4E-5,7.57338,213.15768,36.87534,12.0,40.0,0.0,0.0,40.00014,40.0,146.22946,3.3E-5,-0.001342,282.91257,174.31476,-0.017267,-2.237738,-1472.0857,0.0
0.0,0.0,0.0,0.0,0.0,0.0,0.0,2.501804E8,2.501804E8,2.50180416E8,2.50180416E8,2.50180464E8,2.50180496E8,63.991837,-22.605427,146.22946,0.101622,4.952658,180.01308,55.770866,2.167196,-0.124177,-1.3E-5,7.574353,211.97571,35.693356,12.0,40.0,0.0,0.0,40.00014,40.0,146.22946,3.2E-5,-0.001275,282.91257,172.44164,-0.017282,-2.243156,-1478.5306,0.0
0.0,0.0,0.0,0.0,0.0,0.0,0.0,2.501804E8,2.501804E8,2.50180416E8,2.50180416E8,2.50180464E8,2.50180496E8,63.991837,-22.605427,146.22946,0.101709,4.952689,180.01308,55.136806,2.162807,0.001402,0.0,7.576247,210.31868,34.036327,12.0,40.0,0.0,0.0,40.00014,40.0,146.22946,3.2E-5,-1.01E-4,282.91257,169.85721,-0.017307,-2.250554,-1487.279,0.0
0.0,0.0,0.0,0.0,0.0,0.0,0.0,2.501804E8,2.501804E8,2.50180416E8,2.50180416E8,2.50180464E8,2.50180496E8,63.991837,-22.605427,146.22946,0.101791,4.952711,180.01309,54.591263,2.159251,-0.004097,-0.0,7.616151,208.89128,32.608925,12.0,40.0,0.0,0.0,40.00014,40.0,146.22946,3.2E-5,-3.02E-4,282.91257,167.67807,-0.017321,-2.256726,-1494.7529,0.0
0.0,0.0,0.0,0.0,0.0,0.0,0.0,2.501804E8,2.501804E8,2.50180416E8,2.50180416E8,2.50180464E8,2.50180496E8,63.991837,-22.605427,146.22946,0.101871,4.952731,180.01309,54.0439,2.155885,-0.15212,-1.7E-5,7.577533,207.48349,31.201138,12.0,40.0,0.0,0.0,30.000143,30.0,146.22946,3.1E-5,-4.03E-4,282.91257,165.53305,-0.017359,-2.262745,-1501.1058,0.0
0.0,0.0,0.0,0.0,0.0,0.0,0.0,2.501804E8,2.501804E8,2.50180416E8,2.50180416E8,2.50180464E8,2.50180496E8,63.991837,-22.605427,146.22946,0.101942,4.952752,180.0131,53.4949,2.152713,-0.152655,-1.5E-5,7.621461,206.05632,29.773964,12.0,40.0,0.0,0.0,30.000143,30.0,146.22946,3.1E-5,-0.001006,282.91257,163.42287,-0.017376,-2.268615,-1508.0149,0.0
0.0,0.0,0.0,0.0,0.0,0.0,0.0,2.501804E8,2.501804E8,2.50180416E8,2.50180416E8,2.50180464E8,2.50180496E8,63.991837,-22.605427,146.22946,0.102006,4.952776,180.0131,52.944363,2.149743,-0.144093,-1.4E-5,7.612426,204.64716,28.364803,12.0,40.0,0.0,0.0,30.000143,30.0,146.22946,3.1E-5,-0.001141,282.91257,161.34822,-0.017406,-2.274339,-1513.909,0.0
0.0,0.0,0.0,0.0,0.0,0.0,0.0,2.501804E8,2.501804E8,2.50180416E8,2.50180416E8,2.50180464E8,2.50180496E8,63.991837,-22.605427,146.22946,0.102068,4.952801,180.0131,52.392345,2.146974,-0.132349,-1.2E-5,7.585983,203.23734,26.954985,12.0,40.0,0.0,0.0,30.000143,30.0,146.22946,3.0E-5,-0.001073,282.91257,159.30978,-0.017419,-2.279922,-1519.5917,0.0
0.0,0.0,0.0,0.0,0.0,0.0,0.0,2.501804E8,2.501804E8,2.50180416E8,2.50180416E8,2.50180464E8,2.50180496E8,63.991837,-22.605427,146.22946,0.102118,4.952822,180.0131,51.931274,2.14482,-0.123007,-1.1E-5,7.595906,202.05505,25.772701,12.0,40.0,0.0,0.0,30.000143,30.0,146.22946,3.0E-5,-0.001073,282.91257,157.63924,-0.017432,-2.284469,-1524.4652,0.0
0.0,0.0,0.0,0.0,0.0,0.0,0.0,2.501804E8,2.501804E8,2.50180416E8,2.50180416E8,2.50180464E8,2.50180496E8,63.991837,-22.605427,146.22946,0.102179,4.952847,180.01312,51.376804,2.142419,-0.115821,-1.1E-5,7.638294,200.62599,24.343637,12.0,40.0,0.0,0.0,30.000143,30.0,146.22946,3.0E-5,-9.39E-4,282.91257,155.6689,-0.017459,-2.289802,-1530.535,0.0
0.0,0.0,0.0,0.0,0.0,0.0,0.0,2.501804E8,2.501804E8,2.50180416E8,2.50180416E8,2.50180464E8,2.50180496E8,63.991837,-22.605427,146.22946,0.102249,4.952876,180.01312,50.728386,2.139872,-0.10186,-9.0E-6,7.594084,198.97404,22.69169,12.0,40.0,0.0,0.0,30.000143,30.0,146.22946,3.0E-5,-9.39E-4,282.91257,153.41826,-0.017485,-2.295856,-1536.6907,0.0
0.0,0.0,0.0,0.0,0.0,0.0,0.0,2.501804E8,2.501804E8,2.50180416E8,2.50180416E8,2.50180464E8,2.50180496E8,63.991837,-22.605427,146.22946,0.102308,4.9529,180.01312,50.171432,2.137908,-0.095826,-9.0E-6,7.635539,197.54909,21.26674,12.0,40.0,0.0,0.0,20.000143,20.0,146.22946,2.9E-5,-8.05E-4,282.91257,151.531,-0.017496,-2.300907,-1542.1227,0.0
0.0,0.0,0.0,0.0,0.0,0.0,0.0,2.501804E8,2.501804E8,2.50180416E8,2.50180416E8,2.50180464E8,2.50180496E8,63.991837,-22.605427,146.22946,0.102357,4.952919,180.01314,49.706528,2.136425,-0.086393,-8.0E-6,7.596095,196.37347,20.09112,12.0,40.0,0.0,0.0,20.000143,20.0,146.22946,2.9E-5,-8.39E-4,282.91257,149.98825,-0.017508,-2.305021,-1546.0044,0.0
0.0,0.0,0.0,0.0,0.0,0.0,0.0,2.501804E8,2.501804E8,2.50180416E8,2.50180416E8,2.50180464E8,2.50180496E8,63.991837,-22.605427,146.22946,0.102425,4.952945,180.01314,49.054653,2.134586,-0.07895,-7.0E-6,7.641133,194.71898,18.436626,12.0,40.0,0.0,0.0,20.000143,20.0,146.22946,2.9E-5,-7.04E-4,282.91257,147.87476,-0.017531,-2.310637,-1551.5938,0.0
0.0,0.0,0.0,0.0,0.0,0.0,0.0,2.501804E8,2.501804E8,2.50180416E8,2.50180416E8,2.50180464E8,2.50180496E8,63.991837,-22.605427,146.22946,0.102474,4.952962,180.01314,48.588436,2.133448,0.092848,9.0E-6,7.647215,193.53897,17.25662,12.0,40.0,0.0,0.0,20.000143,20.0,146.22946,2.8E-5,-9.73E-4,282.91257,146.39864,-0.017543,-2.314549,-1555.3676,0.0
0.0,0.0,0.0,0.0,0.0,0.0,0.0,2.501804E8,2.501804E8,2.50180416E8,2.50180416E8,2.50180464E8,2.50180496E8,63.991837,-22.605427,146.22946,0.102552,4.952981,180.01315,47.934856,2.132089,0.069125,7.0E-6,7.638887,191.88565,15.603295,12.0,40.0,0.0,0.0,20.000143,20.0,146.22946,2.8E-5,2.01E-4,282.91257,144.3796,-0.017563,-2.319891,-1560.4994,0.0
0.0,0.0,0.0,0.0,0.0,0.0,0.0,2.501804E8,2.501804E8,2.50180416E8,2.50180416E8,2.50180464E8,2.50180496E8,63.991837,-22.605427,146.22946,0.102609,4.952992,180.01315,47.46751,2.131284,0.063855,6.0E-6,7.64258,190.70642,14.424065,12.0,40.0,0.0,0.0,20.000143,20.0,146.22946,2.8E-5,1.34E-4,282.91257,142.97173,-0.017573,-2.323612,-1563.962,0.0
0.0,0.0,0.0,0.0,0.0,0.0,0.0,2.501804E8,2.501804E8,2.50180416E8,2.50180416E8,2.50180464E8,2.50180496E8,63.991837,-22.605427,146.22946,0.102686,4.953006,180.01315,46.812614,2.130389,-0.117283,-1.0E-5,7.646878,189.0521,12.76975,12.0,40.0,0.0,0.0,20.000143,20.0,146.22946,2.8E-5,3.35E-4,282.91257,141.04924,-0.017604,-2.328693,-1568.7649,0.0
0.0,0.0,0.0,0.0,0.0,0.0,0.0,2.501804E8,2.501804E8,2.50180416E8,2.50180416E8,2.50180464E8,2.50180496E8,63.991837,-22.605427,146.22946,0.102731,4.953019,180.01317,46.344566,2.129921,-0.100921,-8.0E-6,7.650599,187.87245,11.5901,12.0,40.0,0.0,0.0,10.000142,10.0,146.22946,2.7E-5,-8.39E-4,282.91257,139.71104,-0.017618,-2.332232,-1571.9911,0.0
0.0,0.0,0.0,0.0,0.0,0.0,0.0,2.501804E8,2.501804E8,2.50180416E8,2.50180416E8,2.50180464E8,2.50180496E8,63.991837,-22.605427,146.22946,0.102789,4.953039,180.01317,45.689075,2.129508,-0.091301,-7.0E-6,7.665904,186.21652,9.934167,12.0,40.0,0.0,0.0,10.000142,10.0,146.22946,2.7E-5,-6.37E-4,282.91257,137.88704,-0.017641,-2.337065,-1576.5214,0.0
0.0,0.0,0.0,0.0,0.0,0.0,0.0,2.501804E8,2.501804E8,2.50180416E8,2.50180416E8,2.50180464E8,2.50180496E8,63.991837,-22.605427,146.22946,0.102829,4.953054,180.01317,45.220745,2.129385,-0.079038,-6.0E-6,7.658221,185.03716,8.754811,12.0,40.0,0.0,0.0,10.000142,10.0,146.22946,2.7E-5,-6.04E-4,282.91257,136.6198,-0.01765,-2.340431,-1579.5002,0.0
0.0,0.0,0.0,0.0,0.0,0.0,0.0,2.501804E8,2.501804E8,2.50180416E8,2.50180416E8,2.50180464E8,2.50180496E8,63.991837,-22.605427,146.22946,0.10287,4.95307,180.01317,44.752403,2.129405,-0.065126,-5.0E-6,7.76465,183.73691,7.45455,12.0,40.0,0.0,0.0,10.000142,10.0,146.22946,2.7E-5,-5.37E-4,282.91257,135.38245,-0.017671,-2.343728,-1587.1663,0.0
0.0,0.0,0.0,0.0,0.0,0.0,0.0,2.501804E8,2.501804E8,2.50180416E8,2.50180416E8,2.50180464E8,2.50180496E8,63.991837,-22.605427,146.22946,0.102927,4.953091,180.01318,44.096825,2.129676,0.062893,5.0E-6,7.537361,182.03448,5.752128,12.0,40.0,0.0,0.0,10.000142,10.0,146.22946,2.6E-5,0.001342,282.91257,133.70073,-0.01768,-2.348229,-1592.8187,0.0
0.0,0.0,0.0,0.0,0.0,0.0,0.0,2.501804E8,2.501804E8,2.50180416E8,2.50180416E8,2.50180464E8,2.50180496E8,63.991837,-22.605427,146.22946,0.102983,4.953105,180.01318,43.53506,2.130132,0.1171,1.0E-5,7.517046,180.67761,4.395255,12.0,40.0,0.0,0.0,10.000142,10.0,146.22946,2.6E-5,5.03E-4,282.91257,132.30653,-0.017694,-2.351984,-1593.4957,0.0
0.0,0.0,0.0,0.0,0.0,0.0,0.0,2.501804E8,2.501804E8,2.50180416E8,2.50180416E8,2.50180464E8,2.50180496E8,63.991837,-22.605427,146.22946,0.103052,4.953118,180.01318,42.879963,2.130918,0.113168,9.0E-6,7.582551,179.07089,2.788548,12.0,40.0,0.0,0.0,10.000142,10.0,146.22946,2.6E-5,3.69E-4,282.91257,130.73546,-0.017713,-2.356248,-1595.192,0.0
0.0,0.0,0.0,0.0,0.0,0.0,0.0,2.501804E8,2.501804E8,2.50180416E8,2.50180416E8,2.50180464E8,2.50180496E8,63.991837,-22.605427,146.22946,0.1031,4.953125,180.0132,42.412354,2.131649,0.108275,9.0E-6,7.580584,177.91374,1.631394,12.0,40.0,0.0,0.0,1.42E-4,0.0,146.22946,2.5E-5,3.69E-4,282.91257,129.65007,-0.017722,-2.359218,-1596.7299,0.0
0.0,0.0,0.0,0.0,0.0,0.0,0.0,2.501804E8,2.501804E8,2.50180416E8,2.50180416E8,2.50180464E8,2.50180496E8,63.991837,-22.605427,146.22946,0.103159,4.953137,180.0132,41.7582,2.1329,-0.064823,-4.0E-6,7.642284,176.27625,-0.006107,12.0,40.0,0.0,0.0,1.42E-4,0.0,146.22946,2.5E-5,-7.72E-4,282.91257,128.18228,-0.017748,-2.363273,-1599.5106,0.0
0.0,0.0,0.0,0.0,0.0,0.0,0.0,2.501804E8,2.501804E8,2.50180416E8,2.50180416E8,2.50180464E8,2.50180496E8,63.991837,-22.605427,146.22946,0.103201,4.95315,180.0132,41.198265,2.134199,-0.060595,-4.0E-6,7.66537,174.93921,-1.343138,12.0,40.0,0.0,0.0,1.42E-4,0.0,146.22946,2.5E-5,-4.36E-4,282.91257,126.97246,-0.017758,-2.366656,-1601.7687,0.0
0.0,0.0,0.0,0.0,0.0,0.0,0.0,2.501804E8,2.501804E8,2.50180416E8,2.50180416E8,2.50180464E8,2.50180496E8,63.991837,-22.605427,146.22946,0.103234,4.953163,180.0132,40.732224,2.135439,-0.043806,-3.0E-6,7.67914,173.81653,-2.465815,12.0,40.0,0.0,0.0,1.42E-4,0.0,146.22946,2.5E-5,-3.69E-4,282.91257,125.99843,-0.017766,-2.369411,-1603.9359,0.0
0.0,0.0,0.0,0.0,0.0,0.0,0.0,2.501804E8,2.501804E8,2.50180416E8,2.50180416E8,2.50180464E8,2.50180496E8,63.991837,-22.605427,146.22946,0.10328,4.953181,180.01321,40.080727,2.137413,-0.018641,-1.0E-6,7.686764,172.24081,-4.041543,12.0,40.0,0.0,0.0,1.42E-4,0.0,146.22946,2.4E-5,-2.68E-4,282.91257,124.68711,-0.017783,-2.373172,-1607.0242,0.0
0.0,0.0,0.0,0.0,0.0,0.0,0.0,2.501804E8,2.501804E8,2.50180416E8,2.50180416E8,2.50180464E8,2.50180496E8,63.991837,-22.605427,146.22946,0.103312,4.953193,180.01321,39.616135,2.138992,-0.001445,-0.0,7.691594,171.11687,-5.165479,12.0,40.0,0.0,0.0,1.42E-4,0.0,146.22946,2.4E-5,-1.68E-4,282.91257,123.787926,-0.017791,-2.375793,-1609.0891,0.0
0.0,0.0,0.0,0.0,0.0,0.0,0.0,2.501804E8,2.501804E8,2.50180416E8,2.50180416E8,2.50180464E8,2.50180496E8,63.991837,-22.605427,146.22946,0.103358,4.95321,180.01321,38.96691,2.141439,0.019811,1.0E-6,7.691467,169.52586,-6.756488,12.0,40.0,0.0,0.0,1.42E-4,0.0,146.22946,2.4E-5,-2.01E-4,282.91257,122.58163,-0.017806,-2.37937,-1612.5895,0.0
0.0,0.0,0.0,0.0,0.0,0.0,0.0,2.501804E8,2.501804E8,2.50180416E8,2.50180416E8,2.50180464E8,2.50180496E8,63.991837,-22.605427,146.22946,0.103396,4.953224,180.01321,38.41166,2.143754,0.042494,2.0E-6,7.697134,168.17363,-8.108725,12.0,40.0,0.0,0.0,-9.999858,-10.0,146.22946,2.4E-5,-6.7E-5,282.91257,121.59654,-0.017821,-2.382355,-1615.008,0.0
0.0,0.0,0.0,0.0,0.0,0.0,0.0,2.501804E8,2.501804E8,2.50180416E8,2.50180416E8,2.50180464E8,2.50180496E8,63.991837,-22.605427,146.22946,0.103429,4.953236,180.01321,37.949886,2.145838,0.056096,3.0E-6,7.700482,167.0535,-9.228859,12.0,40.0,0.0,0.0,-9.999858,-10.0,146.22946,2.3E-5,3.4E-5,282.91257,120.810135,-0.017829,-2.384785,-1616.6881,0.0
0.0,0.0,0.0,0.0,0.0,0.0,0.0,2.501804E8,2.501804E8,2.50180416E8,2.50180416E8,2.50180464E8,2.50180496E8,63.991837,-22.605427,146.22946,0.103474,4.95325,180.01323,37.30496,2.148988,0.076396,4.0E-6,7.709632,165.48024,-10.802114,12.0,40.0,0.0,0.0,-9.999858,-10.0,146.22946,2.3E-5,6.7E-5,282.91257,119.76188,-0.017843,-2.388104,-1619.1614,0.0
0.0,0.0,0.0,0.0,0.0,0.0,0.0,2.501804E8,2.501804E8,2.50180416E8,2.50180416E8,2.50180464E8,2.50180496E8,63.991837,-22.605427,146.22946,0.103512,4.953261,180.01323,36.75371,2.151904,0.085376,5.0E-6,7.680569,164.13977,-12.142574,12.0,40.0,0.0,0.0,-9.999858,-10.0,146.22946,2.3E-5,1.34E-4,282.91257,118.912315,-0.017851,-2.390872,-1620.8722,0.0
0.0,0.0,0.0,0.0,0.0,0.0,0.0,2.501804E8,2.501804E8,2.50180416E8,2.50180416E8,2.50180464E8,2.50180496E8,63.991837,-22.605427,146.22946,0.103543,4.95327,180.01323,36.295506,2.154486,0.098473,5.0E-6,7.686552,163.01552,-13.266835,12.0,40.0,0.0,0.0,-9.999858,-10.0,146.22946,2.3E-5,2.01E-4,282.91257,118.23884,-0.017858,-2.393127,-1622.5424,0.0
0.0,0.0,0.0,0.0,0.0,0.0,0.0,2.501804E8,2.501804E8,2.50180416E8,2.50180416E8,2.50180464E8,2.50180496E8,63.991837,-22.605427,146.22946,0.103587,4.953282,180.01323,35.65592,2.158332,0.123194,7.0E-6,7.72164,161.4366,-14.845757,12.0,40.0,0.0,0.0,-9.999858,-10.0,146.22946,2.3E-5,2.68E-4,282.91257,117.348595,-0.017872,-2.396205,-1625.0045,0.0
0.0,0.0,0.0,0.0,0.0,0.0,0.0,2.501804E8,2.501804E8,2.50180416E8,2.50180416E8,2.50180464E8,2.50180496E8,63.991837,-22.605427,146.22946,0.103618,4.95329,180.01323,35.20049,2.161243,0.136462,7.0E-6,7.72584,160.31131,-15.971046,12.0,40.0,0.0,0.0,-9.999858,-10.0,146.22946,2.2E-5,2.68E-4,282.91257,116.750244,-0.017879,-2.39835,-1626.6018,0.0
0.0,0.0,0.0,0.0,0.0,0.0,0.0,2.501804E8,2.501804E8,2.50180416E8,2.50180416E8,2.50180464E8,2.50180496E8,63.991837,-22.605427,146.22946,0.10366,4.9533,180.01324,34.56499,2.165547,0.146753,8.0E-6,7.700527,158.7348,-17.547546,12.0,40.0,0.0,0.0,-19.999857,-20.0,146.22946,2.2E-5,4.36E-4,282.91257,115.96498,-0.017893,-2.401278,-1628.7976,0.0
0.0,0.0,0.0,0.0,0.0,0.0,0.0,2.501804E8,2.501804E8,2.50180416E8,2.50180416E8,2.50180464E8,2.50180496E8,63.991837,-22.605427,146.22946,0.103696,4.953309,180.01324,34.02234,2.169448,0.175932,9.0E-6,7.741563,157.37563,-18.906721,12.0,40.0,0.0,0.0,-19.999857,-20.0,146.22946,2.2E-5,2.68E-4,282.91257,115.34047,-0.017905,-2.40372,-1630.934,0.0
0.0,0.0,0.0,0.0,0.0,0.0,0.0,2.501804E8,2.501804E8,2.50180416E8,2.50180416E8,2.50180464E8,2.50180496E8,63.991837,-22.605427,146.22946,0.103726,4.953315,180.01324,33.571636,2.172847,0.184006,9.0E-6,7.730985,156.25311,-20.02923,12.0,40.0,0.0,0.0,-19.999857,-20.0,146.22946,2.2E-5,4.7E-4,282.91257,114.85419,-0.017912,-2.40571,-1632.2477,0.0
0.0,0.0,0.0,0.0,0.0,0.0,0.0,2.501804E8,2.501804E8,2.50180416E8,2.50180416E8,2.50180464E8,2.50180496E8,63.991837,-22.605427,146.22946,0.103767,4.953324,180.01324,32.943066,2.17783,0.206752,1.1E-5,7.747221,154.6763,-21.606047,12.0,40.0,0.0,0.0,-19.999857,-20.0,146.22946,2.1E-5,4.03E-4,282.91257,114.22536,-0.017925,-2.408426,-1634.239,0.0
0.0,0.0,0.0,0.0,0.0,0.0,0.0,2.501804E8,2.501804E8,2.50180416E8,2.50180416E8,2.50180464E8,2.50180496E8,63.991837,-22.605427,146.22946,0.103802,4.95333,180.01324,32.406616,2.18231,0.219986,1.1E-5,7.744553,153.33267,-22.949678,12.0,40.0,0.0,0.0,-19.999857,-20.0,146.22946,2.1E-5,5.37E-4,282.91257,113.73443,-0.017931,-2.410691,-1635.5656,0.0
0.0,0.0,0.0,0.0,0.0,0.0,0.0,2.501804E8,2.501804E8,2.50180416E8,2.50180416E8,2.50180464E8,2.50180496E8,63.991837,-22.605427,146.22946,0.10383,4.953335,180.01324,31.961279,2.186188,0.221983,1.1E-5,7.722813,152.20801,-24.074339,12.0,40.0,0.0,0.0,-19.999857,-20.0,146.22946,2.1E-5,6.37E-4,282.91257,113.359055,-0.017937,-2.412536,-1636.8287,0.0
0.0,0.0,0.0,0.0,0.0,0.0,0.0,2.501804E8,2.501804E8,2.50180416E8,2.50180416E8,2.50180464E8,2.50180496E8,63.991837,-22.605427,146.22946,0.103864,4.953341,180.01326,31.428993,2.191016,0.254909,1.2E-5,7.763763,150.84752,-25.43483,12.0,40.0,0.0,0.0,-19.999857,-20.0,146.22946,2.1E-5,5.03E-4,282.91257,112.94892,-0.01795,-2.4147,-1638.7401,0.0
0.0,0.0,0.0,0.0,0.0,0.0,0.0,2.501804E8,2.501804E8,2.50180416E8,2.50180416E8,2.50180464E8,2.50180496E8,63.991837,-22.605427,146.22946,0.103902,4.953347,180.01326,30.810993,2.196886,0.267143,1.3E-5,7.751371,149.27255,-27.009794,12.0,40.0,0.0,0.0,-19.999857,-20.0,146.22946,2.1E-5,6.71E-4,282.91257,112.525696,-0.017962,-2.417157,-1640.3936,0.0
0.0,0.0,0.0,0.0,0.0,0.0,0.0,2.501804E8,2.501804E8,2.50180416E8,2.50180416E8,2.50180464E8,2.50180496E8,63.991837,-22.605427,146.22946,0.103935,4.953352,180.01326,30.284016,2.202123,0.518646,3.0E-5,7.766498,147.91539,-28.36696,12.0,40.0,0.0,0.0,-29.999857,-30.0,146.22946,2.0E-5,5.7E-4,282.91257,112.210014,-0.017967,-2.419207,-1642.0485,0.0
0.0,0.0,0.0,0.0,0.0,0.0,0.0,2.501804E8,2.501804E8,2.50180416E8,2.50180416E8,2.50180464E8,2.50180496E8,63.991837,-22.605427,146.22946,0.103968,4.953354,180.01326,29.846825,2.206631,0.413001,2.6E-5,7.755655,146.7939,-29.488443,12.0,40.0,0.0,0.0,-29.999857,-30.0,146.22946,2.0E-5,0.001811,282.91257,111.97994,-0.017968,-2.420876,-1643.0027,0.0
0.0,0.0,0.0,0.0,0.0,0.0,0.0,2.501804E8,2.501804E8,2.50180416E8,2.50180416E8,2.50180464E8,2.50180496E8,63.991837,-22.605427,146.22946,0.104019,4.953352,180.01326,29.237679,2.213154,0.402553,2.6E-5,7.773297,145.21794,-31.064413,12.0,40.0,0.0,0.0,-29.999857,-30.0,146.22946,2.0E-5,0.001409,282.91257,111.70788,-0.017978,-2.423155,-1644.5306,0.0
0.0,0.0,0.0,0.0,0.0,0.0,0.0,2.501804E8,2.501804E8,2.50180416E8,2.50180416E8,2.50180464E8,2.50180496E8,63.991837,-22.605427,146.22946,0.104055,4.953349,180.01328,28.804764,2.217963,0.387567,2.5E-5,7.739608,144.09624,-32.18611,12.0,40.0,0.0,0.0,-29.999857,-30.0,146.22946,2.0E-5,0.001577,282.91257,111.54906,-0.017984,-2.424743,-1645.418,0.0
0.0,0.0,0.0,0.0,0.0,0.0,0.0,2.501804E8,2.501804E8,2.50180416E8,2.50180416E8,2.50180464E8,2.50180496E8,63.991837,-22.605427,146.22946,0.104094,4.953345,180.01328,28.287636,2.223895,0.267539,1.2E-5,7.737276,142.72844,-33.55391,12.0,40.0,0.0,0.0,-29.999857,-30.0,146.22946,2.0E-5,-3.4E-5,282.91257,111.39722,-0.018001,-2.426605,-1647.3077,0.0
0.0,0.0,0.0,0.0,0.0,0.0,0.0,2.501804E8,2.501804E8,2.50180416E8,2.50180416E8,2.50180464E8,2.50180496E8,63.991837,-22.605427,146.22946,0.104128,4.953346,180.01328,27.68797,2.231045,0.290731,1.1E-5,7.733331,141.1607,-35.12165,12.0,40.0,0.0,0.0,-29.999857,-30.0,146.22946,1.9E-5,7.04E-4,282.91257,111.273056,-0.018016,-2.428719,-1648.3273,0.0
0.0,0.0,0.0,0.0,0.0,0.0,0.0,2.501804E8,2.501804E8,2.50180416E8,2.50180416E8,2.50180464E8,2.50180496E8,63.991837,-22.605427,146.22946,0.104153,4.953349,180.01328,27.177118,2.23737,0.359174,1.3E-5,7.782452,139.80574,-36.476604,12.0,40.0,0.0,0.0,-29.999857,-30.0,146.22946,1.9E-5,6.04E-4,282.91257,111.21164,-0.018021,-2.430483,-1649.6206,0.0
0.0,0.0,0.0,0.0,0.0,0.0,0.0,2.501804E8,2.501804E8,2.50180416E8,2.50180416E8,2.50180464E8,2.50180496E8,63.991837,-22.605427,146.22946,0.104178,4.953353,180.01328,26.669184,2.243874,0.390001,1.5E-5,7.78673,138.45236,-37.829983,12.0,40.0,0.0,0.0,-39.99986,-40.0,146.22946,1.9E-5,6.04E-4,282.91257,111.19136,-0.018031,-2.432203,-1650.8068,0.0
0.0,0.0,0.0,0.0,0.0,0.0,0.0,2.501804E8,2.501804E8,2.50180416E8,2.50180416E8,2.50180464E8,2.50180496E8,63.991837,-22.605427,146.22946,0.104203,4.953358,180.01328,26.164213,2.250553,0.414827,1.6E-5,7.788801,137.09993,-39.182426,12.0,40.0,0.0,0.0,-39.99986,-40.0,146.22946,1.9E-5,6.71E-4,282.91257,111.21182,-0.018035,-2.43388,-1651.9152,0.0
0.0,0.0,0.0,0.0,0.0,0.0,0.0,2.501804E8,2.501804E8,2.50180416E8,2.50180416E8,2.50180464E8,2.50180496E8,63.991837,-22.605427,146.22946,0.104227,4.953362,180.01329,25.662258,2.257406,0.437677,1.7E-5,7.791572,135.74803,-40.53432,12.0,40.0,0.0,0.0,-39.99986,-40.0,146.22946,1.9E-5,7.38E-4,282.91257,111.272606,-0.018044,-2.435516,-1652.9634,0.0
0.0,0.0,0.0,0.0,0.0,0.0,0.0,2.501804E8,2.501804E8,2.50180416E8,2.50180416E8,2.50180464E8,2.50180496E8,63.991837,-22.605427,146.22946,0.104252,4.953365,180.01329,25.163368,2.264431,0.459684,1.8E-5,7.794931,134.39645,-41.88589,12.0,40.0,0.0,0.0,-39.99986,-40.0,146.22946,1.8E-5,7.38E-4,282.91257,111.37328,-0.018049,-2.437111,-1653.9628,0.0
0.0,0.0,0.0,0.0,0.0,0.0,0.0,2.501804E8,2.501804E8,2.50180416E8,2.50180416E8,2.50180464E8,2.50180496E8,63.991837,-22.605427,146.22946,0.104269,4.953367,180.01329,24.832502,2.26921,0.474098,1.8E-5,7.797387,133.49553,-42.786827,12.0,40.0,0.0,0.0,-39.99986,-40.0,146.22946,1.8E-5,7.72E-4,282.91257,111.46234,-0.018053,-2.438153,-1654.6055,0.0
0.0,0.0,0.0,0.0,0.0,0.0,0.0,2.501804E8,2.501804E8,2.50180416E8,2.50180416E8,2.50180464E8,2.50180496E8,63.991837,-22.605427,146.22948,0.1044,4.953372,180.01329,22.716452,2.302088,0.491445,1.8E-5,5.298521,126.12719,-50.155163,12.0,40.0,0.0,0.0,-49.99986,-50.0,146.22948,1.8E-5,0.00104,282.91257,112.45885,-0.018084,-2.444515,-1708.3771,0.0
0.0,0.0,0.0,0.0,0.0,0.0,0.0,2.501804E8,2.501804E8,2.50180416E8,2.50180416E8,2.50180464E8,2.50180496E8,63.991837,-22.605427,146.22948,0.10442,4.953372,180.0133,22.316532,2.308764,0.539762,1.9E-5,5.902511,125.51486,-50.767483,12.0,40.0,0.0,0.0,-49.99986,-50.0,146.22948,1.7E-5,0.001141,282.91257,112.7314,-0.018089,-2.445662,-1687.6478,0.0
0.0,0.0,0.0,0.0,0.0,0.0,0.0,2.501804E8,2.501804E8,2.50180416E8,2.50180416E8,2.50180464E8,2.50180496E8,63.991837,-22.605427,146.22948,0.104442,4.953372,180.0133,21.839718,2.316924,0.587722,2.1E-5,6.680543,124.57024,-51.712112,12.0,40.0,0.0,0.0,-49.99986,-50.0,146.22948,1.7E-5,9.06E-4,282.91257,113.09193,-0.018094,-2.447006,-1671.506,0.0
0.0,0.0,0.0,0.0,0.0,0.0,0.0,2.501804E8,2.501804E8,2.50180416E8,2.50180416E8,2.50180464E8,2.50180496E8,63.991837,-22.605427,146.22948,0.104464,4.953372,180.0133,21.366285,2.325243,0.612876,2.2E-5,7.167624,123.46029,-52.822063,12.0,40.0,0.0,0.0,-49.99986,-50.0,146.22948,1.7E-5,0.001006,282.91257,113.48846,-0.018103,-2.448317,-1662.3119,0.0
0.0,0.0,0.0,0.0,0.0,0.0,0.0,2.501804E8,2.501804E8,2.50180416E8,2.50180416E8,2.50180464E8,2.50180496E8,63.991837,-22.605427,146.22948,0.104495,4.953369,180.0133,20.81842,2.335155,0.641752,3.5E-5,7.482361,122.05079,-54.231564,12.0,40.0,0.0,0.0,-49.99986,-50.0,146.22948,1.7E-5,0.002281,282.91257,113.99583,-0.018105,-2.449806,-1656.464,0.0
0.0,0.0,0.0,0.0,0.0,0.0,0.0,2.501804E8,2.501804E8,2.50180416E8,2.50180416E8,2.50180464E8,2.50180496E8,63.991837,-22.605427,146.22948,0.104529,4.953362,180.0133,20.352404,2.343816,0.615518,3.6E-5,7.636874,120.7749,-55.50745,12.0,40.0,0.0,0.0,-49.99986,-50.0,146.22948,1.7E-5,0.001845,282.91257,114.46844,-0.018108,-2.451048,-1654.311,0.0
0.0,0.0,0.0,0.0,0.0,0.0,0.0,2.501804E8,2.501804E8,2.50180416E8,2.50180416E8,2.50180464E8,2.50180496E8,63.991837,-22.605427,146.22948,0.104558,4.953354,180.0133,19.966661,2.35115,0.60202,3.4E-5,7.701977,119.69521,-56.587135,12.0,40.0,0.0,0.0,-49.99986,-50.0,146.22948,1.7E-5,0.002147,282.91257,114.88843,-0.018113,-2.452059,-1653.2261,0.0
0.0,0.0,0.0,0.0,0.0,0.0,0.0,2.501804E8,2.501804E8,2.50180416E8,2.50180416E8,2.50180464E8,2.50180496E8,63.991837,-22.605427,146.22948,0.104598,4.953343,180.0133,19.430714,2.361594,0.593567,3.4E-5,7.783611,118.15419,-58.12816,12.0,40.0,0.0,0.0,-59.99986,-60.0,146.22948,1.6E-5,0.001946,282.91257,115.515656,-0.018121,-2.45344,-1652.9318,0.0
0.0,0.0,0.0,0.0,0.0,0.0,0.0,2.501804E8,2.501804E8,2.50180416E8,2.50180416E8,2.50180464E8,2.50180496E8,63.991837,-22.605427,146.22948,0.104633,4.953335,180.01332,18.97513,2.370708,0.558564,3.2E-5,7.784673,116.8293,-59.45305,12.0,40.0,0.0,0.0,-59.99986,-60.0,146.22948,1.6E-5,0.00208,282.91257,116.08907,-0.018129,-2.454592,-1652.8448,0.0
0.0,0.0,0.0,0.0,0.0,0.0,0.0,2.501804E8,2.501804E8,2.50180416E8,2.50180416E8,2.50180464E8,2.50180496E8,63.991837,-22.605427,146.22949,0.104664,4.95333,180.01332,18.598166,2.378418,0.5442,3.2E-5,7.805823,115.71301,-60.56934,12.0,40.0,0.0,0.0,-59.99986,-60.0,146.22949,1.6E-5,0.002046,282.91257,116.59169,-0.018133,-2.45553,-1653.2584,0.0
0.0,0.0,0.0,0.0,0.0,0.0,0.0,2.501804E8,2.501804E8,2.50180416E8,2.50180416E8,2.50180464E8,2.50180496E8,63.991837,-22.605427,146.22949,0.104706,4.953325,180.01332,18.074398,2.389378,0.387034,1.8E-5,7.853395,114.14069,-62.141655,12.0,40.0,0.0,0.0,-59.99986,-60.0,146.22949,1.6E-5,0.002214,282.91257,117.33245,-0.018145,-2.456811,-1654.2,0.0
0.0,0.0,0.0,0.0,0.0,0.0,0.0,2.501804E8,2.501804E8,2.50180416E8,2.50180416E8,2.50180464E8,2.50180496E8,63.991837,-22.605427,146.22949,0.104731,4.953326,180.01332,17.70325,2.397329,0.47412,2.1E-5,7.863252,113.018135,-63.264214,12.0,40.0,0.0,0.0,-59.99986,-60.0,146.22949,1.6E-5,0.001107,282.91257,117.887566,-0.01815,-2.457703,-1654.8296,0.0
0.0,0.0,0.0,0.0,0.0,0.0,0.0,2.501804E8,2.501804E8,2.50180416E8,2.50180416E8,2.50180464E8,2.50180496E8,63.991837,-22.605427,146.22949,0.104764,4.953332,180.01332,17.187874,2.40863,0.490047,2.3E-5,7.882757,111.44122,-64.84113,12.0,40.0,0.0,0.0,-59.99986,-60.0,146.22949,1.6E-5,0.001073,282.91257,118.70034,-0.018158,-2.458922,-1655.8948,0.0
