aileron,elevator,rudder,flaps,slats,speedbrake,throttle,engine-pump0,engine-pump1,electric-pump0,electric-pump1,external-power,APU-generator,latitude-deg,longitude-deg,altitude-ft,roll-deg,pitch-deg,heading-deg,side-slip-deg,airspeed-kt,glideslope,vertical-speed-fps,airspeed-indicator_indicated-speed-kt,altimeter_indicated-altitude-ft,altimeter_pressure-alt-ft,attitude-indicator_indicated-pitch-deg,attitude-indicator_indicated-roll-deg,attitude-indicator_internal-pitch-deg,attitude-indicator_internal-roll-deg,encoder_indicated-altitude-ft,encoder_pressure-alt-ft,gps_indicated-altitude-ft,gps_indicated-ground-speed-kt,gps_indicated-vertical-speed,indicated-heading-offset-deg,indicated-heading-deg,magnetic-compass_indicated-heading-deg,slip-skid-ball_indicated-slip-skid,turn-indicator_indicated-turn-rate,vertical-speed-indicator_indicated-speed-fpm,engine_rpm
0.0,0.0,0.0,0.0,0.0,0.0,1.0,1.93065776E8,1.93065776E8,1.93065792E8,1.93065792E8,1.9306584E8,1.93065872E8,63.985043,-22.592484,-9999.0,0.0,0.424,270.02136,0.0,0.0,0.0,0.0,0.0,0.0,0.0,0.0,0.0,0.0,0.0,0.0,0.0,0.0,0.0,0.0,12.876752,0.0,0.0,0.0,0.0,0.0,0.0
0.0,0.0,0.0,0.0,0.0,0.0,1.0,1.93065776E8,1.93065776E8,1.93065792E8,1.93065792E8,1.9306584E8,1.93065872E8,63.985043,-22.592484,-9999.0,0.0,0.424,270.02136,0.0,0.0,0.0,0.0,0.0,389.08878,1.193444,12.0,40.0,0.0,0.0,0.0,0.0,0.0,0.0,0.0,12.876752,282.89813,0.0,0.0,0.0,0.0,0.0
0.0,0.0,0.0,0.0,0.0,0.0,1.0,1.93065776E8,1.93065776E8,1.93065792E8,1.93065792E8,1.9306584E8,1.93065872E8,63.991837,-22.605425,-9999.0,0.0,0.424,180.01839,0.0,0.0,0.0,0.0,0.0,389.08878,1.193444,12.0,40.0,0.0,0.0,0.0,0.0,0.0,0.0,0.0,12.876752,282.89813,0.0,0.0,0.0,0.0,0.0
0.0,0.0,0.0,0.0,0.0,0.0,1.0,1.93065776E8,1.93065776E8,1.93065792E8,1.93065792E8,1.9306584E8,1.93065872E8,63.991837,-22.605425,-9999.0,0.0,0.424,180.01839,0.0,0.0,0.0,0.0,0.0,389.08878,1.193444,12.0,40.0,0.0,0.0,0.0,0.0,0.0,0.0,0.0,12.876752,282.89813,0.0,0.0,0.0,0.0,0.0
0.0,0.0,0.0,0.0,0.0,0.0,1.0,1.93065776E8,1.93065776E8,1.93065792E8,1.93065792E8,1.9306584E8,1.93065872E8,63.991837,-22.605425,-9999.0,0.0,0.424,180.01839,0.0,0.0,0.0,0.0,0.0,389.08878,1.193444,12.0,40.0,0.0,0.0,0.0,0.0,0.0,0.0,0.0,12.876752,282.89813,0.0,0.0,0.0,0.0,0.0
0.0,0.0,0.0,0.0,0.0,0.0,1.0,1.93065776E8,1.93065776E8,1.93065792E8,1.93065792E8,1.9306584E8,1.93065872E8,63.991837,-22.605425,-9999.0,0.0,0.424,180.01839,0.0,0.0,0.0,0.0,0.0,389.08878,1.193444,12.0,40.0,0.0,0.0,0.0,0.0,0.0,0.0,0.0,12.876752,282.89813,0.0,0.0,0.0,0.0,0.0
0.0,0.0,0.0,0.0,0.0,0.0,1.0,1.93065776E8,1.93065776E8,1.93065792E8,1.93065792E8,1.9306584E8,1.93065872E8,63.991837,-22.605425,-9999.0,0.0,0.424,180.01839,0.0,0.0,0.0,0.0,0.0,389.08878,1.193444,12.0,40.0,0.0,0.0,0.0,0.0,0.0,0.0,0.0,12.876752,282.89813,0.0,0.0,0.0,0.0,0.0
0.0,0.0,0.0,0.0,0.0,0.0,1.0,1.93065776E8,1.93065776E8,1.93065792E8,1.93065792E8,1.9306584E8,1.93065872E8,63.991837,-22.605425,-9999.0,0.0,0.424,180.01839,0.0,0.0,0.0,0.0,0.0,389.08878,1.193444,12.0,40.0,0.0,0.0,0.0,0.0,0.0,0.0,0.0,12.876752,282.89813,0.0,0.0,0.0,0.0,0.0
0.0,0.0,0.0,0.0,0.0,0.0,1.0,1.93065776E8,1.93065776E8,1.93065792E8,1.93065792E8,1.9306584E8,1.93065872E8,63.991837,-22.605425,-9999.0,0.0,0.424,180.01839,0.0,0.0,0.0,0.0,0.0,389.08878,1.193444,12.0,40.0,0.0,0.0,0.0,0.0,0.0,0.0,0.0,12.876752,282.89813,0.0,0.0,0.0,0.0,0.0
0.0,0.0,0.0,0.0,0.0,0.0,1.0,1.93065776E8,1.93065776E8,1.93065792E8,1.93065792E8,1.9306584E8,1.93065872E8,63.991837,-22.605425,-9999.0,0.0,0.424,180.01839,0.0,0.0,0.0,0.0,0.0,389.08878,1.193444,12.0,40.0,0.0,0.0,0.0,0.0,0.0,0.0,0.0,12.876752,282.89813,0.0,0.0,0.0,0.0,0.0
0.0,0.0,0.0,0.0,0.0,0.0,1.0,1.93065776E8,1.93065776E8,1.93065792E8,1.93065792E8,1.9306584E8,1.93065872E8,63.991837,-22.605425,-9999.0,0.0,0.424,180.01839,0.0,0.0,0.0,0.0,0.0,389.08878,1.193444,12.0,40.0,0.0,0.0,0.0,0.0,0.0,0.0,0.0,12.876752,282.89813,0.0,0.0,0.0,0.0,0.0
0.0,0.0,0.0,0.0,0.0,0.0,1.0,1.93065776E8,1.93065776E8,1.93065792E8,1.93065792E8,1.9306584E8,1.93065872E8,63.991837,-22.605425,-9999.0,0.0,0.424,180.01839,0.0,0.0,0.0,0.0,0.0,389.08878,1.193444,12.0,40.0,0.0,0.0,0.0,0.0,0.0,0.0,0.0,12.876752,282.89813,0.0,0.0,0.0,0.0,0.0
0.0,0.0,0.0,0.0,0.0,0.0,1.0,1.93065776E8,1.93065776E8,1.93065792E8,1.93065792E8,1.9306584E8,1.93065872E8,63.991837,-22.605425,-9999.0,0.0,0.424,180.01839,0.0,0.0,0.0,0.0,0.0,389.08878,1.193444,12.0,40.0,0.0,0.0,0.0,0.0,0.0,0.0,0.0,12.876752,282.89813,0.0,0.0,0.0,0.0,0.0
0.0,0.0,0.0,0.0,0.0,0.0,1.0,1.93065776E8,1.93065776E8,1.93065792E8,1.93065792E8,1.9306584E8,1.93065872E8,63.991837,-22.605425,-9999.0,0.0,0.424,180.01839,0.0,0.0,0.0,0.0,0.0,389.08878,1.193444,12.0,40.0,0.0,0.0,0.0,0.0,0.0,0.0,0.0,12.876752,282.89813,0.0,0.0,0.0,0.0,0.0
0.0,0.0,0.0,0.0,0.0,0.0,1.0,1.93065776E8,1.93065776E8,1.93065792E8,1.93065792E8,1.9306584E8,1.93065872E8,63.991837,-22.605425,-9999.0,0.0,0.424,180.01839,0.0,0.0,0.0,0.0,0.0,389.08878,1.193444,12.0,40.0,0.0,0.0,0.0,0.0,0.0,0.0,0.0,12.876752,282.89813,0.0,0.0,0.0,0.0,0.0
0.0,0.0,0.0,0.0,0.0,0.0,1.0,1.93065776E8,1.93065776E8,1.93065792E8,1.93065792E8,1.9306584E8,1.93065872E8,63.991837,-22.605425,-9999.0,0.0,0.424,180.01839,0.0,0.0,0.0,0.0,0.0,389.08878,1.193444,12.0,40.0,0.0,0.0,0.0,0.0,0.0,0.0,0.0,12.876752,282.89813,0.0,0.0,0.0,0.0,0.0
0.0,0.0,0.0,0.0,0.0,0.0,1.0,1.93065776E8,1.93065776E8,1.93065792E8,1.93065792E8,1.9306584E8,1.93065872E8,63.991837,-22.605425,-9999.0,0.0,0.424,180.01839,0.0,0.0,0.0,0.0,0.0,389.08878,1.193444,12.0,40.0,0.0,0.0,0.0,0.0,0.0,0.0,0.0,12.876752,282.89813,0.0,0.0,0.0,0.0,0.0
0.0,0.0,0.0,0.0,0.0,0.0,1.0,1.93065776E8,1.93065776E8,1.93065792E8,1.93065792E8,1.9306584E8,1.93065872E8,63.991837,-22.605425,-9999.0,0.0,0.424,180.01839,0.0,0.0,0.0,0.0,0.0,389.08878,1.193444,12.0,40.0,0.0,0.0,0.0,0.0,0.0,0.0,0.0,12.876752,282.89813,0.0,0.0,0.0,0.0,0.0
0.0,0.0,0.0,0.0,0.0,0.0,1.0,1.93065776E8,1.93065776E8,1.93065792E8,1.93065792E8,1.9306584E8,1.93065872E8,63.991837,-22.605425,-9999.0,0.0,0.424,180.01839,0.0,0.0,0.0,0.0,0.0,389.08878,1.193444,12.0,40.0,0.0,0.0,0.0,0.0,0.0,0.0,0.0,12.876752,282.89813,0.0,0.0,0.0,0.0,0.0
0.0,0.0,0.0,0.0,0.0,0.0,1.0,1.93065776E8,1.93065776E8,1.93065792E8,1.93065792E8,1.9306584E8,1.93065872E8,63.991837,-22.605425,-9999.0,0.0,0.424,180.01839,0.0,0.0,0.0,0.0,0.0,389.08878,1.193444,12.0,40.0,0.0,0.0,0.0,0.0,0.0,0.0,0.0,12.876752,282.89813,0.0,0.0,0.0,0.0,0.0
0.0,0.0,0.0,0.0,0.0,0.0,1.0,1.93065776E8,1.93065776E8,1.93065792E8,1.93065792E8,1.9306584E8,1.93065872E8,63.991837,-22.605425,-9999.0,0.0,0.424,180.01839,0.0,0.0,0.0,0.0,0.0,389.08878,1.193444,12.0,40.0,0.0,0.0,0.0,0.0,0.0,0.0,0.0,12.876752,282.89813,0.0,0.0,0.0,0.0,0.0
0.0,0.0,0.0,0.0,0.0,0.0,1.0,1.93065776E8,1.93065776E8,1.93065792E8,1.93065792E8,1.9306584E8,1.93065872E8,63.991837,-22.605425,-9999.0,0.0,0.424,180.01839,0.0,0.0,0.0,0.0,0.0,389.08878,1.193444,12.0,40.0,0.0,0.0,0.0,0.0,0.0,0.0,0.0,12.876752,282.89813,0.0,0.0,0.0,0.0,0.0
0.0,0.0,0.0,0.0,0.0,0.0,1.0,1.93065776E8,1.93065776E8,1.93065792E8,1.93065792E8,1.9306584E8,1.93065872E8,63.991837,-22.605425,-9999.0,0.0,0.424,180.01839,0.0,0.0,0.0,0.0,0.0,389.08878,1.193444,12.0,40.0,0.0,0.0,0.0,0.0,0.0,0.0,0.0,12.876752,282.89813,0.0,0.0,0.0,0.0,0.0
0.0,0.0,0.0,0.0,0.0,0.0,1.0,1.93065776E8,1.93065776E8,1.93065792E8,1.93065792E8,1.9306584E8,1.93065872E8,63.991837,-22.605425,-9999.0,0.0,0.424,180.01839,0.0,0.0,0.0,0.0,0.0,389.08878,1.193444,12.0,40.0,0.0,0.0,0.0,0.0,0.0,0.0,0.0,12.876752,282.89813,0.0,0.0,0.0,0.0,0.0
0.0,0.0,0.0,0.0,0.0,0.0,1.0,1.93065776E8,1.93065776E8,1.93065792E8,1.93065792E8,1.9306584E8,1.93065872E8,63.991837,-22.605425,-9999.0,0.0,0.424,180.01839,0.0,0.0,0.0,0.0,0.0,389.08878,1.193444,12.0,40.0,0.0,0.0,0.0,0.0,0.0,0.0,0.0,12.876752,282.89813,0.0,0.0,0.0,0.0,0.0
0.0,0.0,0.0,0.0,0.0,0.0,1.0,1.93065776E8,1.93065776E8,1.93065792E8,1.93065792E8,1.9306584E8,1.93065872E8,63.991837,-22.605425,-9999.0,0.0,0.424,180.01839,0.0,0.0,0.0,0.0,0.0,389.08878,1.193444,12.0,40.0,0.0,0.0,0.0,0.0,0.0,0.0,0.0,12.876752,282.89813,0.0,0.0,0.0,0.0,0.0
0.0,0.0,0.0,0.0,0.0,0.0,1.0,1.93065776E8,1.93065776E8,1.93065792E8,1.93065792E8,1.9306584E8,1.93065872E8,63.991837,-22.605425,-9999.0,0.0,0.424,180.01839,0.0,0.0,0.0,0.0,0.0,389.08878,1.193444,12.0,40.0,0.0,0.0,0.0,0.0,0.0,0.0,0.0,12.876752,282.89813,0.0,0.0,0.0,0.0,0.0
0.0,0.0,0.0,0.0,0.0,0.0,1.0,1.93065776E8,1.93065776E8,1.93065792E8,1.93065792E8,1.9306584E8,1.93065872E8,63.991837,-22.605425,-9999.0,0.0,0.424,180.01839,0.0,0.0,0.0,0.0,0.0,389.08878,1.193444,12.0,40.0,0.0,0.0,0.0,0.0,0.0,0.0,0.0,12.876752,282.89813,0.0,0.0,0.0,0.0,0.0
0.0,0.0,0.0,0.0,0.0,0.0,1.0,1.93065776E8,1.93065776E8,1.93065792E8,1.93065792E8,1.9306584E8,1.93065872E8,63.991837,-22.605425,-9999.0,0.0,0.424,180.01839,0.0,0.0,0.0,0.0,0.0,389.08878,1.193444,12.0,40.0,0.0,0.0,0.0,0.0,0.0,0.0,0.0,12.876752,282.89813,0.0,0.0,0.0,0.0,0.0
0.0,0.0,0.0,0.0,0.0,0.0,1.0,1.93065776E8,1.93065776E8,1.93065792E8,1.93065792E8,1.9306584E8,1.93065872E8,63.991837,-22.605425,-9999.0,0.0,0.424,180.01839,0.0,0.0,0.0,0.0,0.0,389.08878,1.193444,12.0,40.0,0.0,0.0,0.0,0.0,0.0,0.0,0.0,12.876752,282.89813,0.0,0.0,0.0,0.0,0.0
0.0,0.0,0.0,0.0,0.0,0.0,1.0,1.93065776E8,1.93065776E8,1.93065792E8,1.93065792E8,1.9306584E8,1.93065872E8,63.991837,-22.605425,-9999.0,0.0,0.424,180.01839,0.0,0.0,0.0,0.0,0.0,389.08878,1.193444,12.0,40.0,0.0,0.0,0.0,0.0,0.0,0.0,0.0,12.876752,282.89813,0.0,0.0,0.0,0.0,0.0
0.0,0.0,0.0,0.0,0.0,0.0,1.0,1.93065776E8,1.93065776E8,1.93065792E8,1.93065792E8,1.9306584E8,1.93065872E8,63.991837,-22.605425,-9999.0,0.0,0.424,180.01839,0.0,0.0,0.0,0.0,0.0,389.08878,1.193444,12.0,40.0,0.0,0.0,0.0,0.0,0.0,0.0,0.0,12.876752,282.89813,0.0,0.0,0.0,0.0,0.0
0.0,0.0,0.0,0.0,0.0,0.0,1.0,1.93065776E8,1.93065776E8,1.93065792E8,1.93065792E8,1.9306584E8,1.93065872E8,63.991837,-22.605425,-9999.0,0.0,0.424,180.01839,0.0,0.0,0.0,0.0,0.0,389.08878,1.193444,12.0,40.0,0.0,0.0,0.0,0.0,0.0,0.0,0.0,12.876752,282.89813,0.0,0.0,0.0,0.0,0.0
0.0,0.0,0.0,0.0,0.0,0.0,1.0,1.93065776E8,1.93065776E8,1.93065792E8,1.93065792E8,1.9306584E8,1.93065872E8,63.991837,-22.605425,-9999.0,0.0,0.424,180.01839,0.0,0.0,0.0,0.0,0.0,389.08878,1.193444,12.0,40.0,0.0,0.0,0.0,0.0,0.0,0.0,0.0,12.876752,282.89813,0.0,0.0,0.0,0.0,0.0
0.0,0.0,0.0,0.0,0.0,0.0,1.0,1.93065776E8,1.93065776E8,1.93065792E8,1.93065792E8,1.9306584E8,1.93065872E8,63.991837,-22.605425,-9999.0,0.0,0.424,180.01839,0.0,0.0,0.0,0.0,0.0,389.08878,1.193444,12.0,40.0,0.0,0.0,0.0,0.0,0.0,0.0,0.0,12.876752,282.89813,0.0,0.0,0.0,0.0,0.0
0.0,0.0,0.0,0.0,0.0,0.0,1.0,1.93065776E8,1.93065776E8,1.93065792E8,1.93065792E8,1.9306584E8,1.93065872E8,63.991837,-22.605425,-9999.0,0.0,0.424,180.01839,0.0,0.0,0.0,0.0,0.0,389.08878,1.193444,12.0,40.0,0.0,0.0,0.0,0.0,0.0,0.0,0.0,12.876752,282.89813,0.0,0.0,0.0,0.0,0.0
0.0,0.0,0.0,0.0,0.0,0.0,1.0,1.93065776E8,1.93065776E8,1.93065792E8,1.93065792E8,1.9306584E8,1.93065872E8,63.991837,-22.605425,-9999.0,0.0,0.424,180.01839,0.0,0.0,0.0,0.0,0.0,389.08878,1.193444,12.0,40.0,0.0,0.0,0.0,0.0,0.0,0.0,0.0,12.876752,282.89813,0.0,0.0,0.0,0.0,0.0
0.0,0.0,0.0,0.0,0.0,0.0,1.0,1.93065776E8,1.93065776E8,1.93065792E8,1.93065792E8,1.9306584E8,1.93065872E8,63.991837,-22.605425,-9999.0,0.0,0.424,180.01839,0.0,0.0,0.0,0.0,0.0,389.08878,1.193444,12.0,40.0,0.0,0.0,0.0,0.0,0.0,0.0,0.0,12.876752,282.89813,0.0,0.0,0.0,0.0,0.0
0.0,0.0,0.0,0.0,0.0,0.0,1.0,1.93065776E8,1.93065776E8,1.93065792E8,1.93065792E8,1.9306584E8,1.93065872E8,63.991837,-22.605425,-9999.0,0.0,0.424,180.01839,0.0,0.0,0.0,0.0,0.0,389.08878,1.193444,12.0,40.0,0.0,0.0,0.0,0.0,0.0,0.0,0.0,12.876752,282.89813,0.0,0.0,0.0,0.0,0.0
0.0,0.0,0.0,0.0,0.0,0.0,1.0,1.93065776E8,1.93065776E8,1.93065792E8,1.93065792E8,1.9306584E8,1.93065872E8,63.991837,-22.605425,-9999.0,0.0,0.424,180.01839,0.0,0.0,0.0,0.0,0.0,389.08878,1.193444,12.0,40.0,0.0,0.0,0.0,0.0,0.0,0.0,0.0,12.876752,282.89813,0.0,0.0,0.0,0.0,0.0
0.0,0.0,0.0,0.0,0.0,0.0,1.0,1.93065776E8,1.93065776E8,1.93065792E8,1.93065792E8,1.9306584E8,1.93065872E8,63.991837,-22.605425,-9999.0,0.0,0.424,180.01839,0.0,0.0,0.0,0.0,0.0,389.08878,1.193444,12.0,40.0,0.0,0.0,0.0,0.0,0.0,0.0,0.0,12.876752,282.89813,0.0,0.0,0.0,0.0,0.0
0.0,0.0,0.0,0.0,0.0,0.0,1.0,1.93065776E8,1.93065776E8,1.93065792E8,1.93065792E8,1.9306584E8,1.93065872E8,63.991837,-22.605425,-9999.0,0.0,0.424,180.01839,0.0,0.0,0.0,0.0,0.0,389.08878,1.193444,12.0,40.0,0.0,0.0,0.0,0.0,0.0,0.0,0.0,12.876752,282.89813,0.0,0.0,0.0,0.0,0.0
0.0,0.0,0.0,0.0,0.0,0.0,1.0,1.93065776E8,1.93065776E8,1.93065792E8,1.93065792E8,1.9306584E8,1.93065872E8,63.991837,-22.605425,-9999.0,0.0,0.424,180.01839,0.0,0.0,0.0,0.0,0.0,389.08878,1.193444,12.0,40.0,0.0,0.0,0.0,0.0,0.0,0.0,0.0,12.876752,282.89813,0.0,0.0,0.0,0.0,0.0
0.0,0.0,0.0,0.0,0.0,0.0,0.0,1.93065776E8,1.93065776E8,1.93065792E8,1.93065792E8,1.9306584E8,1.93065872E8,63.991837,-22.605427,146.2295,0.104764,4.952322,180.01332,0.0,0.0,0.0,0.0,0.0,389.08878,1.193444,12.0,40.0,0.0,0.0,0.0,0.0,0.0,0.0,0.0,12.876752,282.89813,0.0,0.0,0.0,0.0,0.0
0.0,0.0,0.0,0.0,0.0,0.0,0.0,1.93065776E8,1.93065776E8,1.93065792E8,1.93065792E8,1.9306584E8,1.93065872E8,63.991837,-22.605427,146.2293,0.095972,4.971209,180.01263,89.86088,3.012115,-0.068763,-1.75E-4,0.0,536.69446,148.79913,12.0,40.0,0.0,0.0,140.00014,140.0,146.2293,7.6E-5,-0.020496,12.876752,282.89807,357.0098,-0.00579,-0.479496,3954.7231,0.0
0.0,0.0,0.0,0.0,0.0,0.0,0.0,1.93065776E8,1.93065776E8,1.93065792E8,1.93065792E8,1.9306584E8,1.93065872E8,63.991837,-22.605427,146.22952,0.09545,4.951427,180.01257,83.88305,2.733586,0.079302,1.8E-5,0.0,510.12122,122.225876,12.0,40.0,0.0,0.0,120.000145,120.0,146.22952,6.2E-5,0.002248,12.876752,282.89807,329.84274,-0.012613,-1.275782,2407.7942,0.0
0.0,0.0,0.0,0.0,0.0,0.0,0.0,1.93065776E8,1.93065776E8,1.93065792E8,1.93065792E8,1.9306584E8,1.93065872E8,63.991837,-22.605427,146.22954,0.09548,4.951196,180.01257,83.312004,2.711946,0.073569,1.2E-5,4.844528,508.7485,120.85316,12.0,40.0,0.0,0.0,120.000145,120.0,146.22954,6.1E-5,0.001476,12.876752,282.89807,326.53534,-0.012994,-1.325845,2280.6997,0.0
0.0,0.0,0.0,0.0,0.0,0.0,0.0,1.93065776E8,1.93065776E8,1.93065792E8,1.93065792E8,1.9306584E8,1.93065872E8,63.991837,-22.605427,146.22954,0.095856,4.950926,180.0126,81.78329,2.656962,0.006753,1.0E-6,4.26572,502.3607,114.46533,12.0,40.0,0.0,0.0,120.000145,120.0,146.22954,5.9E-5,0.0,12.876752,282.89807,317.3451,-0.01365,-1.446636,1852.8971,0.0
0.0,0.0,0.0,0.0,0.0,0.0,0.0,1.93065776E8,1.93065776E8,1.93065792E8,1.93065792E8,1.9306584E8,1.93065872E8,63.991837,-22.605427,146.22954,0.096028,4.950883,180.01262,80.9947,2.630188,-0.048996,-6.0E-6,6.355665,500.47467,112.57934,12.0,40.0,0.0,0.0,110.000145,110.0,146.22954,5.7E-5,-3.02E-4,12.876752,282.89807,312.45853,-0.014037,-1.502288,1667.2311,0.0
0.0,0.0,0.0,0.0,0.0,0.0,0.0,1.93065776E8,1.93065776E8,1.93065792E8,1.93065792E8,1.9306584E8,1.93065872E8,63.991837,-22.605427,146.22954,0.096213,4.950878,180.01263,80.25247,2.60593,-0.072709,-1.0E-5,7.082582,498.00235,110.107,12.0,40.0,0.0,0.0,110.000145,110.0,146.22954,5.6E-5,-6.37E-4,12.876752,282.89807,307.7933,-0.01429,-1.551046,1457.8728,0.0
0.0,0.0,0.0,0.0,0.0,0.0,0.0,1.93065776E8,1.93065776E8,1.93065792E8,1.93065792E8,1.9306584E8,1.93065872E8,63.991837,-22.605427,146.22954,0.096387,4.950894,180.01265,79.623314,2.586053,-0.085084,-1.3E-5,7.297378,495.75476,107.859406,12.0,40.0,0.0,0.0,110.000145,110.0,146.22954,5.5E-5,-9.39E-4,12.876752,282.89807,303.80127,-0.014448,-1.589853,1261.9159,0.0
0.0,0.0,0.0,0.0,0.0,0.0,0.0,1.93065776E8,1.93065776E8,1.93065792E8,1.93065792E8,1.9306584E8,1.93065872E8,63.991837,-22.605427,146.2295,0.09832,4.951493,180.0128,74.66101,2.449197,-0.119751,-1.1E-5,3.027943,476.62134,88.72599,12.0,40.0,0.0,0.0,90.000145,90.0,146.2295,4.9E-5,-8.39E-4,12.876752,282.89807,272.01456,-0.01569,-1.831773,-520.02496,0.0
0.0,0.0,0.0,0.0,0.0,0.0,0.0,1.93065776E8,1.93065776E8,1.93065792E8,1.93065792E8,1.9306584E8,1.93065872E8,63.991837,-22.605427,146.2295,0.098448,4.951535,180.01282,73.805244,2.428859,-0.14349,-1.5E-5,6.25653,474.9133,87.01796,12.0,40.0,0.0,0.0,90.000145,90.0,146.2295,4.8E-5,-9.39E-4,12.876752,282.89807,266.6026,-0.015823,-1.864429,-608.3365,0.0
0.0,0.0,0.0,0.0,0.0,0.0,0.0,1.93065776E8,1.93065776E8,1.93065792E8,1.93065792E8,1.9306584E8,1.93065872E8,63.991837,-22.605427,146.2295,0.098599,4.951582,180.01283,72.93526,2.409071,-0.14132,-1.7E-5,7.06535,472.47543,84.5801,12.0,40.0,0.0,0.0,90.000145,90.0,146.2295,4.7E-5,-0.001208,12.876752,282.89807,261.1512,-0.015946,-1.895489,-733.85187,0.0
0.0,0.0,0.0,0.0,0.0,0.0,0.0,1.93065776E8,1.93065776E8,1.93065792E8,1.93065792E8,1.9306584E8,1.93065872E8,63.991837,-22.605427,146.2295,0.098771,4.951639,180.01285,72.051,2.389844,-0.139446,-1.9E-5,7.327384,469.78067,81.88533,12.0,40.0,0.0,0.0,80.000145,80.0,146.2295,4.6E-5,-0.001275,12.876752,282.89807,255.67198,-0.016062,-1.925032,-845.0195,0.0
0.0,0.0,0.0,0.0,0.0,0.0,0.0,1.93065776E8,1.93065776E8,1.93065792E8,1.93065792E8,1.9306584E8,1.93065872E8,63.991837,-22.605427,146.22949,0.098941,4.951698,180.01285,71.22798,2.372726,-0.129312,-1.9E-5,7.509284,467.11688,79.22154,12.0,40.0,0.0,0.0,80.000145,80.0,146.22949,4.5E-5,-0.001811,12.876752,282.89807,250.63461,-0.016132,-1.950842,-937.9507,0.0
0.0,0.0,0.0,0.0,0.0,0.0,0.0,1.93065776E8,1.93065776E8,1.93065792E8,1.93065792E8,1.9306584E8,1.93065872E8,63.991837,-22.605427,146.22949,0.099151,4.951774,180.01288,70.24001,2.353132,-0.137418,-2.0E-5,7.393495,464.1461,76.250755,12.0,40.0,0.0,0.0,80.000145,80.0,146.22949,4.4E-5,-0.001476,12.876752,282.89807,244.67534,-0.016275,-1.979856,-1016.2138,0.0
0.0,0.0,0.0,0.0,0.0,0.0,0.0,1.93065776E8,1.93065776E8,1.93065792E8,1.93065792E8,1.9306584E8,1.93065872E8,63.991837,-22.605427,146.22949,0.099348,4.951847,180.0129,69.31353,2.335675,-0.137201,-2.1E-5,7.443574,461.33875,73.44341,12.0,40.0,0.0,0.0,80.000145,80.0,146.22949,4.3E-5,-0.001543,12.876752,282.89807,239.18018,-0.016373,-2.005275,-1080.1764,0.0
0.0,0.0,0.0,0.0,0.0,0.0,0.0,1.93065776E8,1.93065776E8,1.93065792E8,1.93065792E8,1.9306584E8,1.93065872E8,63.991837,-22.605427,146.22949,0.099545,4.951922,180.01291,68.373276,2.318837,-0.13659,-2.1E-5,7.462383,458.5139,70.618546,12.0,40.0,0.0,0.0,70.000145,70.0,146.22949,4.2E-5,-0.00151,12.876752,282.89807,233.70154,-0.016465,-2.029452,-1135.8708,0.0
0.0,0.0,0.0,0.0,0.0,0.0,0.0,1.93065776E8,1.93065776E8,1.93065792E8,1.93065792E8,1.9306584E8,1.93065872E8,63.991837,-22.605427,146.22949,0.099743,4.951997,180.01292,67.41948,2.302631,-0.13597,-2.0E-5,7.470097,455.68283,67.7875,12.0,40.0,0.0,0.0,70.000145,70.0,146.22949,4.2E-5,-0.001543,12.876752,282.89807,228.24998,-0.016552,-2.052448,-1184.5498,0.0
0.0,0.0,0.0,0.0,0.0,0.0,0.0,1.93065776E8,1.93065776E8,1.93065792E8,1.93065792E8,1.9306584E8,1.93065872E8,63.991837,-22.605427,146.22949,0.099938,4.952072,180.01294,66.452385,2.287071,-0.134915,-2.0E-5,7.473898,452.8496,64.95426,12.0,40.0,0.0,0.0,70.000145,70.0,146.22949,4.1E-5,-0.00151,12.876752,282.89807,222.83577,-0.016634,-2.07432,-1227.4045,0.0
0.0,0.0,0.0,0.0,0.0,0.0,0.0,1.93065776E8,1.93065776E8,1.93065792E8,1.93065792E8,1.9306584E8,1.93065872E8,63.991837,-22.605427,146.22948,0.10013,4.952147,180.01295,65.472275,2.272171,-0.133783,-1.9E-5,7.476309,450.0156,62.120247,12.0,40.0,0.0,0.0,60.00014,60.0,146.22948,4.0E-5,-0.001476,12.876752,282.89807,217.46889,-0.016712,-2.095123,-1265.4108,0.0
0.0,0.0,0.0,0.0,0.0,0.0,0.0,1.93065776E8,1.93065776E8,1.93065792E8,1.93065792E8,1.9306584E8,1.93065872E8,63.991837,-22.605427,146.22948,0.100319,4.952219,180.01297,64.47948,2.257944,-0.132146,-1.9E-5,7.478215,447.1813,59.285946,12.0,40.0,0.0,0.0,60.00014,60.0,146.22948,3.9E-5,-0.001442,12.876752,282.89807,212.15903,-0.016786,-2.114909,-1299.3396,0.0
0.0,0.0,0.0,0.0,0.0,0.0,0.0,1.93065776E8,1.93065776E8,1.93065792E8,1.93065792E8,1.9306584E8,1.93065872E8,63.991837,-22.605427,146.22948,0.100503,4.95229,180.01299,63.47435,2.244403,-0.13033,-1.8E-5,7.479928,444.3469,56.451534,12.0,40.0,0.0,0.0,60.00014,60.0,146.22948,3.8E-5,-0.001409,12.876752,282.89807,206.91557,-0.016856,-2.133729,-1329.8003,0.0
0.0,0.0,0.0,0.0,0.0,0.0,0.0,1.93065776E8,1.93065776E8,1.93065792E8,1.93065792E8,1.9306584E8,1.93065872E8,63.991837,-22.605427,146.22948,0.100683,4.952359,180.013,62.457294,2.23156,-0.128196,-1.7E-5,7.481558,441.51242,53.617073,12.0,40.0,0.0,0.0,60.00014,60.0,146.22948,3.8E-5,-0.001308,12.876752,282.89807,201.74762,-0.016923,-2.151628,-1357.2793,0.0
0.0,0.0,0.0,0.0,0.0,0.0,0.0,1.93065776E8,1.93065776E8,1.93065792E8,1.93065792E8,1.9306584E8,1.93065872E8,63.991837,-22.605427,146.22948,0.100859,4.952426,180.01302,61.42875,2.219428,-0.12534,-1.6E-5,7.483143,438.67792,50.782585,12.0,40.0,0.0,0.0,50.00014,50.0,146.22948,3.7E-5,-0.001275,12.876752,282.89807,196.66391,-0.016986,-2.168653,-1382.1705,0.0
0.0,0.0,0.0,0.0,0.0,0.0,0.0,1.93065776E8,1.93065776E8,1.93065792E8,1.93065792E8,1.9306584E8,1.93065872E8,63.991837,-22.605427,146.22948,0.101029,4.95249,180.01302,60.389194,2.208018,-0.122046,-1.6E-5,7.484698,435.8434,47.94808,12.0,40.0,0.0,0.0,50.00014,50.0,146.22948,3.6E-5,-0.001241,12.876752,282.89807,191.67285,-0.017046,-2.184846,-1404.7969,0.0
0.0,0.0,0.0,0.0,0.0,0.0,0.0,1.93065776E8,1.93065776E8,1.93065792E8,1.93065792E8,1.9306584E8,1.93065872E8,63.991837,-22.605427,146.22946,0.101194,4.952553,180.01303,59.33915,2.197342,-0.118615,-1.5E-5,7.565704,433.00888,45.11355,12.0,40.0,0.0,0.0,50.00014,50.0,146.22946,3.5E-5,-0.001141,12.876752,282.89807,186.78247,-0.017103,-2.200248,-1425.427,0.0
0.0,0.0,0.0,0.0,0.0,0.0,0.0,1.93065776E8,1.93065776E8,1.93065792E8,1.93065792E8,1.9306584E8,1.93065872E8,63.991837,-22.605427,146.22946,0.101355,4.952613,180.01305,58.27917,2.187411,-0.114467,-1.4E-5,7.574394,430.17435,42.279007,12.0,40.0,0.0,0.0,40.00014,40.0,146.22946,3.5E-5,-0.001073,12.876752,282.89807,182.0005,-0.017157,-2.214896,-1444.2867,0.0
0.0,0.0,0.0,0.0,0.0,0.0,0.0,1.93065776E8,1.93065776E8,1.93065792E8,1.93065792E8,1.9306584E8,1.93065872E8,63.991837,-22.605427,146.22946,0.101511,4.952671,180.01306,57.20985,2.178235,-0.110065,-1.3E-5,7.580373,427.33978,39.444447,12.0,40.0,0.0,0.0,40.00014,40.0,146.22946,3.4E-5,-0.001006,12.876752,282.89807,177.33424,-0.017209,-2.228829,-1461.5677,0.0
0.0,0.0,0.0,0.0,0.0,0.0,0.0,1.93065776E8,1.93065776E8,1.93065792E8,1.93065792E8,1.9306584E8,1.93065872E8,63.991837,-22.605427,146.22946,0.101661,4.952726,180.01308,56.131817,2.169823,-0.104975,-1.2E-5,7.58642,424.50522,36.609867,12.0,40.0,0.0,0.0,40.00014,40.0,146.22946,3.3E-5,-9.39E-4,12.876752,282.89807,172.79066,-0.017259,-2.242081,-1477.4344,0.0
0.0,0.0,0.0,0.0,0.0,0.0,0.0,1.93065776E8,1.93065776E8,1.93065792E8,1.93065792E8,1.9306584E8,1.93065872E8,63.991837,-22.605427,146.22946,0.101807,4.952779,180.01308,55.045742,2.162185,-0.099603,-1.1E-5,7.592554,421.67062,33.775276,12.0,40.0,0.0,0.0,40.00014,40.0,146.22946,3.3E-5,-9.39E-4,12.876752,282.89807,168.37633,-0.017306,-2.254686,-1492.0287,0.0
0.0,0.0,0.0,0.0,0.0,0.0,0.0,1.93065776E8,1.93065776E8,1.93065792E8,1.93065792E8,1.9306584E8,1.93065872E8,63.991837,-22.605427,146.22946,0.101949,4.95283,180.01309,53.95232,2.15533,-0.093263,-1.0E-5,7.598774,418.836,30.940666,12.0,40.0,0.0,0.0,30.000143,30.0,146.22946,3.2E-5,-9.06E-4,12.876752,282.89807,164.09743,-0.017351,-2.266674,-1505.474,0.0
0.0,0.0,0.0,0.0,0.0,0.0,0.0,1.93065776E8,1.93065776E8,1.93065792E8,1.93065792E8,1.9306584E8,1.93065872E8,63.991837,-22.605427,146.22946,0.102085,4.952878,180.0131,52.85228,2.149263,-0.086244,-9.0E-6,7.605081,416.00137,28.10604,12.0,40.0,0.0,0.0,30.000143,30.0,146.22946,3.1E-5,-7.72E-4,12.876752,282.89807,159.95976,-0.017394,-2.278077,-1517.8784,0.0
0.0,0.0,0.0,0.0,0.0,0.0,0.0,1.93065776E8,1.93065776E8,1.93065792E8,1.93065792E8,1.9306584E8,1.93065872E8,63.991837,-22.605427,146.22946,0.102217,4.952925,180.01312,51.74638,2.143994,-0.079052,-8.0E-6,7.611474,413.16675,25.271397,12.0,40.0,0.0,0.0,30.000143,30.0,146.22946,3.1E-5,-7.38E-4,12.876752,282.89807,155.96872,-0.017436,-2.288922,-1529.3372,0.0
0.0,0.0,0.0,0.0,0.0,0.0,0.0,1.93065776E8,1.93065776E8,1.93065792E8,1.93065792E8,1.9306584E8,1.93065872E8,63.991837,-22.605427,146.22946,0.102345,4.952969,180.01312,50.635406,2.139526,-0.070887,-7.0E-6,7.617952,410.3321,22.436739,12.0,40.0,0.0,0.0,30.000143,30.0,146.22946,3.0E-5,-6.71E-4,12.876752,282.89807,152.12932,-0.017475,-2.299238,-1539.9344,0.0
0.0,0.0,0.0,0.0,0.0,0.0,0.0,1.93065776E8,1.93065776E8,1.93065792E8,1.93065792E8,1.9306584E8,1.93065872E8,63.991837,-22.605427,146.22945,0.102468,4.953011,180.01314,49.52016,2.135866,-0.061751,-6.0E-6,7.624516,407.4974,19.602064,12.0,40.0,0.0,0.0,20.000143,20.0,146.22945,3.0E-5,-5.7E-4,12.876752,282.89807,148.44615,-0.017513,-2.309049,-1549.7449,0.0
0.0,0.0,0.0,0.0,0.0,0.0,0.0,1.93065776E8,1.93065776E8,1.93065792E8,1.93065792E8,1.9306584E8,1.93065872E8,63.991837,-22.605427,146.22945,0.102589,4.953051,180.01315,48.401485,2.133018,-0.050204,-4.0E-6,7.53875,404.5199,16.624552,12.0,40.0,0.0,0.0,20.000143,20.0,146.22945,2.9E-5,-5.03E-4,12.876752,282.89807,144.92343,-0.01755,-2.318381,-1564.4246,0.0
0.0,0.0,0.0,0.0,0.0,0.0,0.0,1.93065776E8,1.93065776E8,1.93065792E8,1.93065792E8,1.9306584E8,1.93065872E8,63.991837,-22.605427,146.22945,0.102704,4.953088,180.01315,47.280174,2.130985,-0.040801,-3.0E-6,7.550421,401.77774,13.882392,12.0,40.0,0.0,0.0,20.000143,20.0,146.22945,2.8E-5,-4.7E-4,12.876752,282.89807,141.56494,-0.017585,-2.327256,-1568.8254,0.0
0.0,0.0,0.0,0.0,0.0,0.0,0.0,1.93065776E8,1.93065776E8,1.93065792E8,1.93065792E8,1.9306584E8,1.93065872E8,63.991837,-22.605427,146.22945,0.102815,4.953124,180.01317,46.157124,2.129769,-0.028792,-2.0E-6,7.613704,398.9756,11.080245,12.0,40.0,0.0,0.0,10.000142,10.0,146.22945,2.8E-5,-4.03E-4,12.876752,282.89807,138.3741,-0.017618,-2.335698,-1575.2654,0.0
0.0,0.0,0.0,0.0,0.0,0.0,0.0,1.93065776E8,1.93065776E8,1.93065792E8,1.93065792E8,1.9306584E8,1.93065872E8,63.991837,-22.605427,146.22945,0.102921,4.953157,180.01317,45.03318,2.129373,-0.015456,-1.0E-6,7.64073,396.1523,8.256971,12.0,40.0,0.0,0.0,10.000142,10.0,146.22945,2.7E-5,-2.68E-4,12.876752,282.89807,135.3539,-0.01765,-2.343728,-1582.0729,0.0
0.0,0.0,0.0,0.0,0.0,0.0,0.0,1.93065776E8,1.93065776E8,1.93065792E8,1.93065792E8,1.9306584E8,1.93065872E8,63.991837,-22.605427,146.22945,0.103024,4.953188,180.01318,43.909214,2.129796,-0.001475,-0.0,7.654785,393.3216,5.42625,12.0,40.0,0.0,0.0,10.000142,10.0,146.22945,2.7E-5,-2.68E-4,12.876752,282.89807,132.50694,-0.01768,-2.351365,-1588.6886,0.0
0.0,0.0,0.0,0.0,0.0,0.0,0.0,1.93065776E8,1.93065776E8,1.93065792E8,1.93065792E8,1.9306584E8,1.93065872E8,63.991837,-22.605427,146.22945,0.103107,4.953213,180.01318,42.973175,2.130774,0.011438,1.0E-6,7.6629,390.96057,3.065215,12.0,40.0,0.0,0.0,10.000142,10.0,146.22945,2.6E-5,-1.68E-4,12.876752,282.89807,130.26842,-0.0177,-2.357443,-1593.9268,0.0
0.0,0.0,0.0,0.0,0.0,0.0,0.0,1.93065776E8,1.93065776E8,1.93065792E8,1.93065792E8,1.9306584E8,1.93065872E8,63.991837,-22.605427,146.22945,0.103205,4.95324,180.0132,41.851402,2.132698,0.027856,2.0E-6,7.615438,388.04147,0.146129,12.0,40.0,0.0,0.0,1.42E-4,0.0,146.22945,2.6E-5,-6.7E-5,12.876752,282.89807,127.74454,-0.017728,-2.36441,-1603.0453,0.0
0.0,0.0,0.0,0.0,0.0,0.0,0.0,1.93065776E8,1.93065776E8,1.93065792E8,1.93065792E8,1.9306584E8,1.93065872E8,63.991837,-22.605427,146.22945,0.103315,4.953271,180.0132,40.54576,2.135974,0.047464,3.0E-6,7.512729,384.80063,-3.094724,12.0,40.0,0.0,0.0,1.42E-4,0.0,146.22945,2.5E-5,0.0,12.876752,282.89807,125.02567,-0.017765,-2.372109,-1612.3282,0.0
0.0,0.0,0.0,0.0,0.0,0.0,0.0,1.93065776E8,1.93065776E8,1.93065792E8,1.93065792E8,1.9306584E8,1.93065872E8,63.991837,-22.605427,146.22945,0.103404,4.953295,180.01321,39.430252,2.139662,0.068591,4.0E-6,7.582865,382.20425,-5.691092,12.0,40.0,0.0,0.0,1.42E-4,0.0,146.22945,2.5E-5,0.0,12.876752,282.89807,122.88989,-0.017791,-2.378359,-1612.7753,0.0
0.0,0.0,0.0,0.0,0.0,0.0,0.0,1.93065776E8,1.93065776E8,1.93065792E8,1.93065792E8,1.9306584E8,1.93065872E8,63.991837,-22.605427,146.22945,0.103461,4.953309,180.01321,38.68888,2.14257,0.082629,5.0E-6,7.640026,380.4317,-7.463646,12.0,40.0,0.0,0.0,-9.999858,-10.0,146.22945,2.4E-5,6.7E-5,12.876752,282.89807,121.566246,-0.017808,-2.382355,-1614.738,0.0
0.0,0.0,0.0,0.0,0.0,0.0,0.0,1.93065776E8,1.93065776E8,1.93065792E8,1.93065792E8,1.9306584E8,1.93065872E8,63.991837,-22.605427,146.22945,0.103566,4.953335,180.01323,37.304695,2.148985,0.109914,7.0E-6,7.609709,377.03018,-10.865157,12.0,40.0,0.0,0.0,-9.999858,-10.0,146.22945,2.4E-5,1.34E-4,12.876752,282.89807,119.30087,-0.017834,-2.389497,-1621.1042,0.0
0.0,0.0,0.0,0.0,0.0,0.0,0.0,1.93065776E8,1.93065776E8,1.93065792E8,1.93065792E8,1.9306584E8,1.93065872E8,63.991837,-22.605427,146.22945,0.103652,4.953355,180.01323,36.11227,2.155555,0.134909,8.0E-6,7.680014,374.145,-13.75036,12.0,40.0,0.0,0.0,-9.999858,-10.0,146.22945,2.3E-5,2.68E-4,12.876752,282.89807,117.5659,-0.017866,-2.395335,-1623.8374,0.0
0.0,0.0,0.0,0.0,0.0,0.0,0.0,1.93065776E8,1.93065776E8,1.93065792E8,1.93065792E8,1.9306584E8,1.93065872E8,63.991837,-22.605427,146.22945,0.103729,4.953371,180.01324,35.01839,2.162442,0.162901,9.0E-6,7.710662,371.44986,-16.445492,12.0,40.0,0.0,0.0,-9.999858,-10.0,146.22945,2.3E-5,3.35E-4,12.876752,282.89807,116.152145,-0.017888,-2.40045,-1627.4496,0.0
0.0,0.0,0.0,0.0,0.0,0.0,0.0,1.93065776E8,1.93065776E8,1.93065792E8,1.93065792E8,1.9306584E8,1.93065872E8,63.991837,-22.605427,146.22945,0.103804,4.953386,180.01324,33.931812,2.170113,0.190259,1.0E-5,7.722891,368.75024,-19.145107,12.0,40.0,0.0,0.0,-19.999857,-20.0,146.22945,2.2E-5,3.35E-4,12.876752,282.89807,114.917854,-0.017909,-2.405315,-1630.9945,0.0
0.0,0.0,0.0,0.0,0.0,0.0,0.0,1.93065776E8,1.93065776E8,1.93065792E8,1.93065792E8,1.9306584E8,1.93065872E8,63.991837,-22.605427,146.22945,0.103875,4.9534,180.01324,32.85323,2.17856,0.219305,1.1E-5,7.732267,366.04904,-21.84631,12.0,40.0,0.0,0.0,-19.999857,-20.0,146.22945,2.2E-5,4.03E-4,12.876752,282.89807,113.861916,-0.017929,-2.409942,-1634.3624,0.0
0.0,0.0,0.0,0.0,0.0,0.0,0.0,1.93065776E8,1.93065776E8,1.93065792E8,1.93065792E8,1.9306584E8,1.93065872E8,63.991837,-22.605427,146.22945,0.103945,4.953411,180.01326,31.783316,2.187772,0.249828,1.2E-5,7.740717,363.34726,-24.548082,12.0,40.0,0.0,0.0,-19.999857,-20.0,146.22945,2.1E-5,4.7E-4,12.876752,282.89807,112.98289,-0.017948,-2.414343,-1637.525,0.0
0.0,0.0,0.0,0.0,0.0,0.0,0.0,1.93065776E8,1.93065776E8,1.93065792E8,1.93065792E8,1.9306584E8,1.93065872E8,63.991837,-22.605427,146.22946,0.104012,4.953422,180.01326,30.7227,2.197742,0.281538,1.4E-5,7.748896,360.64526,-27.250067,12.0,40.0,0.0,0.0,-19.999857,-20.0,146.22946,2.1E-5,5.37E-4,12.876752,282.89807,112.279,-0.017967,-2.41853,-1640.4825,0.0
0.0,0.0,0.0,0.0,0.0,0.0,0.0,1.93065776E8,1.93065776E8,1.93065792E8,1.93065792E8,1.9306584E8,1.93065872E8,63.991837,-22.605427,146.22946,0.104077,4.95343,180.01326,29.67198,2.208457,0.314585,1.5E-5,7.757031,357.9432,-29.952133,12.0,40.0,0.0,0.0,-29.999857,-30.0,146.22946,2.1E-5,6.04E-4,12.876752,282.89807,111.74819,-0.017985,-2.422511,-1643.244,0.0
0.0,0.0,0.0,0.0,0.0,0.0,0.0,1.93065776E8,1.93065776E8,1.93065792E8,1.93065792E8,1.9306584E8,1.93065872E8,63.991837,-22.605427,146.22946,0.10413,4.953436,180.01328,28.804344,2.21795,0.342909,1.6E-5,7.763838,355.69147,-32.203888,12.0,40.0,0.0,0.0,-29.999857,-30.0,146.22946,2.0E-5,6.71E-4,12.876752,282.89807,111.43635,-0.017997,-2.42568,-1645.4037,0.0
0.0,0.0,0.0,0.0,0.0,0.0,0.0,1.93065776E8,1.93065776E8,1.93065792E8,1.93065792E8,1.9306584E8,1.93065872E8,63.991837,-22.605427,146.22946,0.104202,4.953444,180.01328,27.602419,2.232085,0.357499,1.6E-5,7.652267,352.499,-35.396343,12.0,40.0,0.0,0.0,-29.999857,-30.0,146.22946,2.0E-5,0.00104,12.876752,282.89807,111.195984,-0.01802,-2.4299,-1649.6178,0.0
0.0,0.0,0.0,0.0,0.0,0.0,0.0,1.93065776E8,1.93065776E8,1.93065792E8,1.93065792E8,1.9306584E8,1.93065872E8,63.991837,-22.605427,146.22946,0.104261,4.953448,180.01328,26.584587,2.244975,0.418894,1.8E-5,7.756017,349.82275,-38.072594,12.0,40.0,0.0,0.0,-39.99986,-40.0,146.22946,1.9E-5,8.39E-4,12.876752,282.89807,111.16897,-0.018036,-2.433326,-1650.7552,0.0
0.0,0.0,0.0,0.0,0.0,0.0,0.0,1.93065776E8,1.93065776E8,1.93065792E8,1.93065792E8,1.9306584E8,1.93065872E8,63.991837,-22.605427,146.22946,0.104318,4.953451,180.01329,25.57865,2.258565,0.455265,2.0E-5,7.781222,347.1297,-40.765644,12.0,40.0,0.0,0.0,-39.99986,-40.0,146.22946,1.9E-5,8.72E-4,12.876752,282.89807,111.30381,-0.018051,-2.436584,-1652.472,0.0
0.0,0.0,0.0,0.0,0.0,0.0,0.0,1.93065776E8,1.93065776E8,1.93065792E8,1.93065792E8,1.9306584E8,1.93065872E8,63.991837,-22.605427,146.22946,0.104373,4.953453,180.01329,24.585009,2.272843,0.491225,2.1E-5,7.795485,344.43073,-43.464615,12.0,40.0,0.0,0.0,-39.99986,-40.0,146.22946,1.9E-5,9.39E-4,12.876752,282.89807,111.59703,-0.018066,-2.439683,-1654.3042,0.0
0.0,0.0,0.0,0.0,0.0,0.0,0.0,1.93065776E8,1.93065776E8,1.93065792E8,1.93065792E8,1.9306584E8,1.93065872E8,63.991837,-22.605427,146.22946,0.104428,4.953454,180.01329,23.60403,2.287797,0.526976,2.2E-5,7.806072,341.72968,-46.165684,12.0,40.0,0.0,0.0,-39.99986,-40.0,146.22946,1.8E-5,9.73E-4,12.876752,282.89807,112.04492,-0.01808,-2.442631,-1656.0944,0.0
0.0,0.0,0.0,0.0,0.0,0.0,0.0,1.93065776E8,1.93065776E8,1.93065792E8,1.93065792E8,1.9306584E8,1.93065872E8,63.991837,-22.605427,146.22946,0.10448,4.953453,180.01329,22.636036,2.303413,0.558968,2.3E-5,7.775159,338.98517,-48.91018,12.0,40.0,0.0,0.0,-49.99986,-50.0,146.22946,1.8E-5,0.001141,12.876752,282.89807,112.64353,-0.018094,-2.445434,-1659.4353,0.0
0.0,0.0,0.0,0.0,0.0,0.0,0.0,1.93065776E8,1.93065776E8,1.93065792E8,1.93065792E8,1.9306584E8,1.93065872E8,63.991837,-22.605427,146.22948,0.104532,4.953451,180.0133,21.681309,2.319679,0.59448,2.4E-5,7.750189,336.2806,-51.614746,12.0,40.0,0.0,0.0,-49.99986,-50.0,146.22948,1.8E-5,0.001141,12.876752,282.89807,113.38867,-0.018108,-2.448101,-1660.9487,0.0
0.0,0.0,0.0,0.0,0.0,0.0,0.0,1.93065776E8,1.93065776E8,1.93065792E8,1.93065792E8,1.9306584E8,1.93065872E8,63.991837,-22.605427,146.22948,0.104582,4.953447,180.0133,20.7401,2.33658,0.625923,2.5E-5,7.764516,333.56497,-54.33036,12.0,40.0,0.0,0.0,-49.99986,-50.0,146.22948,1.7E-5,0.001208,12.876752,282.89807,114.27598,-0.018121,-2.450637,-1662.8379,0.0
0.0,0.0,0.0,0.0,0.0,0.0,0.0,1.93065776E8,1.93065776E8,1.93065792E8,1.93065792E8,1.9306584E8,1.93065872E8,63.991837,-22.605427,146.22948,0.104623,4.953444,180.0133,19.966242,2.35114,0.654574,2.6E-5,7.797206,331.34717,-56.54819,12.0,40.0,0.0,0.0,-49.99986,-50.0,146.22948,1.7E-5,0.001241,12.876752,282.89807,115.1207,-0.01813,-2.452656,-1662.5634,0.0
0.0,0.0,0.0,0.0,0.0,0.0,0.0,1.93065776E8,1.93065776E8,1.93065792E8,1.93065792E8,1.9306584E8,1.93065872E8,63.991837,-22.605427,146.22948,0.104685,4.953439,180.01332,18.899178,2.372233,0.594427,2.8E-5,7.795687,328.18646,-59.70888,12.0,40.0,0.0,0.0,-59.99986,-60.0,146.22948,1.7E-5,0.001342,12.876752,282.89807,116.45859,-0.018141,-2.455344,-1664.2739,0.0
0.0,0.0,0.0,0.0,0.0,0.0,0.0,1.93065776E8,1.93065776E8,1.93065792E8,1.93065792E8,1.9306584E8,1.93065872E8,63.991837,-22.605427,146.22948,0.104747,4.953441,180.01332,17.999773,2.390958,0.546644,2.9E-5,7.839673,325.50528,-62.39006,12.0,40.0,0.0,0.0,-59.99986,-60.0,146.22948,1.6E-5,0.001308,12.876752,282.89807,117.74421,-0.01815,-2.457526,-1664.6154,0.0
0.0,0.0,0.0,0.0,0.0,0.0,0.0,1.93065776E8,1.93065776E8,1.93065792E8,1.93065792E8,1.9306584E8,1.93065872E8,63.991837,-22.605427,146.22948,0.104819,4.953447,180.01332,17.114506,2.410264,0.519023,3.1E-5,7.862057,322.8104,-65.08494,12.0,40.0,0.0,0.0,-59.99986,-60.0,146.22948,1.6E-5,0.001409,12.876752,282.89807,119.15265,-0.01816,-2.459602,-1665.4614,0.0
0.0,0.0,0.0,0.0,0.0,0.0,0.0,1.93065776E8,1.93065776E8,1.93065792E8,1.93065792E8,1.9306584E8,1.93065872E8,63.991837,-22.605427,146.22949,0.104897,4.953456,180.01334,16.243456,2.430137,0.505317,3.2E-5,7.87591,320.1107,-67.784645,12.0,40.0,0.0,0.0,-69.999855,-70.0,146.22949,1.6E-5,0.001409,12.876752,282.89807,120.67869,-0.01817,-2.461576,-1666.4352,0.0
0.0,0.0,0.0,0.0,0.0,0.0,0.0,1.93065776E8,1.93065776E8,1.93065792E8,1.93065792E8,1.9306584E8,1.93065872E8,63.991837,-22.605427,146.22949,0.10498,4.953466,180.01334,15.386682,2.450564,0.500582,3.3E-5,7.886813,317.40927,-70.48606,12.0,40.0,0.0,0.0,-69.999855,-70.0,146.22949,1.5E-5,0.00151,12.876752,282.89807,122.31696,-0.018181,-2.463454,-1667.4072,0.0
0.0,0.0,0.0,0.0,0.0,0.0,0.0,1.93065776E8,1.93065776E8,1.93065792E8,1.93065792E8,1.9306584E8,1.93065872E8,63.991837,-22.605427,146.22949,0.105067,4.953477,180.01335,14.544214,2.471531,0.501103,3.5E-5,7.896728,314.70724,-73.188095,12.0,40.0,0.0,0.0,-69.999855,-70.0,146.22949,1.5E-5,0.001577,12.876752,282.89807,124.06202,-0.018193,-2.46524,-1668.3351,0.0
0.0,0.0,0.0,0.0,0.0,0.0,0.0,1.93065776E8,1.93065776E8,1.93065792E8,1.93065792E8,1.9306584E8,1.93065872E8,63.991837,-22.605427,146.22949,0.105157,4.953486,180.01335,13.716057,2.493025,0.50481,3.6E-5,7.906347,312.005,-75.89035,12.0,40.0,0.0,0.0,-69.999855,-70.0,146.22949,1.5E-5,0.001644,12.876752,282.89807,125.90827,-0.018206,-2.466939,-1669.2064,0.0
0.0,0.0,0.0,0.0,0.0,0.0,0.0,1.93065776E8,1.93065776E8,1.93065792E8,1.93065792E8,1.9306584E8,1.93065872E8,63.991837,-22.605427,146.22949,0.105249,4.953493,180.01335,12.902187,2.515031,0.510452,3.7E-5,7.915911,309.30264,-78.5927,12.0,40.0,0.0,0.0,-79.999855,-80.0,146.22949,1.4E-5,0.001677,12.876752,282.89807,127.85006,-0.018218,-2.468554,-1670.0197,0.0
0.0,0.0,0.0,0.0,0.0,0.0,0.0,1.93065776E8,1.93065776E8,1.93065792E8,1.93065792E8,1.9306584E8,1.93065872E8,63.991837,-22.605427,146.2295,0.105344,4.953498,180.01337,12.102561,2.537537,0.516831,3.8E-5,7.925506,306.60025,-81.29508,12.0,40.0,0.0,0.0,-79.999855,-80.0,146.2295,1.4E-5,0.001778,12.876752,282.89807,129.88164,-0.018232,-2.470091,-1670.7766,0.0
0.0,0.0,0.0,0.0,0.0,0.0,0.0,1.93065776E8,1.93065776E8,1.93065792E8,1.93065792E8,1.9306584E8,1.93065872E8,63.991837,-22.605427,146.2295,0.10544,4.9535,180.01337,11.317111,2.560529,0.523717,4.0E-5,7.935161,303.89786,-83.9975,12.0,40.0,0.0,0.0,-79.999855,-80.0,146.2295,1.4E-5,0.001879,12.876752,282.89807,131.99722,-0.018245,-2.471553,-1671.4802,0.0
0.0,0.0,0.0,0.0,0.0,0.0,0.0,1.93065776E8,1.93065776E8,1.93065792E8,1.93065792E8,1.9306584E8,1.93065872E8,63.991837,-22.605427,146.2295,0.105538,4.9535,180.01338,10.545753,2.583995,0.530172,4.1E-5,7.944887,301.1954,-86.69993,12.0,40.0,0.0,0.0,-79.999855,-80.0,146.2295,1.4E-5,0.001979,12.876752,282.89807,134.19093,-0.018259,-2.472943,-1672.1335,0.0
0.0,0.0,0.0,0.0,0.0,0.0,0.0,1.93065776E8,1.93065776E8,1.93065792E8,1.93065792E8,1.9306584E8,1.93065872E8,63.991837,-22.605427,146.2295,0.105638,4.953496,180.01338,9.788385,2.607922,0.536071,4.2E-5,7.954686,298.49298,-89.40238,12.0,40.0,0.0,0.0,-89.999855,-90.0,146.2295,1.3E-5,0.002013,12.876752,282.89807,136.4569,-0.018273,-2.474265,-1672.7399,0.0
0.0,0.0,0.0,0.0,0.0,0.0,0.0,1.93065776E8,1.93065776E8,1.93065792E8,1.93065792E8,1.9306584E8,1.93065872E8,63.991837,-22.605427,146.22952,0.105741,4.953488,180.0134,9.04489,2.632297,0.536838,4.3E-5,7.878459,295.71768,-92.17766,12.0,40.0,0.0,0.0,-89.999855,-90.0,146.22952,1.3E-5,0.002147,12.876752,282.89807,138.78917,-0.018289,-2.475523,-1676.025,0.0
0.0,0.0,0.0,0.0,0.0,0.0,0.0,1.93065776E8,1.93065776E8,1.93065792E8,1.93065792E8,1.9306584E8,1.93065872E8,63.991837,-22.605427,146.22952,0.105845,4.953479,180.01341,8.407396,2.628174,0.379766,3.0E-5,7.921223,293.06238,-94.832954,12.0,40.0,0.0,0.0,-89.999855,-90.0,146.22952,1.3E-5,0.001811,12.876752,282.89807,141.18184,-0.018303,-2.476719,-1674.5504,0.0
0.0,0.0,0.0,0.0,0.0,0.0,0.0,1.93065776E8,1.93065776E8,1.93065792E8,1.93065792E8,1.9306584E8,1.93065872E8,63.991837,-22.605427,146.22952,0.105953,4.953469,180.01341,7.768898,2.624063,0.260122,2.1E-5,7.950629,290.3765,-97.518845,12.0,40.0,0.0,0.0,-99.999855,-100.0,146.22952,1.3E-5,0.001308,12.876752,282.89807,143.62895,-0.018317,-2.477857,-1674.3442,0.0
0.0,0.0,0.0,0.0,0.0,0.0,0.0,1.93065776E8,1.93065776E8,1.93065792E8,1.93065792E8,1.9306584E8,1.93065872E8,63.991837,-22.605427,146.22952,0.106065,4.953461,180.01343,7.128439,2.620278,0.175212,1.4E-5,7.96123,287.67984,-100.21551,12.0,40.0,0.0,0.0,-99.999855,-100.0,146.22952,1.2E-5,7.72E-4,12.876752,282.89807,146.12459,-0.018332,-2.478939,-1674.5614,0.0
0.0,0.0,0.0,0.0,0.0,0.0,0.0,1.93065776E8,1.93065776E8,1.93065792E8,1.93065792E8,1.9306584E8,1.93065872E8,63.991837,-22.605427,146.22952,0.10618,4.953453,180.01343,6.486173,2.616822,0.116027,1.0E-5,7.965125,284.97937,-102.915985,12.0,40.0,0.0,0.0,-99.999855,-100.0,146.22952,1.2E-5,5.37E-4,12.876752,282.89807,148.66284,-0.018348,-2.479968,-1674.9055,0.0
0.0,0.0,0.0,0.0,0.0,0.0,0.0,1.93065776E8,1.93065776E8,1.93065792E8,1.93065792E8,1.9306584E8,1.93065872E8,63.991837,-22.605427,146.22952,0.106297,4.953445,180.01344,5.842256,2.613695,0.075713,6.0E-6,7.966647,282.27753,-105.617805,12.0,40.0,0.0,0.0,-99.999855,-100.0,146.22952,1.2E-5,2.68E-4,12.876752,282.89807,151.23784,-0.018364,-2.480947,-1675.2736,0.0
0.0,0.0,0.0,0.0,0.0,0.0,0.0,1.93065776E8,1.93065776E8,1.93065792E8,1.93065792E8,1.9306584E8,1.93065872E8,63.991837,-22.605427,146.22952,0.106414,4.953437,180.01346,5.196848,2.6109,0.048712,4.0E-6,7.967321,279.57523,-108.320114,12.0,40.0,0.0,0.0,-109.999855,-110.0,146.22952,1.2E-5,1.34E-4,12.876752,282.89807,153.84375,-0.018381,-2.481878,-1675.6306,0.0
0.0,0.0,0.0,0.0,0.0,0.0,0.0,1.93065776E8,1.93065776E8,1.93065792E8,1.93065792E8,1.9306584E8,1.93065872E8,63.991837,-22.605427,146.22952,0.106532,4.953427,180.01346,4.550111,2.608436,0.03092,3.0E-6,7.967681,276.87274,-111.0226,12.0,40.0,0.0,0.0,-109.999855,-110.0,146.22952,1.1E-5,1.34E-4,12.876752,282.89807,156.4748,-0.018399,-2.482764,-1675.9657,0.0
0.0,0.0,0.0,0.0,0.0,0.0,0.0,1.93065776E8,1.93065776E8,1.93065792E8,1.93065792E8,1.9306584E8,1.93065872E8,63.991837,-22.605427,146.22952,0.106651,4.953416,180.01347,3.902206,2.606306,0.020009,2.0E-6,7.967917,274.1702,-113.72517,12.0,40.0,0.0,0.0,-109.999855,-110.0,146.22952,1.1E-5,0.0,12.876752,282.89807,159.12527,-0.018416,-2.483606,-1676.276,0.0
0.0,0.0,0.0,0.0,0.0,0.0,0.0,1.93065776E8,1.93065776E8,1.93065792E8,1.93065792E8,1.9306584E8,1.93065872E8,63.991837,-22.605427,146.22952,0.106769,4.953403,180.01347,3.253298,2.604509,0.014166,1.0E-6,7.968096,271.4676,-116.427765,12.0,40.0,0.0,0.0,-109.999855,-110.0,146.22952,1.1E-5,0.0,12.876752,282.89807,161.78955,-0.018434,-2.484407,-1676.5616,0.0
0.0,0.0,0.0,0.0,0.0,0.0,0.0,1.93065776E8,1.93065776E8,1.93065792E8,1.93065792E8,1.9306584E8,1.93065872E8,63.991837,-22.605427,146.22952,0.106887,4.953389,180.01349,2.603551,2.603047,0.011926,1.0E-6,7.968239,268.76495,-119.13039,12.0,40.0,0.0,0.0,-119.999855,-120.0,146.22952,1.1E-5,-0.0,12.876752,282.89807,164.46205,-0.018453,-2.485169,-1676.8235,0.0
0.0,0.0,0.0,0.0,0.0,0.0,0.0,1.93065776E8,1.93065776E8,1.93065792E8,1.93065792E8,1.9306584E8,1.93065872E8,63.991837,-22.605427,146.22952,0.107004,4.953372,180.0135,1.953132,2.60192,0.012264,1.0E-6,7.968356,266.06232,-121.83302,12.0,40.0,0.0,0.0,-119.999855,-120.0,146.22952,1.0E-5,-3.4E-5,12.876752,282.89807,167.13736,-0.018472,-2.485894,-1677.0631,0.0
0.0,0.0,0.0,0.0,0.0,0.0,0.0,1.93065776E8,1.93065776E8,1.93065792E8,1.93065792E8,1.9306584E8,1.93065872E8,63.991837,-22.605427,146.22952,0.107121,4.953352,180.0135,1.302208,2.601129,0.014567,1.0E-6,7.96845,263.35965,-124.53568,12.0,40.0,0.0,0.0,-119.999855,-120.0,146.22952,1.0E-5,-3.4E-5,12.876752,282.89807,169.81007,-0.01849,-2.486583,-1677.2816,0.0
0.0,0.0,0.0,0.0,0.0,0.0,0.0,1.93065776E8,1.93065776E8,1.93065792E8,1.93065792E8,1.9306584E8,1.93065872E8,63.991837,-22.605427,146.22952,0.107238,4.953331,180.01352,0.650946,2.600673,0.018267,2.0E-6,7.968521,260.65698,-127.23836,12.0,40.0,0.0,0.0,-119.999855,-120.0,146.22952,1.0E-5,3.4E-5,12.876752,282.89807,172.47499,-0.018509,-2.487239,-1677.4803,0.0
0.0,0.0,0.0,0.0,0.0,0.0,0.0,1.93065776E8,1.93065776E8,1.93065792E8,1.93065792E8,1.9306584E8,1.93065872E8,63.991837,-22.605427,146.22952,0.107354,4.953307,180.01352,-4.84E-4,2.600554,0.022991,2.0E-6,7.96857,257.95428,-129.94104,12.0,40.0,0.0,0.0,-129.99986,-130.0,146.22952,1.0E-5,6.7E-5,12.876752,282.89807,175.12695,-0.018529,-2.487863,-1677.6606,0.0
0.0,0.0,0.0,0.0,0.0,0.0,0.0,1.93065776E8,1.93065776E8,1.93065792E8,1.93065792E8,1.9306584E8,1.93065872E8,63.991837,-22.605427,146.22952,0.10747,4.953283,180.01353,-0.651915,2.600767,0.027638,2.0E-6,7.968596,255.25159,-132.64375,12.0,40.0,0.0,0.0,-129.99986,-130.0,146.22952,1.0E-5,0.0,12.876752,282.89807,177.76099,-0.018548,-2.488456,-1677.8236,0.0
0.0,0.0,0.0,0.0,0.0,0.0,0.0,1.93065776E8,1.93065776E8,1.93065792E8,1.93065792E8,1.9306584E8,1.93065872E8,63.991837,-22.605427,146.22952,0.107586,4.953269,180.01355,-1.303178,2.601315,0.031372,3.0E-6,7.968599,252.54887,-135.34647,12.0,40.0,0.0,0.0,-129.99986,-130.0,146.22952,9.0E-6,6.7E-5,12.876752,282.89807,180.37222,-0.018567,-2.48902,-1677.9702,0.0
0.0,0.0,0.0,0.0,0.0,0.0,0.0,1.93065776E8,1.93065776E8,1.93065792E8,1.93065792E8,1.9306584E8,1.93065872E8,63.991837,-22.605427,146.22952,0.107701,4.953265,180.01355,-1.954107,2.602198,0.035343,3.0E-6,7.96858,249.84613,-138.04921,12.0,40.0,0.0,0.0,-139.99986,-140.0,146.22952,9.0E-6,-3.4E-5,12.876752,282.89807,182.95593,-0.018586,-2.489557,-1678.1017,0.0
0.0,0.0,0.0,0.0,0.0,0.0,0.0,1.93065776E8,1.93065776E8,1.93065792E8,1.93065792E8,1.9306584E8,1.93065872E8,63.991837,-22.605427,146.22952,0.107817,4.95327,180.01357,-2.604532,2.603419,0.039903,3.0E-6,7.968539,247.14339,-140.75197,12.0,40.0,0.0,0.0,-139.99986,-140.0,146.22952,9.0E-6,-0.0,12.876752,282.89807,185.50754,-0.018606,-2.490067,-1678.2188,0.0
0.0,0.0,0.0,0.0,0.0,0.0,0.0,1.93065776E8,1.93065776E8,1.93065792E8,1.93065792E8,1.9306584E8,1.93065872E8,63.991837,-22.605427,146.22952,0.107933,4.953281,180.01357,-3.254286,2.604975,0.045525,4.0E-6,7.968477,244.44061,-143.45473,12.0,40.0,0.0,0.0,-139.99986,-140.0,146.22952,9.0E-6,0.0,12.876752,282.89807,188.02264,-0.018625,-2.490552,-1678.3225,0.0
0.0,0.0,0.0,0.0,0.0,0.0,0.0,1.93065776E8,1.93065776E8,1.93065792E8,1.93065792E8,1.9306584E8,1.93065872E8,63.991837,-22.605427,146.22952,0.10805,4.953296,180.01358,-3.903199,2.606868,0.05151,4.0E-6,7.928867,241.69514,-146.2002,12.0,40.0,0.0,0.0,-139.99986,-140.0,146.22952,9.0E-6,3.4E-5,12.876752,282.89807,190.49696,-0.018645,-2.491014,-1680.0374,0.0
0.0,0.0,0.0,0.0,0.0,0.0,0.0,1.93065776E8,1.93065776E8,1.93065792E8,1.93065792E8,1.9306584E8,1.93065872E8,63.991837,-22.605427,146.22952,0.108167,4.953313,180.0136,-4.55112,2.609094,0.058346,5.0E-6,7.942027,239.02,-148.87534,12.0,40.0,0.0,0.0,-149.99986,-150.0,146.22952,9.0E-6,0.0,12.876752,282.89807,192.92642,-0.018665,-2.491453,-1678.9482,0.0
0.0,0.0,0.0,0.0,0.0,0.0,0.0,1.93065776E8,1.93065776E8,1.93065792E8,1.93065792E8,1.9306584E8,1.93065872E8,63.991837,-22.605427,146.22952,0.108284,4.95333,180.0136,-5.197872,2.611655,0.065314,5.0E-6,7.958844,236.32692,-151.56842,12.0,40.0,0.0,0.0,-149.99986,-150.0,146.22952,8.0E-6,3.4E-5,12.876752,282.89807,195.3071,-0.018684,-2.491871,-1678.6123,0.0
0.0,0.0,0.0,0.0,0.0,0.0,0.0,1.93065776E8,1.93065776E8,1.93065792E8,1.93065792E8,1.9306584E8,1.93065872E8,63.991837,-22.605427,146.22952,0.108402,4.953346,180.01361,-5.843297,2.614548,0.072598,6.0E-6,7.964733,233.62752,-154.26782,12.0,40.0,0.0,0.0,-149.99986,-150.0,146.22952,8.0E-6,6.7E-5,12.876752,282.89807,197.63522,-0.018704,-2.492268,-1678.5348,0.0
0.0,0.0,0.0,0.0,0.0,0.0,0.0,1.93065776E8,1.93065776E8,1.93065792E8,1.93065792E8,1.9306584E8,1.93065872E8,63.991837,-22.605427,146.22952,0.10852,4.953362,180.01363,-6.487237,2.617772,0.07955,7.0E-6,7.966686,230.92587,-156.96947,12.0,40.0,0.0,0.0,-149.99986,-150.0,146.22952,8.0E-6,1.68E-4,12.876752,282.89807,199.90726,-0.018724,-2.492646,-1678.5417,0.0
0.0,0.0,0.0,0.0,0.0,0.0,0.0,1.93065776E8,1.93065776E8,1.93065792E8,1.93065792E8,1.9306584E8,1.93065872E8,63.991837,-22.605427,146.22952,0.108639,4.953376,180.01363,-7.129536,2.621327,0.086959,7.0E-6,7.967241,228.22343,-159.6719,12.0,40.0,0.0,0.0,-159.99986,-160.0,146.22952,8.0E-6,2.35E-4,12.876752,282.89807,202.11977,-0.018743,-2.493006,-1678.5723,0.0
0.0,0.0,0.0,0.0,0.0,0.0,0.0,1.93065776E8,1.93065776E8,1.93065792E8,1.93065792E8,1.9306584E8,1.93065872E8,63.991837,-22.605427,146.22952,0.108759,4.953389,180.01364,-7.770039,2.62521,0.094125,8.0E-6,7.967289,225.5207,-162.37463,12.0,40.0,0.0,0.0,-159.99986,-160.0,146.22952,8.0E-6,2.01E-4,12.876752,282.89807,204.26959,-0.018763,-2.493347,-1678.6053,0.0
0.0,0.0,0.0,0.0,0.0,0.0,0.0,1.93065776E8,1.93065776E8,1.93065792E8,1.93065792E8,1.9306584E8,1.93065872E8,63.991837,-22.605427,146.22952,0.108879,4.953399,180.01364,-8.408594,2.62942,0.101228,9.0E-6,7.967144,222.81787,-165.07747,12.0,40.0,0.0,0.0,-159.99986,-160.0,146.22952,8.0E-6,2.68E-4,12.876752,282.89807,206.35368,-0.018783,-2.493672,-1678.634,0.0
0.0,0.0,0.0,0.0,0.0,0.0,0.0,1.93065776E8,1.93065776E8,1.93065792E8,1.93065792E8,1.9306584E8,1.93065872E8,63.991837,-22.605427,146.22952,0.109001,4.953407,180.01366,-9.045052,2.633956,0.108493,9.0E-6,7.966918,220.11497,-167.78036,12.0,40.0,0.0,0.0,-169.99986,-170.0,146.22952,7.0E-6,3.02E-4,12.876752,282.89807,208.36923,-0.018803,-2.493982,-1678.6562,0.0
0.0,0.0,0.0,0.0,0.0,0.0,0.0,1.93065776E8,1.93065776E8,1.93065792E8,1.93065792E8,1.9306584E8,1.93065872E8,63.991837,-22.605427,146.22952,0.109123,4.953413,180.01367,-9.679267,2.638817,0.11556,1.0E-5,7.966649,217.41206,-170.48329,12.0,40.0,0.0,0.0,-169.99986,-170.0,146.22952,7.0E-6,3.35E-4,12.876752,282.89807,210.3136,-0.018823,-2.494276,-1678.6714,0.0
0.0,0.0,0.0,0.0,0.0,0.0,0.0,1.93065776E8,1.93065776E8,1.93065792E8,1.93065792E8,1.9306584E8,1.93065872E8,63.991837,-22.605427,146.22952,0.109246,4.953417,180.01367,-10.311097,2.643999,0.122432,1.1E-5,7.96635,214.70912,-173.18622,12.0,40.0,0.0,0.0,-169.99986,-170.0,146.22952,7.0E-6,3.35E-4,12.876752,282.89807,212.18436,-0.018843,-2.494555,-1678.6796,0.0
0.0,0.0,0.0,0.0,0.0,0.0,0.0,1.93065776E8,1.93065776E8,1.93065792E8,1.93065792E8,1.9306584E8,1.93065872E8,63.991837,-22.605427,146.22954,0.10937,4.953419,180.01369,-10.940402,2.649502,0.129171,1.1E-5,7.966026,212.00616,-175.88918,12.0,40.0,0.0,0.0,-169.99986,-170.0,146.22954,7.0E-6,4.03E-4,12.876752,282.89807,213.97923,-0.018864,-2.494822,-1678.6813,0.0
0.0,0.0,0.0,0.0,0.0,0.0,0.0,1.93065776E8,1.93065776E8,1.93065792E8,1.93065792E8,1.9306584E8,1.93065872E8,63.991837,-22.605427,146.22954,0.109495,4.953418,180.0137,-11.567046,2.655324,0.135327,1.2E-5,7.965679,209.30319,-178.59216,12.0,40.0,0.0,0.0,-179.99986,-180.0,146.22954,7.0E-6,4.36E-4,12.876752,282.89807,215.6962,-0.018884,-2.495075,-1678.6768,0.0
0.0,0.0,0.0,0.0,0.0,0.0,0.0,1.93065776E8,1.93065776E8,1.93065792E8,1.93065792E8,1.9306584E8,1.93065872E8,63.991837,-22.605427,146.22954,0.109621,4.953415,180.0137,-12.190898,2.661462,0.141407,1.3E-5,7.965311,206.6002,-181.29515,12.0,40.0,0.0,0.0,-179.99986,-180.0,146.22954,7.0E-6,5.37E-4,12.876752,282.89807,217.33337,-0.018905,-2.495315,-1678.6664,0.0
0.0,0.0,0.0,0.0,0.0,0.0,0.0,1.93065776E8,1.93065776E8,1.93065792E8,1.93065792E8,1.9306584E8,1.93065872E8,63.991837,-22.605427,146.22954,0.109748,4.953409,180.01372,-12.811829,2.667914,0.147183,1.3E-5,7.96492,203.8972,-183.99815,12.0,40.0,0.0,0.0,-179.99986,-180.0,146.22954,7.0E-6,4.7E-4,12.876752,282.89807,218.88911,-0.018925,-2.495544,-1678.6505,0.0
0.0,0.0,0.0,0.0,0.0,0.0,0.0,1.93065776E8,1.93065776E8,1.93065792E8,1.93065792E8,1.9306584E8,1.93065872E8,63.991837,-22.605427,146.22954,0.109877,4.953402,180.01373,-13.429714,2.674684,0.153415,1.4E-5,7.964508,201.19417,-186.70117,12.0,40.0,0.0,0.0,-179.99986,-180.0,146.22954,6.0E-6,5.37E-4,12.876752,282.89807,220.36195,-0.018946,-2.495762,-1678.6296,0.0
0.0,0.0,0.0,0.0,0.0,0.0,0.0,1.93065776E8,1.93065776E8,1.93065792E8,1.93065792E8,1.9306584E8,1.93065872E8,63.991837,-22.605427,146.22954,0.110006,4.953391,180.01373,-14.044435,2.681764,0.159042,1.5E-5,7.964075,198.49113,-189.4042,12.0,40.0,0.0,0.0,-189.99986,-190.0,146.22954,6.0E-6,6.04E-4,12.876752,282.89807,221.75061,-0.018967,-2.495969,-1678.6039,0.0
0.0,0.0,0.0,0.0,0.0,0.0,0.0,1.93065776E8,1.93065776E8,1.93065792E8,1.93065792E8,1.9306584E8,1.93065872E8,63.991837,-22.605427,146.22954,0.110137,4.953379,180.01375,-14.655872,2.689151,0.164499,1.5E-5,7.963619,195.78809,-192.10725,12.0,40.0,0.0,0.0,-189.99986,-190.0,146.22954,6.0E-6,6.71E-4,12.876752,282.89807,223.054,-0.018988,-2.496166,-1678.5737,0.0
0.0,0.0,0.0,0.0,0.0,0.0,0.0,1.93065776E8,1.93065776E8,1.93065792E8,1.93065792E8,1.9306584E8,1.93065872E8,63.991837,-22.605427,146.22954,0.110268,4.953364,180.01376,-15.263917,2.696843,0.169481,1.6E-5,7.963141,193.08502,-194.81033,12.0,40.0,0.0,0.0,-189.99986,-190.0,146.22954,6.0E-6,7.38E-4,12.876752,282.89807,224.27124,-0.019009,-2.496354,-1678.5393,0.0
0.0,0.0,0.0,0.0,0.0,0.0,0.0,1.93065776E8,1.93065776E8,1.93065792E8,1.93065792E8,1.9306584E8,1.93065872E8,63.991837,-22.605427,146.22954,0.110402,4.953346,180.01376,-15.868461,2.704838,0.174362,1.7E-5,7.962642,190.38193,-197.51341,12.0,40.0,0.0,0.0,-199.99986,-200.0,146.22954,6.0E-6,7.38E-4,12.876752,282.89807,225.40161,-0.019031,-2.496532,-1678.5009,0.0
0.0,0.0,0.0,0.0,0.0,0.0,0.0,1.93065776E8,1.93065776E8,1.93065792E8,1.93065792E8,1.9306584E8,1.93065872E8,63.991837,-22.605427,146.22954,0.110536,4.953327,180.01378,-16.469398,2.713132,0.179333,1.8E-5,7.962121,187.67883,-200.2165,12.0,40.0,0.0,0.0,-199.99986,-200.0,146.22954,6.0E-6,7.38E-4,12.876752,282.89807,226.44461,-0.019052,-2.496701,-1678.4587,0.0
0.0,0.0,0.0,0.0,0.0,0.0,0.0,1.93065776E8,1.93065776E8,1.93065792E8,1.93065792E8,1.9306584E8,1.93065872E8,63.991837,-22.605427,146.22954,0.110672,4.953304,180.0138,-17.066635,2.721723,0.184092,1.8E-5,7.961576,184.97572,-202.91963,12.0,40.0,0.0,0.0,-199.99986,-200.0,146.22954,6.0E-6,8.72E-4,12.876752,282.89807,227.3999,-0.019074,-2.496862,-1678.4132,0.0
0.0,0.0,0.0,0.0,0.0,0.0,0.0,1.93065776E8,1.93065776E8,1.93065792E8,1.93065792E8,1.9306584E8,1.93065872E8,63.991837,-22.605427,146.22954,0.110809,4.953279,180.0138,-17.660072,2.730608,0.188446,1.9E-5,7.961011,182.27258,-205.62276,12.0,40.0,0.0,0.0,-199.99986,-200.0,146.22954,6.0E-6,8.39E-4,12.876752,282.89807,228.26733,-0.019096,-2.497016,-1678.3644,0.0
0.0,0.0,0.0,0.0,0.0,0.0,0.0,1.93065776E8,1.93065776E8,1.93065792E8,1.93065792E8,1.9306584E8,1.93065872E8,63.991837,-22.605427,146.22955,0.110947,4.953252,180.01381,-18.249622,2.739784,0.192377,2.0E-5,7.960423,179.56944,-208.3259,12.0,40.0,0.0,0.0,-209.99986,-210.0,146.22955,6.0E-6,9.06E-4,12.876752,282.89807,229.04692,-0.019118,-2.497162,-1678.3124,0.0
0.0,0.0,0.0,0.0,0.0,0.0,0.0,1.93065776E8,1.93065776E8,1.93065792E8,1.93065792E8,1.9306584E8,1.93065872E8,63.991837,-22.605427,146.22955,0.111063,4.953228,180.01382,-18.73788,2.747652,0.195668,2.0E-5,7.959916,177.3168,-210.57854,12.0,40.0,0.0,0.0,-209.99986,-210.0,146.22955,5.0E-6,9.39E-4,12.876752,282.89807,229.62961,-0.019133,-2.497278,-1678.267,0.0
0.0,0.0,0.0,0.0,0.0,0.0,0.0,1.93065776E8,1.93065776E8,1.93065792E8,1.93065792E8,1.9306584E8,1.93065872E8,63.991837,-22.605427,146.22955,0.11123,4.953191,180.01384,-19.416706,2.759,0.197446,2.1E-5,8.001384,174.0773,-213.81804,12.0,40.0,0.0,0.0,-209.99986,-210.0,146.22955,5.0E-6,9.06E-4,12.876752,282.89807,230.34352,-0.019163,-2.497432,-1681.4663,0.0
0.0,0.0,0.0,0.0,0.0,0.0,0.0,1.93065776E8,1.93065776E8,1.93065792E8,1.93065792E8,1.9306584E8,1.93065872E8,63.991837,-22.605427,146.22955,0.111373,4.953156,180.01384,-19.994114,2.769034,0.203425,2.2E-5,7.906409,171.4297,-216.46564,12.0,40.0,0.0,0.0,-209.99986,-210.0,146.22955,5.0E-6,0.001073,12.876752,282.89807,230.86145,-0.019186,-2.497558,-1679.0587,0.0
0.0,0.0,0.0,0.0,0.0,0.0,0.0,1.93065776E8,1.93065776E8,1.93065792E8,1.93065792E8,1.9306584E8,1.93065872E8,63.991837,-22.605427,146.22955,0.111514,4.95312,180.01385,-20.567375,2.779346,0.217436,2.2E-5,7.939094,168.74606,-219.14928,12.0,40.0,0.0,0.0,-219.99986,-220.0,146.22955,5.0E-6,0.001073,12.876752,282.89807,231.29332,-0.019211,-2.497677,-1678.1837,0.0
0.0,0.0,0.0,0.0,0.0,0.0,0.0,1.93065776E8,1.93065776E8,1.93065792E8,1.93065792E8,1.9306584E8,1.93065872E8,63.991837,-22.605427,146.22955,0.111648,4.953087,180.01387,-21.136385,2.789935,0.234143,2.2E-5,7.95055,166.04973,-221.84561,12.0,40.0,0.0,0.0,-219.99986,-220.0,146.22955,5.0E-6,0.001006,12.876752,282.89807,231.64,-0.019237,-2.497791,-1677.8466,0.0
0.0,0.0,0.0,0.0,0.0,0.0,0.0,1.93065776E8,1.93065776E8,1.93065792E8,1.93065792E8,1.9306584E8,1.93065872E8,63.991837,-22.605427,146.22955,0.111776,4.953058,180.01387,-21.701038,2.800796,0.248423,2.3E-5,7.906237,163.31303,-224.5823,12.0,40.0,0.0,0.0,-219.99986,-220.0,146.22955,5.0E-6,0.001073,12.876752,282.89807,231.90248,-0.019261,-2.497899,-1679.0322,0.0
0.0,0.0,0.0,0.0,0.0,0.0,0.0,1.93065776E8,1.93065776E8,1.93065792E8,1.93065792E8,1.9306584E8,1.93065872E8,63.991837,-22.605427,146.22955,0.111899,4.953033,180.01389,-22.261288,2.811928,0.26202,2.3E-5,7.932668,160.63388,-227.26146,12.0,40.0,0.0,0.0,-219.99986,-220.0,146.22955,5.0E-6,0.001107,12.876752,282.89807,232.08191,-0.019285,-2.498001,-1677.9656,0.0
0.0,0.0,0.0,0.0,0.0,0.0,0.0,1.93065776E8,1.93065776E8,1.93065792E8,1.93065792E8,1.9306584E8,1.93065872E8,63.991837,-22.605427,146.22957,0.112019,4.95301,180.0139,-22.817072,2.823328,0.272608,2.4E-5,7.946789,157.93909,-229.95625,12.0,40.0,0.0,0.0,-229.99986,-230.0,146.22957,5.0E-6,0.001174,12.876752,282.89807,232.1796,-0.019308,-2.498099,-1677.562,0.0
0.0,0.0,0.0,0.0,0.0,0.0,0.0,1.93065776E8,1.93065776E8,1.93065792E8,1.93065792E8,1.9306584E8,1.93065872E8,63.991837,-22.605427,146.22957,0.112138,4.952988,180.0139,-23.368345,2.834991,0.281143,2.5E-5,7.951271,155.23878,-232.65656,12.0,40.0,0.0,0.0,-229.99986,-230.0,146.22957,5.0E-6,0.001141,12.876752,282.89807,232.19695,-0.019331,-2.498192,-1677.3899,0.0
0.0,0.0,0.0,0.0,0.0,0.0,0.0,1.93065776E8,1.93065776E8,1.93065792E8,1.93065792E8,1.9306584E8,1.93065872E8,63.991837,-22.605427,146.22957,0.112256,4.952967,180.01392,-23.915068,2.846915,0.288217,2.5E-5,7.952316,152.53653,-235.35881,12.0,40.0,0.0,0.0,-229.99986,-230.0,146.22957,5.0E-6,0.001208,12.876752,282.89807,232.13551,-0.019353,-2.49828,-1677.2972,0.0
0.0,0.0,0.0,0.0,0.0,0.0,0.0,1.93065776E8,1.93065776E8,1.93065792E8,1.93065792E8,1.9306584E8,1.93065872E8,63.991837,-22.605427,146.22957,0.112365,4.952949,180.01393,-24.412195,2.858072,0.290578,2.6E-5,7.939687,150.04189,-237.85345,12.0,40.0,0.0,0.0,-239.99986,-240.0,146.22957,4.0E-6,0.001409,12.876752,282.89807,232.01146,-0.019369,-2.498358,-1677.885,0.0
0.0,0.0,0.0,0.0,0.0,0.0,0.0,1.93065776E8,1.93065776E8,1.93065792E8,1.93065792E8,1.9306584E8,1.93065872E8,63.991837,-22.605427,146.22957,0.112485,4.952929,180.01393,-24.950085,2.870487,0.298439,2.6E-5,7.941156,147.34969,-240.54567,12.0,40.0,0.0,0.0,-239.99986,-240.0,146.22957,4.0E-6,0.001208,12.876752,282.89807,231.80388,-0.019394,-2.498438,-1677.3606,0.0
0.0,0.0,0.0,0.0,0.0,0.0,0.0,1.93065776E8,1.93065776E8,1.93065792E8,1.93065792E8,1.9306584E8,1.93065872E8,63.991837,-22.605427,146.22957,0.112615,4.952906,180.01395,-25.52754,2.884155,0.296123,2.6E-5,6.798208,144.75826,-243.13708,12.0,40.0,0.0,0.0,-239.99986,-240.0,146.22957,4.0E-6,0.00161,12.876752,282.89807,231.49608,-0.019424,-2.49852,-1663.863,0.0
0.0,0.0,0.0,0.0,0.0,0.0,0.0,1.93065776E8,1.93065776E8,1.93065792E8,1.93065792E8,1.9306584E8,1.93065872E8,63.991837,-22.605427,146.22958,0.112736,4.952885,180.01395,-26.055683,2.896946,0.305878,2.8E-5,4.562376,143.80685,-244.08849,12.0,40.0,0.0,0.0,-239.99986,-240.0,146.22958,4.0E-6,0.001342,12.876752,282.89807,231.13757,-0.019445,-2.498593,-1594.4447,0.0
0.0,0.0,0.0,0.0,0.0,0.0,0.0,1.93065776E8,1.93065776E8,1.93065792E8,1.93065792E8,1.9306584E8,1.93065872E8,63.991837,-22.605427,146.22958,0.112859,4.952863,180.01396,-26.579111,2.909981,0.308578,2.8E-5,3.405376,143.46623,-244.42912,12.0,40.0,0.0,0.0,-239.99986,-240.0,146.22958,4.0E-6,0.001342,12.876752,282.89807,230.70985,-0.019466,-2.498661,-1500.6471,0.0
0.0,0.0,0.0,0.0,0.0,0.0,0.0,1.93065776E8,1.93065776E8,1.93065792E8,1.93065792E8,1.9306584E8,1.93065872E8,63.991837,-22.605427,146.22958,0.112983,4.952841,180.01398,-27.097795,2.923255,0.311185,2.9E-5,2.886153,143.34058,-244.55476,12.0,40.0,0.0,0.0,-239.99986,-240.0,146.22958,4.0E-6,0.001375,12.876752,282.89807,230.21515,-0.019487,-2.498727,-1397.8854,0.0
0.0,0.0,0.0,0.0,0.0,0.0,0.0,1.93065776E8,1.93065776E8,1.93065792E8,1.93065792E8,1.9306584E8,1.93065872E8,63.991837,-22.605427,146.22958,0.11311,4.952818,180.01398,-27.61172,2.936766,0.31202,2.9E-5,2.676445,143.29051,-244.60483,12.0,40.0,0.0,0.0,-239.99986,-240.0,146.22958,4.0E-6,0.001442,12.876752,282.89807,229.65575,-0.019509,-2.498789,-1291.7727,0.0
