aileron,elevator,rudder,flaps,slats,speedbrake,throttle,engine-pump0,engine-pump1,electric-pump0,electric-pump1,external-power,APU-generator,latitude-deg,longitude-deg,altitude-ft,roll-deg,pitch-deg,heading-deg,side-slip-deg,airspeed-kt,glideslope,vertical-speed-fps,airspeed-indicator_indicated-speed-kt,altimeter_indicated-altitude-ft,altimeter_pressure-alt-ft,attitude-indicator_indicated-pitch-deg,attitude-indicator_indicated-roll-deg,attitude-indicator_internal-pitch-deg,attitude-indicator_internal-roll-deg,encoder_indicated-altitude-ft,encoder_pressure-alt-ft,gps_indicated-altitude-ft,gps_indicated-ground-speed-kt,gps_indicated-vertical-speed,indicated-heading-offset-deg,indicated-heading-deg,magnetic-compass_indicated-heading-deg,slip-skid-ball_indicated-slip-skid,turn-indicator_indicated-turn-rate,vertical-speed-indicator_indicated-speed-fpm,engine_rpm
0.0,0.0,0.0,0.0,0.0,0.0,1.0,2.391736E7,2.391736E7,2.3917376E7,2.3917376E7,2.3917424E7,2.3917456E7,63.985043,-22.592484,-9999.0,0.0,0.424,270.02136,0.0,0.0,0.0,0.0,0.0,0.0,0.0,0.0,0.0,0.0,0.0,0.0,0.0,0.0,0.0,0.0,12.876752,0.0,0.0,0.0,0.0,0.0,0.0
0.0,0.0,0.0,0.0,0.0,0.0,1.0,2.391736E7,2.391736E7,2.3917376E7,2.3917376E7,2.3917424E7,2.3917456E7,63.985043,-22.592484,-9999.0,0.0,0.424,270.02136,0.0,0.0,0.0,0.0,0.0,389.08878,1.193444,12.0,40.0,0.0,0.0,0.0,0.0,0.0,0.0,0.0,12.876752,282.89813,0.0,0.0,0.0,0.0,0.0
0.0,0.0,0.0,0.0,0.0,0.0,1.0,2.391736E7,2.391736E7,2.3917376E7,2.3917376E7,2.3917424E7,2.3917456E7,63.991837,-22.605425,-9999.0,0.0,0.424,180.01839,0.0,0.0,0.0,0.0,0.0,389.08878,1.193444,12.0,40.0,0.0,0.0,0.0,0.0,0.0,0.0,0.0,12.876752,282.89813,0.0,0.0,0.0,0.0,0.0
0.0,0.0,0.0,0.0,0.0,0.0,1.0,2.391736E7,2.391736E7,2.3917376E7,2.3917376E7,2.3917424E7,2.3917456E7,63.991837,-22.605425,-9999.0,0.0,0.424,180.01839,0.0,0.0,0.0,0.0,0.0,389.08878,1.193444,12.0,40.0,0.0,0.0,0.0,0.0,0.0,0.0,0.0,12.876752,282.89813,0.0,0.0,0.0,0.0,0.0
0.0,0.0,0.0,0.0,0.0,0.0,1.0,2.391736E7,2.391736E7,2.3917376E7,2.3917376E7,2.3917424E7,2.3917456E7,63.991837,-22.605425,-9999.0,0.0,0.424,180.01839,0.0,0.0,0.0,0.0,0.0,389.08878,1.193444,12.0,40.0,0.0,0.0,0.0,0.0,0.0,0.0,0.0,12.876752,282.89813,0.0,0.0,0.0,0.0,0.0
0.0,0.0,0.0,0.0,0.0,0.0,1.0,2.391736E7,2.391736E7,2.3917376E7,2.3917376E7,2.3917424E7,2.3917456E7,63.991837,-22.605425,-9999.0,0.0,0.424,180.01839,0.0,0.0,0.0,0.0,0.0,389.08878,1.193444,12.0,40.0,0.0,0.0,0.0,0.0,0.0,0.0,0.0,12.876752,282.89813,0.0,0.0,0.0,0.0,0.0
0.0,0.0,0.0,0.0,0.0,0.0,1.0,2.391736E7,2.391736E7,2.3917376E7,2.3917376E7,2.3917424E7,2.3917456E7,63.991837,-22.605425,-9999.0,0.0,0.424,180.01839,0.0,0.0,0.0,0.0,0.0,389.08878,1.193444,12.0,40.0,0.0,0.0,0.0,0.0,0.0,0.0,0.0,12.876752,282.89813,0.0,0.0,0.0,0.0,0.0
0.0,0.0,0.0,0.0,0.0,0.0,1.0,2.391736E7,2.391736E7,2.3917376E7,2.3917376E7,2.3917424E7,2.3917456E7,63.991837,-22.605425,-9999.0,0.0,0.424,180.01839,0.0,0.0,0.0,0.0,0.0,389.08878,1.193444,12.0,40.0,0.0,0.0,0.0,0.0,0.0,0.0,0.0,12.876752,282.89813,0.0,0.0,0.0,0.0,0.0
0.0,0.0,0.0,0.0,0.0,0.0,1.0,2.391736E7,2.391736E7,2.3917376E7,2.3917376E7,2.3917424E7,2.3917456E7,63.991837,-22.605425,-9999.0,0.0,0.424,180.01839,0.0,0.0,0.0,0.0,0.0,389.08878,1.193444,12.0,40.0,0.0,0.0,0.0,0.0,0.0,0.0,0.0,12.876752,282.89813,0.0,0.0,0.0,0.0,0.0
0.0,0.0,0.0,0.0,0.0,0.0,1.0,2.391736E7,2.391736E7,2.3917376E7,2.3917376E7,2.3917424E7,2.3917456E7,63.991837,-22.605425,-9999.0,0.0,0.424,180.01839,0.0,0.0,0.0,0.0,0.0,389.08878,1.193444,12.0,40.0,0.0,0.0,0.0,0.0,0.0,0.0,0.0,12.876752,282.89813,0.0,0.0,0.0,0.0,0.0
0.0,0.0,0.0,0.0,0.0,0.0,1.0,2.391736E7,2.391736E7,2.3917376E7,2.3917376E7,2.3917424E7,2.3917456E7,63.991837,-22.605425,-9999.0,0.0,0.424,180.01839,0.0,0.0,0.0,0.0,0.0,389.08878,1.193444,12.0,40.0,0.0,0.0,0.0,0.0,0.0,0.0,0.0,12.876752,282.89813,0.0,0.0,0.0,0.0,0.0
0.0,0.0,0.0,0.0,0.0,0.0,1.0,2.391736E7,2.391736E7,2.3917376E7,2.3917376E7,2.3917424E7,2.3917456E7,63.991837,-22.605425,-9999.0,0.0,0.424,180.01839,0.0,0.0,0.0,0.0,0.0,389.08878,1.193444,12.0,40.0,0.0,0.0,0.0,0.0,0.0,0.0,0.0,12.876752,282.89813,0.0,0.0,0.0,0.0,0.0
0.0,0.0,0.0,0.0,0.0,0.0,1.0,2.391736E7,2.391736E7,2.3917376E7,2.3917376E7,2.3917424E7,2.3917456E7,63.991837,-22.605425,-9999.0,0.0,0.424,180.01839,0.0,0.0,0.0,0.0,0.0,389.08878,1.193444,12.0,40.0,0.0,0.0,0.0,0.0,0.0,0.0,0.0,12.876752,282.89813,0.0,0.0,0.0,0.0,0.0
0.0,0.0,0.0,0.0,0.0,0.0,1.0,2.391736E7,2.391736E7,2.3917376E7,2.3917376E7,2.3917424E7,2.3917456E7,63.991837,-22.605425,-9999.0,0.0,0.424,180.01839,0.0,0.0,0.0,0.0,0.0,389.08878,1.193444,12.0,40.0,0.0,0.0,0.0,0.0,0.0,0.0,0.0,12.876752,282.89813,0.0,0.0,0.0,0.0,0.0
0.0,0.0,0.0,0.0,0.0,0.0,1.0,2.391736E7,2.391736E7,2.3917376E7,2.3917376E7,2.3917424E7,2.3917456E7,63.991837,-22.605425,-9999.0,0.0,0.424,180.01839,0.0,0.0,0.0,0.0,0.0,389.08878,1.193444,12.0,40.0,0.0,0.0,0.0,0.0,0.0,0.0,0.0,12.876752,282.89813,0.0,0.0,0.0,0.0,0.0
0.0,0.0,0.0,0.0,0.0,0.0,1.0,2.391736E7,2.391736E7,2.3917376E7,2.3917376E7,2.3917424E7,2.3917456E7,63.991837,-22.605425,-9999.0,0.0,0.424,180.01839,0.0,0.0,0.0,0.0,0.0,389.08878,1.193444,12.0,40.0,0.0,0.0,0.0,0.0,0.0,0.0,0.0,12.876752,282.89813,0.0,0.0,0.0,0.0,0.0
0.0,0.0,0.0,0.0,0.0,0.0,1.0,2.391736E7,2.391736E7,2.3917376E7,2.3917376E7,2.3917424E7,2.3917456E7,63.991837,-22.605425,-9999.0,0.0,0.424,180.01839,0.0,0.0,0.0,0.0,0.0,389.08878,1.193444,12.0,40.0,0.0,0.0,0.0,0.0,0.0,0.0,0.0,12.876752,282.89813,0.0,0.0,0.0,0.0,0.0
0.0,0.0,0.0,0.0,0.0,0.0,1.0,2.391736E7,2.391736E7,2.3917376E7,2.3917376E7,2.3917424E7,2.3917456E7,63.991837,-22.605425,-9999.0,0.0,0.424,180.01839,0.0,0.0,0.0,0.0,0.0,389.08878,1.193444,12.0,40.0,0.0,0.0,0.0,0.0,0.0,0.0,0.0,12.876752,282.89813,0.0,0.0,0.0,0.0,0.0
0.0,0.0,0.0,0.0,0.0,0.0,1.0,2.391736E7,2.391736E7,2.3917376E7,2.3917376E7,2.3917424E7,2.3917456E7,63.991837,-22.605425,-9999.0,0.0,0.424,180.01839,0.0,0.0,0.0,0.0,0.0,389.08878,1.193444,12.0,40.0,0.0,0.0,0.0,0.0,0.0,0.0,0.0,12.876752,282.89813,0.0,0.0,0.0,0.0,0.0
0.0,0.0,0.0,0.0,0.0,0.0,1.0,2.391736E7,2.391736E7,2.3917376E7,2.3917376E7,2.3917424E7,2.3917456E7,63.991837,-22.605425,-9999.0,0.0,0.424,180.01839,0.0,0.0,0.0,0.0,0.0,389.08878,1.193444,12.0,40.0,0.0,0.0,0.0,0.0,0.0,0.0,0.0,12.876752,282.89813,0.0,0.0,0.0,0.0,0.0
0.0,0.0,0.0,0.0,0.0,0.0,1.0,2.391736E7,2.391736E7,2.3917376E7,2.3917376E7,2.3917424E7,2.3917456E7,63.991837,-22.605425,-9999.0,0.0,0.424,180.01839,0.0,0.0,0.0,0.0,0.0,389.08878,1.193444,12.0,40.0,0.0,0.0,0.0,0.0,0.0,0.0,0.0,12.876752,282.89813,0.0,0.0,0.0,0.0,0.0
0.0,0.0,0.0,0.0,0.0,0.0,1.0,2.391736E7,2.391736E7,2.3917376E7,2.3917376E7,2.3917424E7,2.3917456E7,63.991837,-22.605425,-9999.0,0.0,0.424,180.01839,0.0,0.0,0.0,0.0,0.0,389.08878,1.193444,12.0,40.0,0.0,0.0,0.0,0.0,0.0,0.0,0.0,12.876752,282.89813,0.0,0.0,0.0,0.0,0.0
0.0,0.0,0.0,0.0,0.0,0.0,1.0,2.391736E7,2.391736E7,2.3917376E7,2.3917376E7,2.3917424E7,2.3917456E7,63.991837,-22.605425,-9999.0,0.0,0.424,180.01839,0.0,0.0,0.0,0.0,0.0,389.08878,1.193444,12.0,40.0,0.0,0.0,0.0,0.0,0.0,0.0,0.0,12.876752,282.89813,0.0,0.0,0.0,0.0,0.0
0.0,0.0,0.0,0.0,0.0,0.0,1.0,2.391736E7,2.391736E7,2.3917376E7,2.3917376E7,2.3917424E7,2.3917456E7,63.991837,-22.605425,-9999.0,0.0,0.424,180.01839,0.0,0.0,0.0,0.0,0.0,389.08878,1.193444,12.0,40.0,0.0,0.0,0.0,0.0,0.0,0.0,0.0,12.876752,282.89813,0.0,0.0,0.0,0.0,0.0
0.0,0.0,0.0,0.0,0.0,0.0,1.0,2.391736E7,2.391736E7,2.3917376E7,2.3917376E7,2.3917424E7,2.3917456E7,63.991837,-22.605425,-9999.0,0.0,0.424,180.01839,0.0,0.0,0.0,0.0,0.0,389.08878,1.193444,12.0,40.0,0.0,0.0,0.0,0.0,0.0,0.0,0.0,12.876752,282.89813,0.0,0.0,0.0,0.0,0.0
0.0,0.0,0.0,0.0,0.0,0.0,1.0,2.391736E7,2.391736E7,2.3917376E7,2.3917376E7,2.3917424E7,2.3917456E7,63.991837,-22.605425,-9999.0,0.0,0.424,180.01839,0.0,0.0,0.0,0.0,0.0,389.08878,1.193444,12.0,40.0,0.0,0.0,0.0,0.0,0.0,0.0,0.0,12.876752,282.89813,0.0,0.0,0.0,0.0,0.0
0.0,0.0,0.0,0.0,0.0,0.0,1.0,2.391736E7,2.391736E7,2.3917376E7,2.3917376E7,2.3917424E7,2.3917456E7,63.991837,-22.605425,-9999.0,0.0,0.424,180.01839,0.0,0.0,0.0,0.0,0.0,389.08878,1.193444,12.0,40.0,0.0,0.0,0.0,0.0,0.0,0.0,0.0,12.876752,282.89813,0.0,0.0,0.0,0.0,0.0
0.0,0.0,0.0,0.0,0.0,0.0,1.0,2.391736E7,2.391736E7,2.3917376E7,2.3917376E7,2.3917424E7,2.3917456E7,63.991837,-22.605425,-9999.0,0.0,0.424,180.01839,0.0,0.0,0.0,0.0,0.0,389.08878,1.193444,12.0,40.0,0.0,0.0,0.0,0.0,0.0,0.0,0.0,12.876752,282.89813,0.0,0.0,0.0,0.0,0.0
0.0,0.0,0.0,0.0,0.0,0.0,1.0,2.391736E7,2.391736E7,2.3917376E7,2.3917376E7,2.3917424E7,2.3917456E7,63.991837,-22.605425,-9999.0,0.0,0.424,180.01839,0.0,0.0,0.0,0.0,0.0,389.08878,1.193444,12.0,40.0,0.0,0.0,0.0,0.0,0.0,0.0,0.0,12.876752,282.89813,0.0,0.0,0.0,0.0,0.0
0.0,0.0,0.0,0.0,0.0,0.0,1.0,2.391736E7,2.391736E7,2.3917376E7,2.3917376E7,2.3917424E7,2.3917456E7,63.991837,-22.605425,-9999.0,0.0,0.424,180.01839,0.0,0.0,0.0,0.0,0.0,389.08878,1.193444,12.0,40.0,0.0,0.0,0.0,0.0,0.0,0.0,0.0,12.876752,282.89813,0.0,0.0,0.0,0.0,0.0
0.0,0.0,0.0,0.0,0.0,0.0,1.0,2.391736E7,2.391736E7,2.3917376E7,2.3917376E7,2.3917424E7,2.3917456E7,63.991837,-22.605425,-9999.0,0.0,0.424,180.01839,0.0,0.0,0.0,0.0,0.0,389.08878,1.193444,12.0,40.0,0.0,0.0,0.0,0.0,0.0,0.0,0.0,12.876752,282.89813,0.0,0.0,0.0,0.0,0.0
0.0,0.0,0.0,0.0,0.0,0.0,1.0,2.391736E7,2.391736E7,2.3917376E7,2.3917376E7,2.3917424E7,2.3917456E7,63.991837,-22.605425,-9999.0,0.0,0.424,180.01839,0.0,0.0,0.0,0.0,0.0,389.08878,1.193444,12.0,40.0,0.0,0.0,0.0,0.0,0.0,0.0,0.0,12.876752,282.89813,0.0,0.0,0.0,0.0,0.0
0.0,0.0,0.0,0.0,0.0,0.0,1.0,2.391736E7,2.391736E7,2.3917376E7,2.3917376E7,2.3917424E7,2.3917456E7,63.991837,-22.605425,-9999.0,0.0,0.424,180.01839,0.0,0.0,0.0,0.0,0.0,389.08878,1.193444,12.0,40.0,0.0,0.0,0.0,0.0,0.0,0.0,0.0,12.876752,282.89813,0.0,0.0,0.0,0.0,0.0
0.0,0.0,0.0,0.0,0.0,0.0,1.0,2.391736E7,2.391736E7,2.3917376E7,2.3917376E7,2.3917424E7,2.3917456E7,63.991837,-22.605425,-9999.0,0.0,0.424,180.01839,0.0,0.0,0.0,0.0,0.0,389.08878,1.193444,12.0,40.0,0.0,0.0,0.0,0.0,0.0,0.0,0.0,12.876752,282.89813,0.0,0.0,0.0,0.0,0.0
0.0,0.0,0.0,0.0,0.0,0.0,1.0,2.391736E7,2.391736E7,2.3917376E7,2.3917376E7,2.3917424E7,2.3917456E7,63.991837,-22.605425,-9999.0,0.0,0.424,180.01839,0.0,0.0,0.0,0.0,0.0,389.08878,1.193444,12.0,40.0,0.0,0.0,0.0,0.0,0.0,0.0,0.0,12.876752,282.89813,0.0,0.0,0.0,0.0,0.0
0.0,0.0,0.0,0.0,0.0,0.0,1.0,2.391736E7,2.391736E7,2.3917376E7,2.3917376E7,2.3917424E7,2.3917456E7,63.991837,-22.605425,-9999.0,0.0,0.424,180.01839,0.0,0.0,0.0,0.0,0.0,389.08878,1.193444,12.0,40.0,0.0,0.0,0.0,0.0,0.0,0.0,0.0,12.876752,282.89813,0.0,0.0,0.0,0.0,0.0
0.0,0.0,0.0,0.0,0.0,0.0,0.0,2.391736E7,2.391736E7,2.3917376E7,2.3917376E7,2.3917424E7,2.3917456E7,63.991837,-22.605427,146.2295,0.104764,4.952322,180.01332,0.0,0.0,0.0,0.0,0.0,389.08878,1.193444,12.0,40.0,0.0,0.0,0.0,0.0,0.0,0.0,0.0,12.876752,282.89813,0.0,0.0,0.0,0.0,0.0
0.0,0.0,0.0,0.0,0.0,0.0,0.0,2.391736E7,2.391736E7,2.3917376E7,2.3917376E7,2.3917424E7,2.3917456E7,63.991837,-22.605427,146.2293,0.095675,4.972033,180.01262,89.86234,3.012155,-0.06853,-1.62E-4,0.0,537.1003,149.20493,12.0,40.0,0.0,0.0,140.00014,140.0,146.2293,7.6E-5,-0.018987,12.876752,282.89807,356.65796,-0.006118,-0.504648,3934.4463,0.0
0.0,0.0,0.0,0.0,0.0,0.0,0.0,2.391736E7,2.391736E7,2.3917376E7,2.3917376E7,2.3917424E7,2.3917456E7,63.991837,-22.605427,146.22952,0.095439,4.951444,180.01257,83.88299,2.733588,0.079393,1.9E-5,0.0,510.12122,122.225876,12.0,40.0,0.0,0.0,120.000145,120.0,146.22952,6.2E-5,0.002248,12.876752,282.89807,328.86478,-0.012672,-1.291021,2376.8599,0.0
0.0,0.0,0.0,0.0,0.0,0.0,0.0,2.391736E7,2.391736E7,2.3917376E7,2.3917376E7,2.3917424E7,2.3917456E7,63.991837,-22.605427,146.22954,0.09549,4.951171,180.01257,83.19665,2.707653,0.071738,1.1E-5,4.930111,508.28436,120.38902,12.0,40.0,0.0,0.0,120.000145,120.0,146.22954,6.1E-5,0.001275,12.876752,282.89807,324.8327,-0.013028,-1.350104,2218.2122,0.0
0.0,0.0,0.0,0.0,0.0,0.0,0.0,2.391736E7,2.391736E7,2.3917376E7,2.3917376E7,2.3917424E7,2.3917456E7,63.991837,-22.605427,146.22954,0.096046,4.950891,180.01262,80.99469,2.630186,-0.04457,-5.0E-6,5.929492,500.27985,112.38449,12.0,40.0,0.0,0.0,110.000145,110.0,146.22954,5.7E-5,-3.35E-4,12.876752,282.89807,311.3059,-0.013961,-1.514708,1625.2079,0.0
0.0,0.0,0.0,0.0,0.0,0.0,0.0,2.391736E7,2.391736E7,2.3917376E7,2.3917376E7,2.3917424E7,2.3917456E7,63.991837,-22.605427,146.22954,0.096227,4.950885,180.01263,80.25245,2.605929,-0.072033,-1.0E-5,6.951198,497.93375,110.038414,12.0,40.0,0.0,0.0,110.000145,110.0,146.22954,5.6E-5,-6.04E-4,12.876752,282.89807,306.6056,-0.014229,-1.562859,1418.4,0.0
0.0,0.0,0.0,0.0,0.0,0.0,0.0,2.391736E7,2.391736E7,2.3917376E7,2.3917376E7,2.3917424E7,2.3917456E7,63.991837,-22.605427,146.22954,0.096328,4.950892,180.01265,79.876114,2.593965,-0.080223,-1.2E-5,7.157634,496.6245,108.729164,12.0,40.0,0.0,0.0,110.000145,110.0,146.22954,5.5E-5,-8.05E-4,12.876752,282.89807,304.20486,-0.014395,-1.586045,1302.7518,0.0
0.0,0.0,0.0,0.0,0.0,0.0,0.0,2.391736E7,2.391736E7,2.3917376E7,2.3917376E7,2.3917424E7,2.3917456E7,63.991837,-22.605427,146.2295,0.098413,4.95153,180.01282,74.660934,2.449192,-0.106033,-8.0E-6,0.009693,475.89767,88.00234,12.0,40.0,0.0,0.0,90.000145,90.0,146.2295,4.9E-5,-7.38E-4,12.876752,282.89807,270.66644,-0.015697,-1.840091,-516.01355,0.0
0.0,0.0,0.0,0.0,0.0,0.0,0.0,2.391736E7,2.391736E7,2.3917376E7,2.3917376E7,2.3917424E7,2.3917456E7,63.991837,-22.605427,146.2295,0.098522,4.951565,180.01282,73.805115,2.428851,-0.147088,-1.3E-5,5.603651,474.62698,86.731636,12.0,40.0,0.0,0.0,90.000145,90.0,146.2295,4.8E-5,-7.38E-4,12.876752,282.89807,265.2436,-0.015843,-1.87234,-561.8354,0.0
0.0,0.0,0.0,0.0,0.0,0.0,0.0,2.391736E7,2.391736E7,2.3917376E7,2.3917376E7,2.3917424E7,2.3917456E7,63.991837,-22.605427,146.2295,0.098653,4.951605,180.01283,72.935135,2.409065,-0.14499,-1.6E-5,6.870688,472.37466,84.47932,12.0,40.0,0.0,0.0,90.000145,90.0,146.2295,4.7E-5,-0.001073,12.876752,282.89807,259.7842,-0.015969,-1.903014,-686.1836,0.0
0.0,0.0,0.0,0.0,0.0,0.0,0.0,2.391736E7,2.391736E7,2.3917376E7,2.3917376E7,2.3917424E7,2.3917456E7,63.991837,-22.605427,146.2295,0.09881,4.951655,180.01285,72.05091,2.38984,-0.141575,-1.8E-5,7.26223,469.7452,81.84985,12.0,40.0,0.0,0.0,80.000145,80.0,146.2295,4.6E-5,-0.001141,12.876752,282.89807,254.29984,-0.016088,-1.932189,-804.70404,0.0
0.0,0.0,0.0,0.0,0.0,0.0,0.0,2.391736E7,2.391736E7,2.3917376E7,2.3917376E7,2.3917424E7,2.3917456E7,63.991837,-22.605427,146.22949,0.098924,4.951694,180.01285,71.45354,2.377342,-0.140124,-1.9E-5,7.365658,467.91144,80.016106,12.0,40.0,0.0,0.0,80.000145,80.0,146.22949,4.5E-5,-0.001275,12.876752,282.89807,250.63531,-0.016162,-1.950842,-873.10596,0.0
0.0,0.0,0.0,0.0,0.0,0.0,0.0,2.391736E7,2.391736E7,2.3917376E7,2.3917376E7,2.3917424E7,2.3917456E7,63.991837,-22.605427,146.22949,0.099175,4.951782,180.01288,70.23997,2.353129,-0.136904,-2.0E-5,7.264213,464.07248,76.177124,12.0,40.0,0.0,0.0,80.000145,80.0,146.22949,4.4E-5,-0.001409,12.876752,282.89807,243.30135,-0.016303,-1.98633,-991.8804,0.0
0.0,0.0,0.0,0.0,0.0,0.0,0.2,2.391736E7,2.391736E7,2.3917376E7,2.3917376E7,2.3917424E7,2.3917456E7,63.991837,-22.605427,146.22949,0.099334,4.951841,180.0129,69.46887,2.338541,-0.135186,-2.0E-5,7.472091,461.7141,73.81877,12.0,40.0,0.0,0.0,80.000145,80.0,146.22949,4.3E-5,-0.001409,12.869505,282.89807,238.72363,-0.016402,-2.007336,-1050.2644,0.0
0.0,0.0,0.0,0.0,0.0,0.0,0.2,2.391736E7,2.391736E7,2.3917376E7,2.3917376E7,2.3917424E7,2.3917456E7,63.991837,-22.605427,146.22946,0.101536,4.952736,180.01306,59.601532,2.199909,-0.164099,-6.0E-6,4.458345,118.85742,44.377052,12.0,40.0,0.0,0.0,40.00014,40.0,146.22946,3.5E-5,-4.36E-4,12.869505,282.89084,186.78384,-0.017225,-2.199852,-1203.5826,0.319368
0.0,0.0,0.0,0.0,0.0,0.0,0.2,2.391736E7,2.391736E7,2.3917376E7,2.3917376E7,2.3917424E7,2.3917456E7,63.991837,-22.605427,146.22946,0.101623,4.95274,180.01308,58.188892,2.186609,-0.059828,-3.0E-6,6.474687,115.84965,41.369278,12.0,40.0,0.0,0.0,40.00014,40.0,146.22946,3.5E-5,-2.35E-4,12.869505,282.89084,180.43335,-0.017283,-2.198557,-1218.2482,54.313557
0.0,0.0,0.0,0.0,0.0,0.0,0.2,2.391736E7,2.391736E7,2.3917376E7,2.3917376E7,2.3917424E7,2.3917456E7,63.991837,-22.605427,146.22946,0.101685,4.952618,180.01308,57.117134,2.177534,0.012837,2.0E-6,7.150806,113.45152,38.971153,12.0,40.0,0.0,0.0,40.00014,40.0,146.22946,3.4E-5,8.72E-4,12.869505,282.89084,175.8073,-0.017329,-2.178933,-1235.8861,88.342224
0.0,0.0,0.0,0.0,0.0,0.0,0.2,2.391736E7,2.391736E7,2.3917376E7,2.3917376E7,2.3917424E7,2.3917456E7,63.991837,-22.605427,146.22946,0.101729,4.952277,180.01308,56.035965,2.169242,0.031827,1.1E-5,7.438311,110.77057,36.290203,12.0,40.0,0.0,0.0,40.00014,40.0,146.22946,3.3E-5,0.002214,12.869505,282.89084,171.30617,-0.017374,-2.146098,-1265.5388,120.88936
0.0,0.0,0.0,0.0,0.0,0.0,0.2,2.391736E7,2.391736E7,2.3917376E7,2.3917376E7,2.3917424E7,2.3917456E7,63.991837,-22.605427,146.22946,0.101745,4.951783,180.01308,55.128567,2.162931,0.037405,1.9E-5,7.53024,108.4569,33.976536,12.0,40.0,0.0,0.0,40.00014,40.0,146.22946,3.3E-5,0.003489,12.869505,282.89084,167.6553,-0.017404,-2.110281,-1291.7057,146.82642
0.0,0.0,0.0,0.0,0.0,0.0,0.2,2.391736E7,2.391736E7,2.3917376E7,2.3917376E7,2.3917424E7,2.3917456E7,63.991837,-22.605427,146.22948,0.10173,4.950828,180.01308,53.941273,2.155543,0.040853,3.0E-5,7.56184,105.399216,30.918852,11.997131,39.990437,0.0,0.0,30.000143,30.0,146.22948,3.2E-5,0.0053,12.869505,282.89084,163.05133,-0.017447,-2.054312,-1324.6833,178.8887
0.0,0.0,0.0,0.0,0.0,0.0,0.2,2.391736E7,2.391736E7,2.3917376E7,2.3917376E7,2.3917424E7,2.3917456E7,63.991837,-22.605427,146.22948,0.101677,4.949639,180.01308,52.83858,2.149545,0.042531,4.0E-5,7.591657,102.57874,28.098377,11.913843,39.71281,0.0,0.0,30.000143,30.0,146.22948,3.1E-5,0.00691,12.869505,282.89084,158.94989,-0.017488,-1.995105,-1351.9612,206.80414
0.0,0.0,0.0,0.0,0.0,0.0,0.2,2.391736E7,2.391736E7,2.3917376E7,2.3917376E7,2.3917424E7,2.3917456E7,63.991837,-22.605427,146.22949,0.10158,4.948044,180.01306,51.637814,2.143943,0.043776,5.0E-5,7.594712,99.49532,25.014957,11.731629,39.10543,0.0,0.0,30.000143,30.0,146.22949,3.1E-5,0.00842,12.869505,282.89084,154.67377,-0.017532,-1.924792,-1379.8452,235.2342
0.0,0.0,0.0,0.0,0.0,0.0,0.2,2.391736E7,2.391736E7,2.3917376E7,2.3917376E7,2.3917424E7,2.3917456E7,63.991837,-22.605427,146.2295,0.101469,4.946478,180.01305,50.61754,2.139933,0.044596,5.7E-5,7.594133,96.91729,22.436918,11.551655,38.505516,0.0,0.0,30.000143,30.0,146.2295,3.0E-5,0.009527,12.869505,282.89084,151.1957,-0.017548,-1.861655,-1399.904,257.84735
0.0,0.0,0.0,0.0,0.0,0.0,0.2,2.391736E7,2.391736E7,2.3917376E7,2.3917376E7,2.3917424E7,2.3917456E7,63.991837,-22.605427,146.22952,0.101321,4.944582,180.01303,49.500862,2.136327,0.045203,6.4E-5,7.624572,94.08254,19.602173,11.33835,37.794502,0.0,0.0,20.000143,20.0,146.22952,2.9E-5,0.0105,12.869505,282.89084,147.55234,-0.017571,-1.790243,-1420.9094,281.0407
0.0,0.0,0.0,0.0,0.0,0.0,0.2,2.391736E7,2.391736E7,2.3917376E7,2.3917376E7,2.3917424E7,2.3917456E7,63.991837,-22.605427,146.22955,0.10115,4.942531,180.01302,48.381153,2.133524,0.045826,6.9E-5,7.631343,91.24784,16.76747,11.109128,37.03043,0.0,0.0,20.000143,20.0,146.22955,2.9E-5,0.011372,12.869505,282.89084,144.0704,-0.017587,-1.717315,-1440.0985,302.7374
0.0,0.0,0.0,0.0,0.0,0.0,0.2,2.391736E7,2.391736E7,2.3917376E7,2.3917376E7,2.3917424E7,2.3917456E7,63.991837,-22.605427,146.22957,0.100994,4.94073,180.013,47.44634,2.131805,0.046258,7.2E-5,7.636942,88.88559,14.40522,10.907283,36.35761,0.0,0.0,20.000143,20.0,146.22957,2.8E-5,0.011875,12.869505,282.89084,141.29478,-0.017598,-1.656118,-1454.8473,319.71185
0.0,0.0,0.0,0.0,0.0,0.0,0.2,2.391736E7,2.391736E7,2.3917376E7,2.3917376E7,2.3917424E7,2.3917456E7,63.991837,-22.605427,146.22958,0.100742,4.937924,180.01299,46.04227,2.13028,0.046921,7.6E-5,7.460443,85.18669,10.706326,10.590178,35.300594,1.0E-6,0.0,10.000142,10.0,146.22958,2.8E-5,0.012412,12.869505,282.89084,137.35056,-0.017603,-1.564762,-1481.2311,343.36423
0.0,0.0,0.0,0.0,0.0,0.0,0.2,2.391736E7,2.391736E7,2.3917376E7,2.3917376E7,2.3917424E7,2.3917456E7,63.991837,-22.605427,146.22961,0.100527,4.935626,180.01297,44.918335,2.129974,0.047393,7.8E-5,7.517551,82.43755,7.957185,10.323251,34.41083,2.0E-6,0.0,10.000142,10.0,146.22961,2.7E-5,0.012512,12.869505,282.8908,134.38791,-0.017601,-1.492895,-1491.8994,360.79492
0.0,0.0,0.0,0.0,0.0,0.0,0.2,2.391736E7,2.391736E7,2.3917376E7,2.3917376E7,2.3917424E7,2.3917456E7,63.991837,-22.605427,146.22963,0.100323,4.933504,180.01295,43.88833,2.130407,0.047867,7.9E-5,7.60117,79.89003,5.409665,10.070441,33.56812,6.0E-6,0.0,10.000142,10.0,146.22963,2.7E-5,0.01268,12.869505,282.89075,131.82497,-0.017596,-1.428518,-1502.1232,375.6677
0.0,0.0,0.0,0.0,0.0,0.0,0.2,2.391736E7,2.391736E7,2.3917376E7,2.3917376E7,2.3917424E7,2.3917456E7,63.991837,-22.605427,146.22964,0.100098,4.9312,180.01292,42.765743,2.131657,0.048486,7.9E-5,7.612916,77.02278,2.542415,9.787727,32.62571,1.5E-5,0.0,10.000142,10.0,146.22964,2.6E-5,0.012512,12.869505,282.89062,129.19771,-0.017587,-1.360354,-1516.0198,390.7475
0.0,0.0,0.0,0.0,0.0,0.0,0.2,2.391736E7,2.391736E7,2.3917376E7,2.3917376E7,2.3917424E7,2.3917456E7,63.991837,-22.605427,146.22968,0.099854,4.92874,180.01291,41.551735,2.133928,0.049023,7.8E-5,7.696859,73.98577,-0.494595,9.474215,31.580593,3.7E-5,1.0E-6,1.42E-4,0.0,146.22968,2.6E-5,0.012445,12.869505,282.89026,126.55205,-0.01757,-1.289327,-1528.1277,405.81033
0.0,0.0,0.0,0.0,0.0,0.0,0.2,2.391736E7,2.391736E7,2.3917376E7,2.3917376E7,2.3917424E7,2.3917456E7,63.991837,-22.605427,146.22969,0.099633,4.926524,180.0129,40.43397,2.136867,0.049865,7.7E-5,7.607538,71.27951,-3.200857,9.179886,30.599348,8.2E-5,2.0E-6,1.42E-4,0.0,146.22969,2.5E-5,0.01211,12.869505,282.8896,124.296425,-0.017552,-1.226609,-1538.8568,418.60876
0.0,0.0,0.0,0.0,0.0,0.0,0.2,2.391736E7,2.391736E7,2.3917376E7,2.3917376E7,2.3917424E7,2.3917456E7,63.991837,-22.605427,146.2297,0.099416,4.924375,180.01286,39.319775,2.140614,0.050598,7.6E-5,7.626055,68.52106,-5.959308,8.882026,29.606192,1.69E-4,3.0E-6,1.42E-4,0.0,146.2297,2.5E-5,0.011741,12.869505,282.88824,122.22082,-0.017531,-1.16674,-1551.045,430.41193
0.0,0.0,0.0,0.0,0.0,0.0,0.2,2.391736E7,2.391736E7,2.3917376E7,2.3917376E7,2.3917424E7,2.3917456E7,63.991837,-22.605427,146.22972,0.099241,4.922645,180.01285,38.394558,2.144351,0.051075,7.4E-5,7.515926,66.212166,-8.268201,8.632061,28.772552,2.97E-4,6.0E-6,-9.999858,-10.0,146.22972,2.4E-5,0.011472,12.869505,282.88632,120.62907,-0.017516,-1.11904,-1560.8156,439.5329
0.0,0.0,0.0,0.0,0.0,0.0,0.2,2.391736E7,2.391736E7,2.3917376E7,2.3917376E7,2.3917424E7,2.3917456E7,63.991837,-22.605427,146.22975,0.099004,4.920323,180.01283,37.10506,2.150513,0.058228,8.0E-5,7.532795,63.10307,-11.377297,8.279892,27.59759,6.19E-4,1.2E-5,-9.999858,-10.0,146.22975,2.4E-5,0.012781,12.869505,282.8814,118.61147,-0.017489,-1.05551,-1568.4911,451.28217
0.0,0.0,0.0,0.0,0.0,0.0,0.2,2.391736E7,2.391736E7,2.3917376E7,2.3917376E7,2.3917424E7,2.3917456E7,63.991837,-22.605427,146.22977,0.098823,4.918585,180.01282,36.097656,2.156117,0.052934,6.9E-5,7.611316,60.684937,-13.795431,8.002423,26.671238,0.001059,2.1E-5,-9.999858,-10.0,146.22977,2.3E-5,0.010533,12.869505,282.8747,117.198654,-0.017471,-1.008135,-1573.1055,459.73334
0.0,0.0,0.0,0.0,0.0,0.0,0.2,2.391736E7,2.391736E7,2.3917376E7,2.3917376E7,2.3917424E7,2.3917456E7,63.991837,-22.605427,146.22978,0.098639,4.916785,180.0128,35.004887,2.162984,0.054361,6.7E-5,7.681813,58.01922,-16.46115,7.70008,25.660849,0.001837,3.7E-5,-9.999858,-10.0,146.22978,2.3E-5,0.009929,12.869505,282.86282,115.829956,-0.017445,-0.958875,-1578.9706,468.22498
0.0,0.0,0.0,0.0,0.0,0.0,0.2,2.391736E7,2.391736E7,2.3917376E7,2.3917376E7,2.3917424E7,2.3917456E7,63.991837,-22.605427,146.2298,0.098453,4.91495,180.01279,33.829277,2.171304,0.055995,6.5E-5,7.696159,55.093414,-19.386955,7.374152,24.569853,0.003216,6.5E-5,-19.999857,-20.0,146.2298,2.2E-5,0.009426,12.869505,282.8418,114.549416,-0.017409,-0.908222,-1586.3777,476.62756
0.0,0.0,0.0,0.0,0.0,0.0,0.2,2.391736E7,2.391736E7,2.3917376E7,2.3917376E7,2.3917424E7,2.3917456E7,63.991837,-22.605427,146.22981,0.098298,4.913467,180.01277,32.83943,2.179136,0.066608,8.7E-5,7.681616,52.636803,-21.843567,7.098255,23.644184,0.00503,1.01E-4,-19.999857,-20.0,146.22981,2.2E-5,0.011305,12.869505,282.8141,113.629036,-0.017401,-0.867458,-1591.4353,511.06665
0.0,0.0,0.0,0.0,0.0,0.0,0.2,2.391736E7,2.391736E7,2.3917376E7,2.3917376E7,2.3917424E7,2.3917456E7,63.991837,-22.605427,146.22984,0.097887,4.910782,180.01273,31.75393,2.189022,0.063302,1.79E-4,7.734931,49.8827,-24.597666,6.773005,22.549992,0.008056,1.61E-4,-19.999857,-20.0,146.22984,2.1E-5,0.023482,12.869505,282.76785,112.7941,-0.017481,-0.825082,-1599.6064,581.0342
0.0,0.0,0.0,0.0,0.0,0.0,0.2,2.391736E7,2.391736E7,2.3917376E7,2.3917376E7,2.3917424E7,2.3917456E7,63.991837,-22.605427,146.2299,0.097066,4.905612,180.01266,30.675837,2.199882,0.056548,2.67E-4,7.718185,47.213116,-27.267252,6.419828,21.356874,0.012843,2.56E-4,-19.999857,-20.0,146.2299,4.0E-5,0.037973,12.869505,282.6947,112.13383,-0.017547,-0.784793,-1603.7872,644.6984
0.0,0.0,0.0,0.0,0.0,0.0,0.2,2.391736E7,2.391736E7,2.3917376E7,2.3917376E7,2.3917424E7,2.3917456E7,63.991837,-22.605427,146.22997,0.095909,4.897921,180.01256,29.611614,2.211398,0.052887,3.35E-4,7.746685,44.522495,-29.957874,6.048053,20.09233,0.020476,4.07E-4,-29.999857,-30.0,146.22997,1.1E-4,0.050083,12.869505,282.57782,111.64607,-0.017563,-0.746486,-1608.5264,701.62885
0.0,0.0,0.0,0.0,0.0,0.0,0.2,2.391736E7,2.391736E7,2.3917376E7,2.3917376E7,2.3917424E7,2.3917456E7,63.991837,-22.605427,146.23007,0.094519,4.888247,180.01245,28.56304,2.223448,0.05071,3.8E-4,7.762296,41.824467,-32.6559,5.666148,18.779041,0.032629,6.43E-4,-29.999857,-30.0,146.23007,1.97E-4,0.05867,12.869505,282.39133,111.328384,-0.017529,-0.710059,-1613.2362,751.72235
0.0,0.0,0.0,0.0,0.0,0.0,0.2,2.391736E7,2.391736E7,2.3917376E7,2.3917376E7,2.3917424E7,2.3917456E7,63.991837,-22.605427,146.23016,0.09299,4.877284,180.01231,27.527916,2.236176,0.047436,4.02E-4,7.773227,39.123837,-35.356533,5.28288,17.437925,0.051806,0.001011,-29.999857,-30.0,146.23016,2.94E-4,0.063065,12.869505,282.09625,111.17802,-0.01745,-0.675417,-1617.727,795.1076
0.0,0.0,0.0,0.0,0.0,0.0,0.2,2.391736E7,2.391736E7,2.3917376E7,2.3917376E7,2.3917424E7,2.3917456E7,63.991837,-22.605427,146.23026,0.09167,4.868602,180.01216,26.64559,2.249648,0.030151,4.11E-4,7.781604,36.87257,-37.6078,4.9696,16.31433,0.07574,0.001463,-39.99986,-40.0,146.23026,4.0E-4,0.056389,12.869505,281.72696,111.17837,-0.017349,-0.647854,-1621.2634,826.3427
0.0,0.0,0.0,0.0,0.0,0.0,0.2,2.391736E7,2.391736E7,2.3917376E7,2.3917376E7,2.3917424E7,2.3917456E7,63.991837,-22.605427,146.23035,0.089829,4.859678,180.01193,25.374931,2.273929,0.016151,4.74E-4,7.673026,33.581425,-40.898945,4.560946,14.782156,0.127025,0.002418,-39.99986,-40.0,146.23035,6.81E-4,0.047231,12.869505,280.9332,111.36696,-0.017238,-0.611152,-1631.241,863.0132
0.0,0.0,0.0,0.0,0.0,0.0,0.2,2.391736E7,2.391736E7,2.3917376E7,2.3917376E7,2.3917424E7,2.3917456E7,63.991837,-22.605427,146.23042,0.088291,4.854695,180.01172,24.265919,2.299254,0.011359,5.64E-4,7.718202,30.969421,-43.510944,4.248194,13.517239,0.194116,0.003646,-39.99986,-40.0,146.23042,0.00113,0.044749,12.869505,279.8912,111.699455,-0.016993,-0.581359,-1631.002,888.3925
0.0,0.0,0.0,0.0,0.0,0.0,0.2,2.391736E7,2.391736E7,2.3917376E7,2.3917376E7,2.3917424E7,2.3917456E7,63.991837,-22.605427,146.2305,0.086865,4.851493,180.01144,23.152653,2.328246,0.009388,7.04E-4,7.787441,28.29901,-46.18136,3.979599,12.302113,0.290579,0.005381,-39.99986,-40.0,146.2305,0.001838,0.044414,12.869505,278.38742,112.1857,-0.01669,-0.55303,-1633.0886,908.70416
0.0,0.0,0.0,0.0,0.0,0.0,0.2,2.391736E7,2.391736E7,2.3917376E7,2.3917376E7,2.3917424E7,2.3917456E7,63.991837,-22.605427,146.23056,0.085554,4.849518,180.01111,22.044024,2.360372,0.008376,8.77E-4,7.821052,25.608027,-48.87234,3.764984,11.139721,0.425398,0.007768,-49.99986,-50.0,146.23056,0.002855,0.046963,12.869505,276.27576,112.82167,-0.016286,-0.526089,-1635.8474,924.4549
0.0,0.0,0.0,0.0,0.0,0.0,0.2,2.391736E7,2.391736E7,2.3917376E7,2.3917376E7,2.3917424E7,2.3917456E7,63.991837,-22.605427,146.23065,0.084338,4.848297,180.01071,20.863796,2.398221,0.007963,0.001117,7.894813,22.660793,-51.819576,3.605509,9.942651,0.626093,0.011265,-49.99986,-50.0,146.23065,0.004349,0.046527,12.869505,273.1114,113.67469,-0.015953,-0.498386,-1639.9121,936.9521
0.0,0.0,0.0,0.0,0.0,0.0,0.2,2.391736E7,2.391736E7,2.3917376E7,2.3917376E7,2.3917424E7,2.3917456E7,63.991837,-22.605427,146.23073,0.083373,4.84772,180.01025,19.793335,2.435333,0.007663,0.001346,7.846769,19.975437,-54.504932,3.536355,8.896896,0.871933,0.015487,-49.99986,-50.0,146.23073,0.006118,0.050183,12.869505,269.2004,114.60878,-0.015244,-0.47413,-1641.9907,944.79034
0.0,0.0,0.0,0.0,0.0,0.0,0.2,2.391736E7,2.391736E7,2.3917376E7,2.3917376E7,2.3917424E7,2.3917456E7,63.991837,-22.605427,146.23082,0.082625,4.847469,180.00975,18.832312,2.47079,0.007335,0.001536,7.860326,17.511606,-56.96876,3.545602,7.989425,1.154861,0.020287,-49.99986,-50.0,146.23082,0.008081,0.067325,12.869505,264.64908,115.58465,-0.014605,-0.45294,-1643.8557,949.25824
0.0,0.0,0.0,0.0,0.0,0.0,1.0,2.391736E7,2.391736E7,2.3917376E7,2.3917376E7,2.3917424E7,2.3917456E7,63.991837,-22.605427,146.23093,0.08211,4.847269,180.00925,17.838434,2.507959,0.007006,0.001696,7.8462,14.770943,-59.709427,3.638691,7.059641,1.528768,0.026566,-59.99986,-60.0,146.23093,0.010583,0.069036,12.869505,258.54395,116.77525,-0.013827,-0.430898,-1647.7908,907.9228
0.0,0.0,0.0,0.0,0.0,0.0,1.0,2.391736E7,2.391736E7,2.3917376E7,2.3917376E7,2.3917424E7,2.3917456E7,63.991837,-22.605427,146.23103,0.082226,4.84668,180.0088,16.912683,2.540292,0.006752,0.001788,7.884425,12.091065,-62.3893,3.814629,6.198535,1.965231,0.033875,-59.99986,-60.0,146.23103,0.013359,0.06917,12.869505,251.26967,118.0925,-0.01309,-0.409906,-1649.127,867.3612
0.0,0.03,0.0,0.0,0.0,0.0,1.0,2.391736E7,2.391736E7,2.3917376E7,2.3917376E7,2.3917424E7,2.3917456E7,63.991837,-22.605427,146.23116,0.082859,4.845031,180.00844,16.040264,2.568305,0.006629,0.001848,7.903738,9.345922,-65.134445,4.056891,5.403804,2.448363,0.042041,-59.99986,-60.0,146.23116,0.016295,0.082085,12.869505,242.99619,119.53125,-0.012523,-0.389917,-1652.9381,829.6366
0.0,0.03,0.0,0.0,0.0,0.0,1.0,2.391736E7,2.391736E7,2.3917376E7,2.3917376E7,2.3917424E7,2.3917456E7,63.991837,-22.605427,146.23128,0.083816,4.842749,180.00813,15.211856,2.592461,0.006622,0.001888,7.89559,6.679391,-67.80098,4.338938,4.675346,2.951553,0.050729,-69.999855,-70.0,146.23128,0.019292,0.076583,12.869505,234.0681,121.08624,-0.012119,-0.370889,-1653.4095,794.4248
0.0,0.05,0.0,0.0,0.0,0.0,1.0,2.391736E7,2.391736E7,2.3917376E7,2.3917376E7,2.3917424E7,2.3917456E7,63.991837,-22.605427,146.23141,0.084951,4.840253,180.00787,14.420185,2.613163,0.00656,0.001866,7.927242,3.989728,-70.49064,4.628085,4.022663,3.439117,0.059436,-69.999855,-70.0,146.23141,0.022262,0.079367,12.869505,225.01608,122.75208,-0.011838,-0.352777,-1654.75,761.44226
0.0,0.03,0.0,0.0,0.0,0.0,1.0,2.391736E7,2.391736E7,2.3917376E7,2.3917376E7,2.3917424E7,2.3917456E7,63.991837,-22.605427,146.23154,0.08618,4.83815,180.00766,13.659594,2.630765,0.006502,0.001805,7.943852,1.291911,-73.18845,4.885806,3.441798,3.87354,0.067579,-69.999855,-70.0,146.23154,0.025127,0.073799,12.869505,216.47702,124.523285,-0.011661,-0.33554,-1656.3173,730.4409
0.0,0.07,0.0,0.0,0.0,0.0,1.0,2.391736E7,2.391736E7,2.3917376E7,2.3917376E7,2.3917424E7,2.3917456E7,63.991837,-22.605427,146.23164,0.087441,4.835977,180.00749,12.924758,2.645572,0.006535,0.001732,7.954357,-1.40879,-75.88916,5.081703,2.925934,4.226323,0.074666,-69.999855,-70.0,146.23164,0.027821,0.072457,12.869505,209.03581,126.39423,-0.011586,-0.31914,-1657.8904,701.2025
0.0,0.05,0.0,0.0,0.0,0.0,1.0,2.391736E7,2.391736E7,2.3917376E7,2.3917376E7,2.3917424E7,2.3917456E7,63.991837,-22.605427,146.23177,0.088802,4.833798,180.00735,12.154523,2.658785,0.00648,0.001592,8.012878,-4.359683,-78.84005,5.20759,2.433325,4.50184,0.080826,-79.999855,-80.0,146.23177,0.030477,0.058133,12.869505,202.67058,128.52708,-0.011693,-0.30227,-1660.4773,671.29333
0.0,0.03,0.0,0.0,0.0,0.0,1.0,2.391736E7,2.391736E7,2.3917376E7,2.3917376E7,2.3917424E7,2.3917456E7,63.991837,-22.605427,146.23184,0.089911,4.832758,180.00722,11.516822,2.667846,0.006457,0.001453,7.958872,-6.818082,-81.29845,5.247596,2.065884,4.653266,0.084783,-79.999855,-80.0,146.23184,0.032462,0.0528,12.869505,198.77754,130.41263,-0.011671,-0.288692,-1661.0017,647.2631
0.0,0.08,0.0,0.0,0.0,0.0,1.0,2.391736E7,2.391736E7,2.3917376E7,2.3917376E7,2.3917424E7,2.3917456E7,63.991837,-22.605427,146.23193,0.091083,4.831371,180.00714,10.837174,2.67576,0.006511,0.001292,7.9702,-9.516808,-83.99718,5.237637,1.712074,4.750405,0.087968,-79.999855,-80.0,146.23193,0.03431,0.050183,12.869505,195.95757,132.54848,-0.011812,-0.27457,-1662.1794,622.23724
0.0,0.07,0.0,0.0,0.0,0.0,1.0,2.391736E7,2.391736E7,2.3917376E7,2.3917376E7,2.3917424E7,2.3917456E7,63.991837,-22.605427,146.23201,0.092198,4.829769,180.00706,10.170211,2.681779,0.006304,0.001059,7.97675,-12.217891,-86.69826,5.192477,1.403527,4.7985,0.090269,-79.999855,-80.0,146.23201,0.035786,0.044179,12.869505,194.31418,134.76099,-0.011994,-0.261135,-1663.3674,598.3183
0.0,0.09,0.0,0.0,0.0,0.0,1.0,2.391736E7,2.391736E7,2.3917376E7,2.3917376E7,2.3917424E7,2.3917456E7,63.991837,-22.605427,146.23207,0.09325,4.828297,180.00703,9.513796,2.686068,0.006377,8.54E-4,7.981142,-14.919823,-89.40019,5.206936,1.389492,4.817659,0.091904,-89.999855,-90.0,146.23207,0.036854,0.032069,12.869505,193.50665,137.04422,-0.012219,-0.248354,-1664.5066,575.3817
0.0,0.03,0.0,0.0,0.0,0.0,1.0,2.391736E7,2.391736E7,2.3917376E7,2.3917376E7,2.3917424E7,2.3917456E7,63.991837,-22.605427,146.23212,0.094244,4.827627,180.00705,8.866258,2.688776,0.005939,5.74E-4,7.984361,-17.622074,-92.10244,5.215999,1.399754,4.824016,0.093144,-89.999855,-90.0,146.23212,0.03748,0.017879,12.869505,193.15353,139.39229,-0.012649,-0.236191,-1665.5792,553.3142
0.0,0.07,0.0,0.0,0.0,0.0,1.0,2.391736E7,2.391736E7,2.3917376E7,2.3917376E7,2.3917424E7,2.3917456E7,63.991837,-22.605427,146.23215,0.095175,4.827219,180.00706,8.31527,2.661091,0.005492,3.09E-4,7.978378,-20.324461,-94.80483,5.220859,1.409861,4.82616,0.094199,-89.999855,-90.0,146.23215,0.037637,0.009393,12.869505,192.99878,141.79922,-0.013126,-0.224622,-1666.5825,532.0149
0.0,0.1,0.0,0.0,0.0,0.0,1.0,2.391736E7,2.391736E7,2.3917376E7,2.3917376E7,2.3917424E7,2.3917456E7,63.991837,-22.605427,146.23215,0.096062,4.826227,180.00711,7.758584,2.631676,0.001347,1.7E-5,7.970474,-23.026915,-97.507286,5.223887,1.419901,4.826463,0.095156,-99.999855,-100.0,146.23215,0.0373,1.34E-4,12.869505,192.93071,144.25912,-0.013525,-0.213617,-1667.5184,511.3904
0.0,0.03,0.0,0.0,0.0,0.0,1.0,2.391736E7,2.391736E7,2.3917376E7,2.3917376E7,2.3917424E7,2.3917456E7,63.991837,-22.605427,146.23212,0.096918,4.830204,180.00717,7.153944,2.615284,-0.034308,-2.95E-4,7.965666,-25.729418,-100.209785,5.227256,1.429916,4.827097,0.096056,-99.999855,-100.0,146.23212,0.036614,-0.055249,12.869505,192.90068,146.76607,-0.013859,-0.203145,-1668.3904,491.35007
0.0,0.1,0.0,0.0,0.0,0.0,1.0,2.391736E7,2.391736E7,2.3917376E7,2.3917376E7,2.3917424E7,2.3917456E7,63.991837,-22.605427,146.232,0.097726,4.845041,180.00725,6.514318,2.610111,-0.031599,-3.63E-4,7.965142,-28.432,-102.91237,5.23747,1.439914,4.834568,0.096907,-99.999855,-100.0,146.232,0.036024,-0.076214,12.869505,192.8874,149.3142,-0.014173,-0.193185,-1669.2036,471.80588
0.0,0.1,0.0,0.0,0.0,0.0,1.0,2.391736E7,2.391736E7,2.3917376E7,2.3917376E7,2.3917424E7,2.3917456E7,63.991837,-22.605427,146.23187,0.098487,4.860941,180.00732,5.867182,2.607489,-0.031641,-3.36E-4,7.965507,-31.134642,-105.61501,5.252909,1.449895,4.847254,0.097711,-99.999855,-100.0,146.23187,0.035453,-0.071183,12.869505,192.88153,151.89766,-0.014471,-0.183714,-1669.9614,452.67603
0.0,0.1,0.0,0.0,0.0,0.0,1.0,2.391736E7,2.391736E7,2.3917376E7,2.3917376E7,2.3917424E7,2.3917456E7,63.991837,-22.605427,146.23177,0.099203,4.874799,180.0074,5.21774,2.605743,-0.032143,-2.83E-4,7.966052,-33.837315,-108.31768,5.269588,1.459861,4.86117,0.098468,-109.999855,-110.0,146.23177,0.034876,-0.059677,12.869505,192.87895,154.51062,-0.014751,-0.174707,-1670.6658,433.88184
0.0,0.1,0.0,0.0,0.0,0.0,1.0,2.391736E7,2.391736E7,2.3917376E7,2.3917376E7,2.3917424E7,2.3917456E7,63.991837,-22.605427,146.23167,0.099878,4.886077,180.00746,4.567583,2.6043,-0.03292,-2.32E-4,7.966568,-36.539993,-111.02036,5.285207,1.469815,4.874017,0.099182,-109.999855,-110.0,146.23167,0.034286,-0.048338,12.869505,192.87782,157.14731,-0.015015,-0.166142,-1671.3196,415.3465
0.0,0.1,0.0,0.0,0.0,0.0,1.0,2.391736E7,2.391736E7,2.3917376E7,2.3917376E7,2.3917424E7,2.3917456E7,63.991837,-22.605427,146.2316,0.100518,4.895082,180.00752,3.917127,2.602999,-0.033905,-1.91E-4,7.967,-39.242672,-113.72304,5.298942,1.47976,4.88497,0.099856,-109.999855,-110.0,146.2316,0.033687,-0.039114,12.869505,192.87737,159.80202,-0.015262,-0.157998,-1671.9255,397.0092
0.0,0.1,0.0,0.0,0.0,0.0,1.0,2.391736E7,2.391736E7,2.3917376E7,2.3917376E7,2.3917424E7,2.3917456E7,63.991837,-22.605427,146.23154,0.101128,4.902308,180.00757,3.266364,2.60183,-0.035037,-1.6E-4,7.967348,-41.945354,-116.42572,5.310757,1.489702,4.893995,0.100495,-109.999855,-110.0,146.23154,0.033085,-0.032002,12.869505,192.87718,162.46912,-0.015495,-0.150253,-1672.4867,378.79605
0.0,0.1,0.0,0.0,0.0,0.0,1.0,2.391736E7,2.391736E7,2.3917376E7,2.3917376E7,2.3917424E7,2.3917456E7,63.991837,-22.605427,146.23149,0.101712,4.908207,180.00763,2.61526,2.600829,-0.036237,-1.37E-4,7.967622,-44.648037,-119.12841,5.320931,1.499645,4.90137,0.101105,-119.999855,-120.0,146.23149,0.032466,-0.026836,12.869505,192.87712,165.14308,-0.015716,-0.142887,-1673.0061,360.62057
0.0,0.1,0.0,0.0,0.0,0.0,1.0,2.391736E7,2.391736E7,2.3917376E7,2.3917376E7,2.3917424E7,2.3917456E7,63.991837,-22.605427,146.23146,0.102271,4.913135,180.00768,1.963824,2.600037,-0.037421,-1.2E-4,7.967836,-47.35073,-121.8311,5.329812,1.509592,4.90744,0.101688,-119.999855,-120.0,146.23146,0.031822,-0.023012,12.869505,192.87712,167.81847,-0.015924,-0.135883,-1673.4865,342.38947
0.0,0.1,0.0,0.0,0.0,0.0,1.0,2.391736E7,2.391736E7,2.3917376E7,2.3917376E7,2.3917424E7,2.3917456E7,63.991837,-22.605427,146.23141,0.102807,4.917356,180.00772,1.312113,2.59949,-0.038509,-1.07E-4,7.968,-50.05343,-124.5338,5.337711,1.519546,4.912521,0.102245,-119.999855,-120.0,146.23141,0.031192,-0.020194,12.869505,192.87715,170.48994,-0.01612,-0.129222,-1673.9303,323.9992
0.0,0.1,0.0,0.0,0.0,0.0,1.0,2.391736E7,2.391736E7,2.3917376E7,2.3917376E7,2.3917424E7,2.3917456E7,63.991837,-22.605427,146.23138,0.103322,4.921058,180.00777,0.660219,2.599215,-0.039432,-9.8E-5,7.968123,-52.756138,-127.2365,5.344881,1.529508,4.916862,0.10278,-119.999855,-120.0,146.23138,0.030573,-0.018047,12.869505,192.87718,173.1523,-0.016306,-0.122887,-1674.3401,305.33078
0.0,0.1,0.0,0.0,0.0,0.0,1.0,2.391736E7,2.391736E7,2.3917376E7,2.3917376E7,2.3917424E7,2.3917456E7,63.991837,-22.605427,146.23135,0.103817,4.924373,180.00781,0.008261,2.599231,-0.040172,-9.0E-5,7.96821,-55.45886,-129.93922,5.35151,1.539481,4.920654,0.103294,-129.99986,-130.0,146.23135,0.029968,-0.016538,12.869505,192.87723,175.80042,-0.016483,-0.116862,-1674.7178,286.24252
0.0,0.1,0.0,0.0,0.0,0.0,1.0,2.391736E7,2.391736E7,2.3917376E7,2.3917376E7,2.3917424E7,2.3917456E7,63.991837,-22.605427,146.23132,0.104295,4.927396,180.00784,-0.643623,2.599548,-0.04066,-8.4E-5,7.968266,-58.16159,-132.64197,5.357737,1.549465,4.924033,0.103788,-129.99986,-130.0,146.23132,0.029374,-0.015297,12.869505,192.87727,178.42935,-0.01665,-0.111133,-1675.0657,266.55887
0.0,0.1,0.0,0.0,0.0,0.0,1.0,2.391736E7,2.391736E7,2.3917376E7,2.3917376E7,2.3917424E7,2.3917456E7,63.991837,-22.605427,146.23131,0.10468,4.929748,180.00789,-1.186698,2.60005,-0.040912,-8.0E-5,7.968289,-60.41388,-134.89424,5.362694,1.557795,4.926611,0.104186,-129.99986,-130.0,146.23131,0.028888,-0.014491,12.869505,192.8773,180.60197,-0.016808,-0.106574,-1675.3342,249.53894
0.0,0.1,0.0,0.0,0.0,0.0,1.0,2.391736E7,2.391736E7,2.3917376E7,2.3917376E7,2.3917424E7,2.3917456E7,63.991837,-22.605427,146.23128,0.105203,4.932842,180.00792,-1.946572,2.601125,-0.041069,-7.5E-5,7.878518,-63.628292,-138.10866,5.36937,1.569475,4.929945,0.104725,-139.99986,-140.0,146.23128,0.028221,-0.013619,12.869505,192.87735,183.61046,-0.016957,-0.100503,-1677.906,224.41107
0.0,0.1,0.0,0.0,0.0,0.0,1.0,2.391736E7,2.391736E7,2.3917376E7,2.3917376E7,2.3917424E7,2.3917456E7,63.991837,-22.605427,146.23126,0.105636,4.935344,180.00797,-2.59733,2.6024,-0.041057,-7.2E-5,7.930367,-66.29141,-140.77179,5.374904,1.579505,4.932604,0.105171,-139.99986,-140.0,146.23126,0.027662,-0.013015,12.869505,192.87738,186.15343,-0.0171,-0.095575,-1676.5043,201.18216
0.0,0.1,0.0,0.0,0.0,0.0,1.0,2.391736E7,2.391736E7,2.3917376E7,2.3917376E7,2.3917424E7,2.3917456E7,63.991837,-22.605427,146.23125,0.106057,4.937733,180.008,-3.247386,2.604001,-0.040933,-6.9E-5,7.954853,-68.98025,-143.46062,5.380303,1.589552,4.935118,0.105603,-139.99986,-140.0,146.23125,0.027114,-0.012378,12.869505,192.87743,188.65877,-0.017237,-0.090888,-1676.1763,175.64441
0.0,0.1,0.0,0.0,0.0,0.0,1.0,2.391736E7,2.391736E7,2.3917376E7,2.3917376E7,2.3917424E7,2.3917456E7,63.991837,-22.605427,146.23122,0.106467,4.940024,180.00803,-3.896584,2.605931,-0.040739,-6.6E-5,7.963439,-71.67814,-146.15851,5.385592,1.599618,4.937514,0.106023,-139.99986,-140.0,146.23122,0.026576,-0.011875,12.869505,192.87746,191.12228,-0.017366,-0.08643,-1676.2123,146.50044
0.0,0.1,0.0,0.0,0.0,0.0,1.0,2.391736E7,2.391736E7,2.3917376E7,2.3917376E7,2.3917424E7,2.3917456E7,63.991837,-22.605427,146.2312,0.106867,4.942232,180.00807,-4.544744,2.60819,-0.040483,-6.3E-5,7.966388,-74.37923,-148.8596,5.390791,1.609704,4.939809,0.106432,-149.99986,-150.0,146.2312,0.02605,-0.01154,12.869505,192.87749,193.53989,-0.017489,-0.082191,-1676.3629,110.87848
0.0,0.1,0.0,0.0,0.0,0.0,1.0,2.391736E7,2.391736E7,2.3917376E7,2.3917376E7,2.3917424E7,2.3917456E7,63.991837,-22.605427,146.23119,0.107262,4.94437,180.0081,-5.191739,2.610777,-0.040147,-6.1E-5,7.913802,-77.1624,-151.64276,5.395914,1.619814,4.942019,0.106833,-149.99986,-150.0,146.23119,0.025533,-0.011137,12.869505,192.87753,195.90773,-0.017607,-0.07816,-1679.6036,58.348576
0.0,0.1,0.0,0.0,0.0,0.0,1.0,2.391736E7,2.391736E7,2.3917376E7,2.3917376E7,2.3917424E7,2.3917456E7,63.991837,-22.605427,146.23117,0.107639,4.946431,180.00813,-5.837582,2.613739,-0.03729,-5.2E-5,7.917851,-79.812584,-154.29295,5.400972,1.629945,4.944156,0.107224,-149.99986,-150.0,146.23117,0.025027,-0.010164,12.869505,192.87756,198.22209,-0.017727,-0.074326,-1677.5642,0.0
0.0,0.1,0.0,0.0,0.0,0.0,1.0,2.391736E7,2.391736E7,2.3917376E7,2.3917376E7,2.3917424E7,2.3917456E7,63.991837,-22.605427,146.23116,0.107961,4.948188,180.00816,-6.481846,2.617137,-0.033793,-3.7E-5,7.949916,-82.49691,-156.97728,5.405892,1.640078,4.946144,0.107586,-149.99986,-150.0,146.23116,0.024531,-0.00785,12.869505,192.8776,200.47945,-0.017849,-0.070681,-1676.9628,0.0
0.0,0.1,0.0,0.0,0.0,0.0,1.0,2.391736E7,2.391736E7,2.3917376E7,2.3917376E7,2.3917424E7,2.3917456E7,63.991837,-22.605427,146.23114,0.108228,4.949522,180.00818,-7.124266,2.620863,-0.029811,-2.4E-5,7.961279,-85.19326,-159.67363,5.410527,1.650198,4.947839,0.107904,-159.99986,-160.0,146.23114,0.024045,-0.005636,12.869505,192.87762,202.67645,-0.017962,-0.067217,-1676.8566,0.0
0.0,0.1,0.0,0.0,0.0,0.0,1.0,2.391736E7,2.391736E7,2.3917376E7,2.3917376E7,2.3917424E7,2.3917456E7,63.991837,-22.605427,146.23112,0.108455,4.950478,180.00821,-7.764786,2.624885,-0.024129,-1.4E-5,7.965153,-87.89385,-162.37422,5.414817,1.660304,4.949179,0.108176,-159.99986,-160.0,146.23112,0.023569,-0.003858,12.869505,192.87764,204.80995,-0.018064,-0.063924,-1676.9142,0.0
0.0,0.1,0.0,0.0,0.0,0.0,1.0,2.391736E7,2.391736E7,2.3917376E7,2.3917376E7,2.3917424E7,2.3917456E7,63.991837,-22.605427,146.23112,0.108652,4.951143,180.00822,-8.403319,2.629197,-0.015521,-6.0E-6,7.966372,-90.59595,-165.07631,5.418781,1.670403,4.950183,0.10841,-159.99986,-160.0,146.23112,0.023102,-0.002549,12.869505,192.87766,206.87698,-0.018157,-0.060792,-1677.0195,0.0
0.0,0.1,0.0,0.0,0.0,0.0,1.0,2.391736E7,2.391736E7,2.3917376E7,2.3917376E7,2.3917424E7,2.3917456E7,63.991837,-22.605427,146.23112,0.108829,4.951598,180.00824,-9.039745,2.633806,-0.002528,-1.0E-6,7.966636,-93.29858,-167.77895,5.422477,1.680503,4.95091,0.108614,-169.99986,-170.0,146.23112,0.022644,-0.00161,12.869505,192.87769,208.87477,-0.018242,-0.057815,-1677.1323,0.0
0.0,0.1,0.0,0.0,0.0,0.0,1.0,2.391736E7,2.391736E7,2.3917376E7,2.3917376E7,2.3917424E7,2.3917456E7,63.991837,-22.605427,146.23112,0.108991,4.951903,180.00824,-9.673931,2.638716,0.016043,3.0E-6,7.966547,-96.00141,-170.48178,5.425966,1.690613,4.951421,0.108796,-169.99986,-170.0,146.23112,0.022195,-9.39E-4,12.869505,192.8777,210.80072,-0.018321,-0.054983,-1677.239,0.0
0.0,0.1,0.0,0.0,0.0,0.0,1.0,2.391736E7,2.391736E7,2.3917376E7,2.3917376E7,2.3917424E7,2.3917456E7,63.991837,-22.605427,146.23112,0.109143,4.952108,180.00826,-10.305737,2.643932,0.040263,6.0E-6,7.966317,-98.704315,-173.1847,5.429308,1.700738,4.951775,0.108962,-169.99986,-170.0,146.23112,0.021755,-4.36E-4,12.869505,192.87772,212.65244,-0.018393,-0.052291,-1677.3353,0.0
0.0,0.1,0.0,0.0,0.0,0.0,1.0,2.391736E7,2.391736E7,2.3917376E7,2.3917376E7,2.3917424E7,2.3917456E7,63.991837,-22.605427,146.23112,0.109288,4.952242,180.00827,-10.935011,2.649457,0.066797,8.0E-6,8.002398,-101.5036,-175.98396,5.432546,1.710883,4.952016,0.109117,-169.99986,-170.0,146.23112,0.021324,-1.34E-4,12.869505,192.87772,214.42772,-0.01846,-0.04973,-1681.1335,0.0
0.0,0.1,0.0,0.0,0.0,0.0,1.0,2.391736E7,2.391736E7,2.3917376E7,2.3917376E7,2.3917424E7,2.3917456E7,63.991837,-22.605427,146.23112,0.10944,4.952336,180.00829,-11.613754,2.655794,0.094454,1.0E-5,7.893992,-104.380806,-178.86118,5.435976,1.7219,4.952189,0.109277,-179.99986,-180.0,146.23112,0.020867,1.01E-4,12.869505,192.87773,216.2624,-0.018541,-0.047097,-1678.9891,0.0
0.0,0.1,0.0,0.0,0.0,0.0,0.2,2.391736E7,2.391736E7,2.3917376E7,2.3917376E7,2.3917424E7,2.3917456E7,63.991837,-22.605427,146.23112,0.109463,4.952346,180.00829,-11.717888,2.656802,0.098594,1.0E-5,7.90195,-104.824066,-179.30443,5.436499,1.723597,4.952209,0.109301,-179.99986,-180.0,146.23112,0.020797,6.7E-5,12.869504,192.87773,216.53635,-0.018541,-0.046704,-1678.6959,0.0
0.0,0.1,0.0,0.0,0.0,0.0,0.2,2.391736E7,2.391736E7,2.3917376E7,2.3917376E7,2.3917424E7,2.3917456E7,63.991837,-22.605427,146.23114,0.111178,4.952271,180.00842,-17.655651,2.730612,0.163358,3.0E-6,2.571657,116.81914,-207.99026,5.466392,1.82484,4.952276,0.111123,-209.99986,-210.0,146.23114,0.01711,1.34E-4,12.869504,192.87788,228.47794,-0.019049,-0.028608,-1563.1823,0.0
0.0,0.1,0.0,0.0,0.0,0.0,0.2,2.391736E7,2.391736E7,2.3917376E7,2.3917376E7,2.3917424E7,2.3917456E7,63.991837,-22.605427,146.23114,0.111215,4.952271,180.00842,-18.24505,2.739784,0.191299,7.0E-6,6.116981,115.48245,-209.32697,5.469498,1.835246,4.952273,0.111165,-209.99986,-210.0,146.23114,0.016771,4.7E-4,12.869504,192.87788,229.23512,-0.01908,-0.027208,-1513.2728,36.7486
0.0,0.1,0.0,0.0,0.0,0.0,0.2,2.391736E7,2.391736E7,2.3917376E7,2.3917376E7,2.3917424E7,2.3917456E7,63.991837,-22.605427,146.23114,0.111273,4.95223,180.00842,-18.87886,2.750099,0.181451,1.7E-5,7.371762,113.21296,-211.59645,5.472867,1.84656,4.952264,0.111214,-209.99986,-210.0,146.23114,0.016411,0.001342,12.869504,192.87788,229.95657,-0.019121,-0.025769,-1497.4414,74.30039
0.0,0.1,0.0,0.0,0.0,0.0,0.2,2.391736E7,2.391736E7,2.3917376E7,2.3917376E7,2.3917424E7,2.3917456E7,63.991837,-22.605427,146.23114,0.111324,4.95201,180.00844,-19.459482,2.759963,0.112223,2.8E-5,7.776093,110.69543,-214.11398,5.475914,1.857039,4.952182,0.111264,-209.99986,-210.0,146.23114,0.016086,0.002885,12.869504,192.8779,230.53178,-0.019153,-0.024507,-1501.9755,107.48539
0.0,0.1,0.0,0.0,0.0,0.0,0.2,2.391736E7,2.391736E7,2.3917376E7,2.3917376E7,2.3917424E7,2.3917456E7,63.991837,-22.605427,146.23114,0.111357,4.951537,180.00844,-20.035912,2.770133,0.091972,4.1E-5,7.860538,108.094635,-216.71477,5.478813,1.867545,4.951942,0.111309,-209.99986,-210.0,146.23114,0.015767,0.00416,12.869504,192.8779,231.02045,-0.019186,-0.023309,-1509.7358,139.13498
0.0,0.1,0.0,0.0,0.0,0.0,0.2,2.391736E7,2.391736E7,2.3917376E7,2.3917376E7,2.3917424E7,2.3917456E7,63.991837,-22.605427,146.23116,0.111357,4.95085,180.00844,-20.560614,2.779707,0.079247,5.0E-5,7.970494,105.62696,-219.18245,5.481285,1.877188,4.95153,0.111335,-219.99986,-220.0,146.23116,0.01548,0.006139,12.869504,192.8779,231.39299,-0.019209,-0.022263,-1519.928,166.7498
0.0,0.1,0.0,0.0,0.0,0.0,0.2,2.391736E7,2.391736E7,2.3917376E7,2.3917376E7,2.3917424E7,2.3917456E7,63.991837,-22.605427,146.23117,0.111316,4.949718,180.00842,-21.176058,2.791319,0.073597,6.3E-5,7.914227,102.71496,-222.09445,5.483936,1.888588,4.95076,0.111335,-219.99986,-220.0,146.23117,0.015148,0.007615,12.869504,192.8779,231.7413,-0.019251,-0.021088,-1530.8358,197.64728
0.0,0.1,0.0,0.0,0.0,0.0,0.2,2.391736E7,2.391736E7,2.3917376E7,2.3917376E7,2.3917424E7,2.3917456E7,63.991837,-22.605427,146.23119,0.111245,4.948499,180.00842,-21.69284,2.801388,0.068721,7.1E-5,7.987298,100.230774,-224.57863,5.485936,1.898232,4.949858,0.111305,-219.99986,-220.0,146.23119,0.014873,0.009426,12.869504,192.8779,231.9591,-0.019268,-0.020145,-1540.2585,222.31465
0.0,0.1,0.0,0.0,0.0,0.0,0.24,2.391736E7,2.391736E7,2.3917376E7,2.3917376E7,2.3917424E7,2.3917456E7,63.991837,-22.605427,146.2312,0.111124,4.946777,180.0084,-22.298843,2.813566,0.066543,8.2E-5,7.90242,97.30084,-227.50856,5.488019,1.909624,4.9485,0.111231,-229.99986,-230.0,146.2312,0.014554,0.010533,12.869504,192.87788,232.12697,-0.019296,-0.019085,-1550.274,249.73978
0.0,0.1,0.0,0.0,0.0,0.0,0.28,2.391736E7,2.391736E7,2.3917376E7,2.3917376E7,2.3917424E7,2.3917456E7,63.991837,-22.605427,146.23122,0.110995,4.945111,180.00839,-22.807577,2.824102,0.064476,8.8E-5,7.956992,94.790886,-230.01852,5.489557,1.919263,4.947119,0.111138,-229.99986,-230.0,146.23122,0.014289,0.011808,12.869504,192.87788,232.19441,-0.019308,-0.018234,-1559.4126,271.52792
0.0,0.1,0.0,0.0,0.0,0.0,0.28,2.391736E7,2.391736E7,2.3917376E7,2.3917376E7,2.3917424E7,2.3917456E7,63.991837,-22.605427,146.23123,0.110814,4.942935,180.00838,-23.404001,2.836823,0.063807,9.5E-5,7.899446,91.89867,-232.91075,5.49114,1.930656,4.945242,0.110996,-229.99986,-230.0,146.23123,0.013983,0.012613,12.869504,192.87787,232.18759,-0.019321,-0.017277,-1566.3523,295.67947
0.0,0.1,0.0,0.0,0.0,0.0,0.24,2.391736E7,2.391736E7,2.3917376E7,2.3917376E7,2.3917424E7,2.3917456E7,63.991837,-22.605427,146.23126,0.110643,4.940952,180.00836,-23.904562,2.847811,0.06305,1.0E-4,7.937677,89.44422,-235.36519,5.492311,1.940301,4.943477,0.110852,-229.99986,-230.0,146.23126,0.013728,0.013351,12.869504,192.87785,232.11005,-0.019325,-0.016509,-1572.1378,314.7975
0.0,0.1,0.0,0.0,0.0,0.0,0.28,2.391736E7,2.391736E7,2.3917376E7,2.3917376E7,2.3917424E7,2.3917456E7,63.991837,-22.605427,146.23128,0.110425,4.938483,180.00835,-24.491243,2.861059,0.062165,1.03E-4,7.952421,86.50129,-238.30812,5.493533,1.951712,4.941218,0.11066,-239.99986,-240.0,146.23128,0.013434,0.01419,12.869504,192.87784,231.93546,-0.019326,-0.015645,-1580.2118,335.87674
0.0,0.1,0.0,0.0,0.0,0.0,0.28,2.391736E7,2.391736E7,2.3917376E7,2.3917376E7,2.3917424E7,2.3917456E7,63.991837,-22.605427,146.23131,0.110231,4.93632,180.00833,-24.983498,2.872489,0.062315,1.06E-4,7.94266,84.04114,-240.76826,5.494462,1.961381,4.939193,0.110484,-239.99986,-240.0,146.23131,0.01319,0.014223,12.869504,192.87782,231.71921,-0.019324,-0.01495,-1585.3286,352.502
0.0,0.1,0.0,0.0,0.0,0.0,0.28,2.391736E7,2.391736E7,2.3917376E7,2.3917376E7,2.3917424E7,2.3917456E7,63.991837,-22.605427,146.23132,0.110016,4.933914,180.00832,-25.51611,2.88512,0.062266,1.07E-4,6.757995,81.65335,-243.15605,5.495399,1.971949,4.936898,0.110281,-239.99986,-240.0,146.23132,0.012928,0.014424,12.869504,192.8778,231.41353,-0.019317,-0.014228,-1577.9879,369.4271
0.0,0.1,0.0,0.0,0.0,0.0,0.28,2.391736E7,2.391736E7,2.3917376E7,2.3917376E7,2.3917424E7,2.3917456E7,63.991837,-22.605427,146.23135,0.109798,4.93149,180.00829,-26.044104,2.89791,0.062414,1.07E-4,4.540878,80.71536,-244.09406,5.496287,1.982542,4.934546,0.110071,-239.99986,-240.0,146.23135,0.012672,0.014491,12.869504,192.87779,231.03703,-0.019306,-0.013541,-1510.1066,385.1467
0.0,0.1,0.0,0.0,0.0,0.0,0.28,2.391736E7,2.391736E7,2.3917376E7,2.3917376E7,2.3917424E7,2.3917456E7,63.991837,-22.605427,146.23137,0.109583,4.929073,180.00827,-26.567442,2.910933,0.062713,1.07E-4,3.395678,80.3793,-244.43011,5.497157,1.993163,4.932165,0.109858,-239.99986,-240.0,146.23137,0.012421,0.014391,12.869504,192.87778,230.59187,-0.01929,-0.012888,-1416.913,399.7216
0.0,0.1,0.0,0.0,0.0,0.0,0.28,2.391736E7,2.391736E7,2.3917376E7,2.3917376E7,2.3917424E7,2.3917456E7,63.991837,-22.605427,146.2314,0.109374,4.926687,180.00826,-27.086113,2.924188,0.063223,1.06E-4,2.882428,80.25528,-244.55414,5.498034,2.003817,4.929782,0.109647,-239.99986,-240.0,146.2314,0.012175,0.014156,12.869504,192.87775,230.0803,-0.019272,-0.012266,-1314.3938,413.2132
0.0,0.1,0.0,0.0,0.0,0.0,0.28,2.391736E7,2.391736E7,2.3917376E7,2.3917376E7,2.3917424E7,2.3917456E7,63.991837,-22.605427,146.23143,0.109173,4.924352,180.00824,-27.600079,2.937672,0.063917,1.04E-4,2.675408,80.2059,-244.6035,5.498941,2.014506,4.927422,0.10944,-239.99986,-240.0,146.23143,0.011933,0.013888,12.869504,192.87773,229.50464,-0.019253,-0.011675,-1208.374,425.68408
0.0,0.1,0.0,0.0,0.0,0.0,0.28,2.391736E7,2.391736E7,2.3917376E7,2.3917376E7,2.3917424E7,2.3917456E7,63.991837,-22.605427,146.23145,0.108984,4.922083,180.00822,-28.10931,2.951383,0.064895,1.02E-4,2.596915,80.182915,-244.6265,5.4999,2.025234,4.925103,0.109241,-239.99986,-240.0,146.23145,0.011697,0.013452,12.869504,192.87772,228.86731,-0.01923,-0.011111,-1101.0194,437.20755
0.0,0.1,0.0,0.0,0.0,0.0,0.28,2.391736E7,2.391736E7,2.3917376E7,2.3917376E7,2.3917424E7,2.3917456E7,63.991837,-22.605427,146.23148,0.10881,4.919896,180.0082,-28.613787,2.965319,0.066004,1.0E-4,2.566549,80.16889,-244.64052,5.500928,2.036004,4.922843,0.109052,-239.99986,-240.0,146.23148,0.011465,0.012982,12.869504,192.8777,228.17079,-0.019205,-0.010575,-993.17365,447.8454
0.0,0.1,0.0,0.0,0.0,0.0,0.28,2.391736E7,2.391736E7,2.3917376E7,2.3917376E7,2.3917424E7,2.3917456E7,63.991837,-22.605427,146.23149,0.108677,4.918141,180.0082,-29.03056,2.977105,0.067133,9.8E-5,2.554898,80.16001,-244.6494,5.501847,2.045012,4.921015,0.108905,-239.99986,-240.0,146.23149,0.011276,0.012646,12.869504,192.87769,227.54698,-0.019181,-0.010148,-903.13416,456.07452
0.0,0.1,0.0,0.0,0.0,0.0,0.28,2.391736E7,2.391736E7,2.3917376E7,2.3917376E7,2.3917424E7,2.3917456E7,63.991837,-22.605427,146.2315,0.108509,4.915797,180.00818,-29.608458,2.993863,0.068863,9.5E-5,2.546342,80.14878,-244.66063,5.503242,2.057678,4.918553,0.108715,-239.99986,-240.0,146.2315,0.011015,0.012043,12.869504,192.87767,226.61046,-0.019155,-0.009578,-777.0056,466.68796
0.0,0.1,0.0,0.0,0.0,0.0,0.32,2.391736E7,2.391736E7,2.3917376E7,2.3917376E7,2.3917424E7,2.3917456E7,63.991837,-22.605427,146.23154,0.108382,4.913894,180.00816,-29.95185,3.004015,0.068042,8.9E-5,2.541842,80.13973,-244.66968,5.504544,2.068584,4.91654,0.108569,-239.99986,-240.0,146.23154,0.010797,0.011674,12.869504,192.87766,225.75195,-0.01913,-0.009115,-668.8645,475.0035
0.0,0.1,0.0,0.0,0.0,0.0,0.38,2.391736E7,2.391736E7,2.3917376E7,2.3917376E7,2.3917424E7,2.3917456E7,63.991837,-22.605427,146.23155,0.10825,4.912078,180.00815,-29.951857,3.003993,0.071194,1.0E-4,2.539795,80.13108,-244.67833,5.50595,2.079533,4.91462,0.108434,-239.99986,-240.0,146.23155,0.010583,0.012009,12.869504,192.87764,224.84482,-0.019112,-0.008675,-560.7005,508.86203
0.0,0.1,0.0,0.0,0.0,0.0,0.32,2.391736E7,2.391736E7,2.3917376E7,2.3917376E7,2.3917424E7,2.3917456E7,63.991837,-22.605427,146.23158,0.107835,4.909107,180.00812,-29.945211,3.004933,0.062916,2.04E-4,2.539376,80.122856,-244.68655,5.480822,2.002653,4.912496,0.108232,-239.99986,-240.0,146.23158,0.010373,0.026769,12.869504,192.87762,223.89182,-0.019218,-0.008269,-452.5049,591.76715
0.0,0.1,0.0,0.0,0.0,0.0,0.32,2.391736E7,2.391736E7,2.3917376E7,2.3917376E7,2.3917424E7,2.3917456E7,63.991837,-22.605427,146.23164,0.106893,4.902992,180.00803,-29.934797,3.006218,0.054614,3.13E-4,2.541983,80.1145,-244.69492,5.373859,1.658407,4.908649,0.107707,-239.99986,-240.0,146.23164,0.01021,0.045554,12.869504,192.87758,222.89577,-0.019317,-0.007903,-344.3652,668.40247
0.0,0.1,0.0,0.0,0.0,0.0,0.38,2.391736E7,2.391736E7,2.3917376E7,2.3917376E7,2.3917424E7,2.3917456E7,63.991837,-22.605427,146.23174,0.105494,4.893447,180.00792,-29.92475,3.00738,0.050418,4.04E-4,2.541999,80.10648,-244.70293,5.264398,1.316133,4.90156,0.106674,-239.99986,-240.0,146.23174,0.010096,0.062327,12.869504,192.8775,221.8595,-0.019358,-0.007571,-236.21066,738.29376
0.0,0.1,0.0,0.0,0.0,0.0,0.32,2.391736E7,2.391736E7,2.3917376E7,2.3917376E7,2.3917424E7,2.3917456E7,63.991837,-22.605427,146.23186,0.103749,4.880983,180.00777,-29.91513,3.008413,0.046726,4.72E-4,2.543266,80.09841,-244.711,5.156672,0.992095,4.890574,0.105102,-239.99986,-240.0,146.23186,0.010011,0.075175,12.869504,192.87737,220.78584,-0.01934,-0.007269,-128.18057,801.39923
0.0,0.1,0.0,0.0,0.0,0.0,0.32,2.391736E7,2.391736E7,2.3917376E7,2.3917376E7,2.3917424E7,2.3917456E7,63.991837,-22.605427,146.23198,0.101765,4.868188,180.00754,-29.8548,3.01353,0.026023,5.29E-4,2.548365,80.09034,-244.71907,5.057364,0.705099,4.87676,0.103089,-239.99986,-240.0,146.23198,0.009989,0.072021,12.869504,192.87717,219.67769,-0.019168,-0.007009,-20.786509,856.8623
0.0,0.1,0.0,0.0,0.0,0.0,0.38,2.391736E7,2.391736E7,2.3917376E7,2.3917376E7,2.3917424E7,2.3917456E7,63.991837,-22.605427,146.23209,0.099644,4.85845,180.00725,-29.737871,3.024672,0.015623,6.56E-4,2.56032,80.08227,-244.72714,4.974741,0.469721,4.864068,0.10081,-239.99986,-240.0,146.23209,0.010155,0.058905,12.869504,192.8769,218.53793,-0.019345,-0.006759,-20.141483,905.2062
0.0,0.1,0.0,0.0,0.0,0.0,0.32,2.391736E7,2.391736E7,2.3917376E7,2.3917376E7,2.3917424E7,2.3917456E7,63.991837,-22.605427,146.2322,0.097491,4.851665,180.0069,-29.559586,3.041067,0.011323,8.38E-4,2.578298,80.07405,-244.73535,4.912045,0.289331,4.854779,0.098447,-239.99986,-240.0,146.2322,0.010631,0.057563,12.869504,192.87656,217.36949,-0.01933,-0.006539,-20.207174,947.0858
0.0,0.1,0.0,0.0,0.0,0.0,0.32,2.391736E7,2.391736E7,2.3917376E7,2.3917376E7,2.3917424E7,2.3917456E7,63.991837,-22.605427,146.23227,0.095718,4.847712,180.00653,-29.373854,3.058458,0.00952,0.001028,2.597996,80.06724,-244.74217,4.875377,0.182711,4.849513,0.096497,-239.99986,-240.0,146.23227,0.011345,0.059341,12.869504,192.8762,216.37595,-0.019451,-0.006373,-15.050407,976.7866
0.0,0.1,0.0,0.0,0.0,0.0,0.38,2.391736E7,2.391736E7,2.3917376E7,2.3917376E7,2.3917424E7,2.3917456E7,63.991837,-22.605427,146.23239,0.093346,4.844024,180.00595,-29.065203,3.087698,0.008385,0.001383,2.630891,80.05772,-244.7517,4.847493,0.102384,4.844975,0.093992,-239.99986,-240.0,146.23239,0.012942,0.066151,12.869504,192.87561,214.95805,-0.019684,-0.006163,-19.890474,1011.373
0.0,0.1,0.0,0.0,0.0,0.0,0.38,2.391736E7,2.391736E7,2.3917376E7,2.3917376E7,2.3917424E7,2.3917456E7,63.991837,-22.605427,146.23251,0.091479,4.842045,180.00539,-28.763035,3.116672,0.007985,0.001767,2.664245,80.049675,-244.75974,4.842538,0.091964,4.842538,0.091964,-239.99986,-240.0,146.23251,0.014949,0.074671,12.869504,192.87505,213.72083,-0.019831,-0.006007,-19.833754,1035.8356
0.0,0.1,0.0,0.0,0.0,0.0,0.32,2.391736E7,2.391736E7,2.3917376E7,2.3917376E7,2.3917424E7,2.3917456E7,63.991837,-22.605427,146.23265,0.089785,4.840803,180.00456,-28.434193,3.148728,0.00768,0.002177,2.701127,80.04179,-244.76762,4.841047,0.090136,4.841047,0.090136,-239.99986,-240.0,146.23265,0.017613,0.084667,12.869504,192.87425,212.46638,-0.02023,-0.0059,-19.637564,1055.6794
0.0,0.1,0.0,0.0,0.0,0.0,0.32,2.391736E7,2.391736E7,2.3917376E7,2.3917376E7,2.3917424E7,2.3917456E7,63.991837,-22.605427,146.23279,0.088488,4.840154,180.00375,-28.158663,3.177763,0.007509,0.002545,2.734298,80.03513,-244.77428,4.840286,0.088761,4.840286,0.088761,-239.99986,-240.0,146.23279,0.020371,0.094731,12.869504,192.87341,211.40991,-0.020878,-0.005809,-14.557746,1068.5256
