aileron,elevator,rudder,flaps,slats,speedbrake,throttle,engine-pump0,engine-pump1,electric-pump0,electric-pump1,external-power,APU-generator,latitude-deg,longitude-deg,altitude-ft,roll-deg,pitch-deg,heading-deg,side-slip-deg,airspeed-kt,glideslope,vertical-speed-fps,airspeed-indicator_indicated-speed-kt,altimeter_indicated-altitude-ft,altimeter_pressure-alt-ft,attitude-indicator_indicated-pitch-deg,attitude-indicator_indicated-roll-deg,attitude-indicator_internal-pitch-deg,attitude-indicator_internal-roll-deg,encoder_indicated-altitude-ft,encoder_pressure-alt-ft,gps_indicated-altitude-ft,gps_indicated-ground-speed-kt,gps_indicated-vertical-speed,indicated-heading-deg,magnetic-compass_indicated-heading-deg,slip-skid-ball_indicated-slip-skid,turn-indicator_indicated-turn-rate,vertical-speed-indicator_indicated-speed-fpm,engine_rpm
0.0,0.0,0.0,0.0,0.0,0.0,1.0,9.3872944E7,9.3872944E7,9.387296E7,9.387296E7,9.3873008E7,9.387304E7,63.985043,-22.592484,-9999.0,0.0,0.424,270.02136,0.0,0.0,0.0,0.0,0.0,0.0,0.0,0.0,0.0,0.0,0.0,0.0,0.0,0.0,0.0,0.0,0.0,0.0,0.0,0.0,0.0,0.0
0.0,0.0,0.0,0.0,0.0,0.0,1.0,9.3872944E7,9.3872944E7,9.387296E7,9.387296E7,9.3873008E7,9.387304E7,63.985043,-22.592484,-9999.0,0.0,0.424,270.02136,0.0,0.0,0.0,0.0,0.0,389.08878,1.193444,12.0,40.0,0.0,0.0,0.0,0.0,0.0,0.0,0.0,282.89813,0.0,0.0,0.0,0.0,0.0
0.0,0.0,0.0,0.0,0.0,0.0,1.0,9.3872944E7,9.3872944E7,9.387296E7,9.387296E7,9.3873008E7,9.387304E7,63.991837,-22.605425,-9999.0,0.0,0.424,180.01839,0.0,0.0,0.0,0.0,0.0,389.08878,1.193444,12.0,40.0,0.0,0.0,0.0,0.0,0.0,0.0,0.0,282.89813,0.0,0.0,0.0,0.0,0.0
0.0,0.0,0.0,0.0,0.0,0.0,1.0,9.3872944E7,9.3872944E7,9.387296E7,9.387296E7,9.3873008E7,9.387304E7,63.991837,-22.605425,-9999.0,0.0,0.424,180.01839,0.0,0.0,0.0,0.0,0.0,389.08878,1.193444,12.0,40.0,0.0,0.0,0.0,0.0,0.0,0.0,0.0,282.89813,0.0,0.0,0.0,0.0,0.0
0.0,0.0,0.0,0.0,0.0,0.0,1.0,9.3872944E7,9.3872944E7,9.387296E7,9.387296E7,9.3873008E7,9.387304E7,63.991837,-22.605425,-9999.0,0.0,0.424,180.01839,0.0,0.0,0.0,0.0,0.0,389.08878,1.193444,12.0,40.0,0.0,0.0,0.0,0.0,0.0,0.0,0.0,282.89813,0.0,0.0,0.0,0.0,0.0
0.0,0.0,0.0,0.0,0.0,0.0,1.0,9.3872944E7,9.3872944E7,9.387296E7,9.387296E7,9.3873008E7,9.387304E7,63.991837,-22.605425,-9999.0,0.0,0.424,180.01839,0.0,0.0,0.0,0.0,0.0,389.08878,1.193444,12.0,40.0,0.0,0.0,0.0,0.0,0.0,0.0,0.0,282.89813,0.0,0.0,0.0,0.0,0.0
0.0,0.0,0.0,0.0,0.0,0.0,1.0,9.3872944E7,9.3872944E7,9.387296E7,9.387296E7,9.3873008E7,9.387304E7,63.991837,-22.605425,-9999.0,0.0,0.424,180.01839,0.0,0.0,0.0,0.0,0.0,389.08878,1.193444,12.0,40.0,0.0,0.0,0.0,0.0,0.0,0.0,0.0,282.89813,0.0,0.0,0.0,0.0,0.0
0.0,0.0,0.0,0.0,0.0,0.0,1.0,9.3872944E7,9.3872944E7,9.387296E7,9.387296E7,9.3873008E7,9.387304E7,63.991837,-22.605425,-9999.0,0.0,0.424,180.01839,0.0,0.0,0.0,0.0,0.0,389.08878,1.193444,12.0,40.0,0.0,0.0,0.0,0.0,0.0,0.0,0.0,282.89813,0.0,0.0,0.0,0.0,0.0
0.0,0.0,0.0,0.0,0.0,0.0,1.0,9.3872944E7,9.3872944E7,9.387296E7,9.387296E7,9.3873008E7,9.387304E7,63.991837,-22.605425,-9999.0,0.0,0.424,180.01839,0.0,0.0,0.0,0.0,0.0,389.08878,1.193444,12.0,40.0,0.0,0.0,0.0,0.0,0.0,0.0,0.0,282.89813,0.0,0.0,0.0,0.0,0.0
0.0,0.0,0.0,0.0,0.0,0.0,1.0,9.3872944E7,9.3872944E7,9.387296E7,9.387296E7,9.3873008E7,9.387304E7,63.991837,-22.605425,-9999.0,0.0,0.424,180.01839,0.0,0.0,0.0,0.0,0.0,389.08878,1.193444,12.0,40.0,0.0,0.0,0.0,0.0,0.0,0.0,0.0,282.89813,0.0,0.0,0.0,0.0,0.0
0.0,0.0,0.0,0.0,0.0,0.0,1.0,9.3872944E7,9.3872944E7,9.387296E7,9.387296E7,9.3873008E7,9.387304E7,63.991837,-22.605425,-9999.0,0.0,0.424,180.01839,0.0,0.0,0.0,0.0,0.0,389.08878,1.193444,12.0,40.0,0.0,0.0,0.0,0.0,0.0,0.0,0.0,282.89813,0.0,0.0,0.0,0.0,0.0
0.0,0.0,0.0,0.0,0.0,0.0,1.0,9.3872944E7,9.3872944E7,9.387296E7,9.387296E7,9.3873008E7,9.387304E7,63.991837,-22.605425,-9999.0,0.0,0.424,180.01839,0.0,0.0,0.0,0.0,0.0,389.08878,1.193444,12.0,40.0,0.0,0.0,0.0,0.0,0.0,0.0,0.0,282.89813,0.0,0.0,0.0,0.0,0.0
0.0,0.0,0.0,0.0,0.0,0.0,1.0,9.3872944E7,9.3872944E7,9.387296E7,9.387296E7,9.3873008E7,9.387304E7,63.991837,-22.605425,-9999.0,0.0,0.424,180.01839,0.0,0.0,0.0,0.0,0.0,389.08878,1.193444,12.0,40.0,0.0,0.0,0.0,0.0,0.0,0.0,0.0,282.89813,0.0,0.0,0.0,0.0,0.0
0.0,0.0,0.0,0.0,0.0,0.0,1.0,9.3872944E7,9.3872944E7,9.387296E7,9.387296E7,9.3873008E7,9.387304E7,63.991837,-22.605425,-9999.0,0.0,0.424,180.01839,0.0,0.0,0.0,0.0,0.0,389.08878,1.193444,12.0,40.0,0.0,0.0,0.0,0.0,0.0,0.0,0.0,282.89813,0.0,0.0,0.0,0.0,0.0
0.0,0.0,0.0,0.0,0.0,0.0,1.0,9.3872944E7,9.3872944E7,9.387296E7,9.387296E7,9.3873008E7,9.387304E7,63.991837,-22.605425,-9999.0,0.0,0.424,180.01839,0.0,0.0,0.0,0.0,0.0,389.08878,1.193444,12.0,40.0,0.0,0.0,0.0,0.0,0.0,0.0,0.0,282.89813,0.0,0.0,0.0,0.0,0.0
0.0,0.0,0.0,0.0,0.0,0.0,1.0,9.3872944E7,9.3872944E7,9.387296E7,9.387296E7,9.3873008E7,9.387304E7,63.991837,-22.605425,-9999.0,0.0,0.424,180.01839,0.0,0.0,0.0,0.0,0.0,389.08878,1.193444,12.0,40.0,0.0,0.0,0.0,0.0,0.0,0.0,0.0,282.89813,0.0,0.0,0.0,0.0,0.0
0.0,0.0,0.0,0.0,0.0,0.0,1.0,9.3872944E7,9.3872944E7,9.387296E7,9.387296E7,9.3873008E7,9.387304E7,63.991837,-22.605425,-9999.0,0.0,0.424,180.01839,0.0,0.0,0.0,0.0,0.0,389.08878,1.193444,12.0,40.0,0.0,0.0,0.0,0.0,0.0,0.0,0.0,282.89813,0.0,0.0,0.0,0.0,0.0
0.0,0.0,0.0,0.0,0.0,0.0,1.0,9.3872944E7,9.3872944E7,9.387296E7,9.387296E7,9.3873008E7,9.387304E7,63.991837,-22.605425,-9999.0,0.0,0.424,180.01839,0.0,0.0,0.0,0.0,0.0,389.08878,1.193444,12.0,40.0,0.0,0.0,0.0,0.0,0.0,0.0,0.0,282.89813,0.0,0.0,0.0,0.0,0.0
0.0,0.0,0.0,0.0,0.0,0.0,1.0,9.3872944E7,9.3872944E7,9.387296E7,9.387296E7,9.3873008E7,9.387304E7,63.991837,-22.605425,-9999.0,0.0,0.424,180.01839,0.0,0.0,0.0,0.0,0.0,389.08878,1.193444,12.0,40.0,0.0,0.0,0.0,0.0,0.0,0.0,0.0,282.89813,0.0,0.0,0.0,0.0,0.0
0.0,0.0,0.0,0.0,0.0,0.0,1.0,9.3872944E7,9.3872944E7,9.387296E7,9.387296E7,9.3873008E7,9.387304E7,63.991837,-22.605425,-9999.0,0.0,0.424,180.01839,0.0,0.0,0.0,0.0,0.0,389.08878,1.193444,12.0,40.0,0.0,0.0,0.0,0.0,0.0,0.0,0.0,282.89813,0.0,0.0,0.0,0.0,0.0
0.0,0.0,0.0,0.0,0.0,0.0,1.0,9.3872944E7,9.3872944E7,9.387296E7,9.387296E7,9.3873008E7,9.387304E7,63.991837,-22.605425,-9999.0,0.0,0.424,180.01839,0.0,0.0,0.0,0.0,0.0,389.08878,1.193444,12.0,40.0,0.0,0.0,0.0,0.0,0.0,0.0,0.0,282.89813,0.0,0.0,0.0,0.0,0.0
0.0,0.0,0.0,0.0,0.0,0.0,1.0,9.3872944E7,9.3872944E7,9.387296E7,9.387296E7,9.3873008E7,9.387304E7,63.991837,-22.605425,-9999.0,0.0,0.424,180.01839,0.0,0.0,0.0,0.0,0.0,389.08878,1.193444,12.0,40.0,0.0,0.0,0.0,0.0,0.0,0.0,0.0,282.89813,0.0,0.0,0.0,0.0,0.0
0.0,0.0,0.0,0.0,0.0,0.0,1.0,9.3872944E7,9.3872944E7,9.387296E7,9.387296E7,9.3873008E7,9.387304E7,63.991837,-22.605425,-9999.0,0.0,0.424,180.01839,0.0,0.0,0.0,0.0,0.0,389.08878,1.193444,12.0,40.0,0.0,0.0,0.0,0.0,0.0,0.0,0.0,282.89813,0.0,0.0,0.0,0.0,0.0
0.0,0.0,0.0,0.0,0.0,0.0,1.0,9.3872944E7,9.3872944E7,9.387296E7,9.387296E7,9.3873008E7,9.387304E7,63.991837,-22.605425,-9999.0,0.0,0.424,180.01839,0.0,0.0,0.0,0.0,0.0,389.08878,1.193444,12.0,40.0,0.0,0.0,0.0,0.0,0.0,0.0,0.0,282.89813,0.0,0.0,0.0,0.0,0.0
0.0,0.0,0.0,0.0,0.0,0.0,1.0,9.3872944E7,9.3872944E7,9.387296E7,9.387296E7,9.3873008E7,9.387304E7,63.991837,-22.605425,-9999.0,0.0,0.424,180.01839,0.0,0.0,0.0,0.0,0.0,389.08878,1.193444,12.0,40.0,0.0,0.0,0.0,0.0,0.0,0.0,0.0,282.89813,0.0,0.0,0.0,0.0,0.0
0.0,0.0,0.0,0.0,0.0,0.0,1.0,9.3872944E7,9.3872944E7,9.387296E7,9.387296E7,9.3873008E7,9.387304E7,63.991837,-22.605425,-9999.0,0.0,0.424,180.01839,0.0,0.0,0.0,0.0,0.0,389.08878,1.193444,12.0,40.0,0.0,0.0,0.0,0.0,0.0,0.0,0.0,282.89813,0.0,0.0,0.0,0.0,0.0
0.0,0.0,0.0,0.0,0.0,0.0,1.0,9.3872944E7,9.3872944E7,9.387296E7,9.387296E7,9.3873008E7,9.387304E7,63.991837,-22.605425,-9999.0,0.0,0.424,180.01839,0.0,0.0,0.0,0.0,0.0,389.08878,1.193444,12.0,40.0,0.0,0.0,0.0,0.0,0.0,0.0,0.0,282.89813,0.0,0.0,0.0,0.0,0.0
0.0,0.0,0.0,0.0,0.0,0.0,1.0,9.3872944E7,9.3872944E7,9.387296E7,9.387296E7,9.3873008E7,9.387304E7,63.991837,-22.605425,-9999.0,0.0,0.424,180.01839,0.0,0.0,0.0,0.0,0.0,389.08878,1.193444,12.0,40.0,0.0,0.0,0.0,0.0,0.0,0.0,0.0,282.89813,0.0,0.0,0.0,0.0,0.0
0.0,0.0,0.0,0.0,0.0,0.0,1.0,9.3872944E7,9.3872944E7,9.387296E7,9.387296E7,9.3873008E7,9.387304E7,63.991837,-22.605425,-9999.0,0.0,0.424,180.01839,0.0,0.0,0.0,0.0,0.0,389.08878,1.193444,12.0,40.0,0.0,0.0,0.0,0.0,0.0,0.0,0.0,282.89813,0.0,0.0,0.0,0.0,0.0
0.0,0.0,0.0,0.0,0.0,0.0,1.0,9.3872944E7,9.3872944E7,9.387296E7,9.387296E7,9.3873008E7,9.387304E7,63.991837,-22.605425,-9999.0,0.0,0.424,180.01839,0.0,0.0,0.0,0.0,0.0,389.08878,1.193444,12.0,40.0,0.0,0.0,0.0,0.0,0.0,0.0,0.0,282.89813,0.0,0.0,0.0,0.0,0.0
0.0,0.0,0.0,0.0,0.0,0.0,1.0,9.3872944E7,9.3872944E7,9.387296E7,9.387296E7,9.3873008E7,9.387304E7,63.991837,-22.605425,-9999.0,0.0,0.424,180.01839,0.0,0.0,0.0,0.0,0.0,389.08878,1.193444,12.0,40.0,0.0,0.0,0.0,0.0,0.0,0.0,0.0,282.89813,0.0,0.0,0.0,0.0,0.0
0.0,0.0,0.0,0.0,0.0,0.0,1.0,9.3872944E7,9.3872944E7,9.387296E7,9.387296E7,9.3873008E7,9.387304E7,63.991837,-22.605425,-9999.0,0.0,0.424,180.01839,0.0,0.0,0.0,0.0,0.0,389.08878,1.193444,12.0,40.0,0.0,0.0,0.0,0.0,0.0,0.0,0.0,282.89813,0.0,0.0,0.0,0.0,0.0
0.0,0.0,0.0,0.0,0.0,0.0,1.0,9.3872944E7,9.3872944E7,9.387296E7,9.387296E7,9.3873008E7,9.387304E7,63.991837,-22.605425,-9999.0,0.0,0.424,180.01839,0.0,0.0,0.0,0.0,0.0,389.08878,1.193444,12.0,40.0,0.0,0.0,0.0,0.0,0.0,0.0,0.0,282.89813,0.0,0.0,0.0,0.0,0.0
0.0,0.0,0.0,0.0,0.0,0.0,1.0,9.3872944E7,9.3872944E7,9.387296E7,9.387296E7,9.3873008E7,9.387304E7,63.991837,-22.605425,-9999.0,0.0,0.424,180.01839,0.0,0.0,0.0,0.0,0.0,389.08878,1.193444,12.0,40.0,0.0,0.0,0.0,0.0,0.0,0.0,0.0,282.89813,0.0,0.0,0.0,0.0,0.0
0.0,0.0,0.0,0.0,0.0,0.0,1.0,9.3872944E7,9.3872944E7,9.387296E7,9.387296E7,9.3873008E7,9.387304E7,63.991837,-22.605425,-9999.0,0.0,0.424,180.01839,0.0,0.0,0.0,0.0,0.0,389.08878,1.193444,12.0,40.0,0.0,0.0,0.0,0.0,0.0,0.0,0.0,282.89813,0.0,0.0,0.0,0.0,0.0
0.0,0.0,0.0,0.0,0.0,0.0,1.0,9.3872944E7,9.3872944E7,9.387296E7,9.387296E7,9.3873008E7,9.387304E7,63.991837,-22.605425,-9999.0,0.0,0.424,180.01839,0.0,0.0,0.0,0.0,0.0,389.08878,1.193444,12.0,40.0,0.0,0.0,0.0,0.0,0.0,0.0,0.0,282.89813,0.0,0.0,0.0,0.0,0.0
0.0,0.0,0.0,0.0,0.0,0.0,1.0,9.3872944E7,9.3872944E7,9.387296E7,9.387296E7,9.3873008E7,9.387304E7,63.991837,-22.605425,-9999.0,0.0,0.424,180.01839,0.0,0.0,0.0,0.0,0.0,389.08878,1.193444,12.0,40.0,0.0,0.0,0.0,0.0,0.0,0.0,0.0,282.89813,0.0,0.0,0.0,0.0,0.0
0.0,0.0,0.0,0.0,0.0,0.0,1.0,9.3872944E7,9.3872944E7,9.387296E7,9.387296E7,9.3873008E7,9.387304E7,63.991837,-22.605425,-9999.0,0.0,0.424,180.01839,0.0,0.0,0.0,0.0,0.0,389.08878,1.193444,12.0,40.0,0.0,0.0,0.0,0.0,0.0,0.0,0.0,282.89813,0.0,0.0,0.0,0.0,0.0
0.0,0.0,0.0,0.0,0.0,0.0,1.0,9.3872944E7,9.3872944E7,9.387296E7,9.387296E7,9.3873008E7,9.387304E7,63.991837,-22.605425,-9999.0,0.0,0.424,180.01839,0.0,0.0,0.0,0.0,0.0,389.08878,1.193444,12.0,40.0,0.0,0.0,0.0,0.0,0.0,0.0,0.0,282.89813,0.0,0.0,0.0,0.0,0.0
0.0,0.0,0.0,0.0,0.0,0.0,1.0,9.3872944E7,9.3872944E7,9.387296E7,9.387296E7,9.3873008E7,9.387304E7,63.991837,-22.605425,-9999.0,0.0,0.424,180.01839,0.0,0.0,0.0,0.0,0.0,389.08878,1.193444,12.0,40.0,0.0,0.0,0.0,0.0,0.0,0.0,0.0,282.89813,0.0,0.0,0.0,0.0,0.0
0.0,0.0,0.0,0.0,0.0,0.0,1.0,9.3872944E7,9.3872944E7,9.387296E7,9.387296E7,9.3873008E7,9.387304E7,63.991837,-22.605425,-9999.0,0.0,0.424,180.01839,0.0,0.0,0.0,0.0,0.0,389.08878,1.193444,12.0,40.0,0.0,0.0,0.0,0.0,0.0,0.0,0.0,282.89813,0.0,0.0,0.0,0.0,0.0
0.0,0.0,0.0,0.0,0.0,0.0,1.0,9.3872944E7,9.3872944E7,9.387296E7,9.387296E7,9.3873008E7,9.387304E7,63.991837,-22.605425,-9999.0,0.0,0.424,180.01839,0.0,0.0,0.0,0.0,0.0,389.08878,1.193444,12.0,40.0,0.0,0.0,0.0,0.0,0.0,0.0,0.0,282.89813,0.0,0.0,0.0,0.0,0.0
0.0,0.0,0.0,0.0,0.0,0.0,0.0,9.3872944E7,9.3872944E7,9.387296E7,9.387296E7,9.3873008E7,9.387304E7,63.991837,-22.605427,146.2295,0.104764,4.952322,180.01332,0.0,0.0,0.0,0.0,0.0,389.08878,1.193444,12.0,40.0,0.0,0.0,0.0,0.0,0.0,0.0,0.0,282.89813,0.0,0.0,0.0,0.0,0.0
0.0,0.0,0.0,0.0,0.0,0.0,0.0,9.3872944E7,9.3872944E7,9.387296E7,9.387296E7,9.3873008E7,9.387304E7,63.991837,-22.605427,146.2293,0.095771,4.971765,180.01262,89.86186,3.012142,-0.068609,-1.66E-4,0.0,536.9766,149.08125,12.0,40.0,0.0,0.0,140.00014,140.0,146.2293,7.6E-5,-0.019523,282.89807,356.77744,-0.006118,-0.496299,3941.3894,0.0
0.0,0.0,0.0,0.0,0.0,0.0,0.0,9.3872944E7,9.3872944E7,9.387296E7,9.387296E7,9.3873008E7,9.387304E7,63.991837,-22.605427,146.22952,0.095442,4.951438,180.01257,83.88301,2.733587,0.07943,1.9E-5,0.0,510.12122,122.225876,12.0,40.0,0.0,0.0,120.000145,120.0,146.22952,6.2E-5,0.002214,282.89807,329.1932,-0.012713,-1.285963,2387.1787,0.0
0.0,0.0,0.0,0.0,0.0,0.0,0.0,9.3872944E7,9.3872944E7,9.387296E7,9.387296E7,9.3873008E7,9.387304E7,63.991837,-22.605427,146.22954,0.095467,4.951223,180.01257,83.3695,2.714098,0.074811,1.3E-5,4.74338,508.9667,121.071365,12.0,40.0,0.0,0.0,120.000145,120.0,146.22954,6.1E-5,0.001476,282.89807,326.19867,-0.012957,-1.330738,2274.8052,0.0
0.0,0.0,0.0,0.0,0.0,0.0,0.0,9.3872944E7,9.3872944E7,9.387296E7,9.387296E7,9.3873008E7,9.387304E7,63.991837,-22.605427,146.22954,0.095903,4.950904,180.01262,81.48185,2.646602,-0.021422,-2.0E-6,5.560947,502.00235,114.10701,12.0,40.0,0.0,0.0,120.000145,120.0,146.22954,5.8E-5,-3.4E-5,282.89807,314.73816,-0.013806,-1.476978,1771.4187,0.0
0.0,0.0,0.0,0.0,0.0,0.0,0.0,9.3872944E7,9.3872944E7,9.387296E7,9.387296E7,9.3873008E7,9.387304E7,63.991837,-22.605427,146.22954,0.096072,4.950876,180.01262,80.74883,2.622055,-0.05844,-8.0E-6,6.835073,499.76443,111.8691,12.0,40.0,0.0,0.0,110.000145,110.0,146.22954,5.7E-5,-4.03E-4,282.89807,310.14563,-0.014079,-1.526973,1577.8564,0.0
0.0,0.0,0.0,0.0,0.0,0.0,0.0,9.3872944E7,9.3872944E7,9.387296E7,9.387296E7,9.3873008E7,9.387304E7,63.991837,-22.605427,146.22954,0.09627,4.950881,180.01263,80.001976,2.597944,-0.077729,-1.2E-5,7.23794,497.14017,109.24481,12.0,40.0,0.0,0.0,110.000145,110.0,146.22954,5.6E-5,-7.38E-4,282.89807,305.4111,-0.014328,-1.574525,1355.1672,0.0
0.0,0.0,0.0,0.0,0.0,0.0,0.0,9.3872944E7,9.3872944E7,9.387296E7,9.387296E7,9.3873008E7,9.387304E7,63.991837,-22.605427,146.22954,0.096342,4.950888,180.01265,79.74993,2.590005,-0.082471,-1.3E-5,7.300403,496.22894,108.3336,12.0,40.0,0.0,0.0,110.000145,110.0,146.22954,5.5E-5,-8.39E-4,282.89807,303.8035,-0.014407,-1.589853,1274.769,0.0
0.0,0.0,0.0,0.0,0.0,0.0,0.0,9.3872944E7,9.3872944E7,9.387296E7,9.387296E7,9.3873008E7,9.387304E7,63.991837,-22.605427,146.2295,0.098212,4.951455,180.0128,75.1537,2.461316,-0.102838,-1.0E-5,0.22622,477.5738,89.67844,12.0,40.0,0.0,0.0,90.000145,90.0,146.2295,4.9E-5,-9.39E-4,282.89807,274.25845,-0.015556,-1.817675,-511.23492,0.0
0.0,0.0,0.0,0.0,0.0,0.0,0.0,9.3872944E7,9.3872944E7,9.387296E7,9.387296E7,9.3873008E7,9.387304E7,63.991837,-22.605427,146.2295,0.098327,4.951494,180.0128,74.37736,2.442359,-0.140366,-1.4E-5,5.466728,476.46555,88.57019,12.0,40.0,0.0,0.0,90.000145,90.0,146.2295,4.8E-5,-9.39E-4,282.89807,269.3178,-0.015709,-1.848305,-548.85547,0.0
0.0,0.0,0.0,0.0,0.0,0.0,0.0,9.3872944E7,9.3872944E7,9.387296E7,9.387296E7,9.3873008E7,9.387304E7,63.991837,-22.605427,146.2295,0.09847,4.951539,180.01282,73.51688,2.422204,-0.14119,-1.7E-5,6.833958,474.24625,86.35091,12.0,40.0,0.0,0.0,90.000145,90.0,146.2295,4.7E-5,-0.001073,282.89807,263.88492,-0.01584,-1.880153,-674.48334,0.0
0.0,0.0,0.0,0.0,0.0,0.0,0.0,9.3872944E7,9.3872944E7,9.387296E7,9.387296E7,9.3873008E7,9.387304E7,63.991837,-22.605427,146.2295,0.098636,4.951592,180.01283,72.64213,2.402601,-0.139305,-1.8E-5,7.249309,471.62842,83.733086,12.0,40.0,0.0,0.0,90.000145,90.0,146.2295,4.6E-5,-0.001275,282.89807,258.41837,-0.015962,-1.910445,-795.2562,0.0
0.0,0.0,0.0,0.0,0.0,0.0,0.0,9.3872944E7,9.3872944E7,9.387296E7,9.387296E7,9.3873008E7,9.387304E7,63.991837,-22.605427,146.2295,0.09882,4.951654,180.01285,71.75314,2.383564,-0.129908,-1.9E-5,7.359563,468.77673,80.8814,12.0,40.0,0.0,0.0,80.000145,80.0,146.2295,4.6E-5,-0.001543,282.89807,252.9297,-0.016078,-1.939257,-902.84326,0.0
0.0,0.0,0.0,0.0,0.0,0.0,0.0,9.3872944E7,9.3872944E7,9.387296E7,9.387296E7,9.3873008E7,9.387304E7,63.991837,-22.605427,146.22949,0.099012,4.951722,180.01286,70.84996,2.365107,-0.137324,-2.0E-5,7.382287,466.02985,78.134514,12.0,40.0,0.0,0.0,80.000145,80.0,146.22949,4.5E-5,-0.001409,282.89807,247.43022,-0.016188,-1.96666,-982.0049,0.0
0.0,0.0,0.0,0.0,0.0,0.0,0.0,9.3872944E7,9.3872944E7,9.387296E7,9.387296E7,9.3873008E7,9.387304E7,63.991837,-22.605427,146.22949,0.099209,4.951795,180.01288,69.93275,2.347246,-0.137199,-2.1E-5,7.438725,463.2263,75.33095,12.0,40.0,0.0,0.0,80.000145,80.0,146.22949,4.4E-5,-0.001543,282.89807,241.93102,-0.016291,-1.992725,-1051.08,0.0
0.0,0.0,0.0,0.0,0.0,0.0,0.0,9.3872944E7,9.3872944E7,9.387296E7,9.387296E7,9.3873008E7,9.387304E7,63.991837,-22.605427,146.22949,0.099408,4.951869,180.0129,69.00164,2.329993,-0.136821,-2.1E-5,7.459935,460.40277,72.507416,12.0,40.0,0.0,0.0,80.000145,80.0,146.22949,4.3E-5,-0.001543,282.89807,236.44301,-0.016387,-2.017515,-1110.7938,0.0
0.0,0.0,0.0,0.0,0.0,0.0,0.0,9.3872944E7,9.3872944E7,9.387296E7,9.387296E7,9.3873008E7,9.387304E7,63.991837,-22.605427,146.22949,0.099608,4.951945,180.01291,68.05685,2.313364,-0.136308,-2.1E-5,7.468502,457.57217,69.67684,12.0,40.0,0.0,0.0,70.000145,70.0,146.22949,4.2E-5,-0.001543,282.89807,230.97682,-0.016479,-2.041094,-1162.679,0.0
0.0,0.0,0.0,0.0,0.0,0.0,0.0,9.3872944E7,9.3872944E7,9.387296E7,9.387296E7,9.3873008E7,9.387304E7,63.991837,-22.605427,146.22949,0.099805,4.952021,180.01292,67.09859,2.297372,-0.135499,-2.0E-5,7.472613,454.73914,66.84378,12.0,40.0,0.0,0.0,70.000145,70.0,146.22949,4.1E-5,-0.001543,282.89807,225.5429,-0.016565,-2.063521,-1208.1403,0.0
0.0,0.0,0.0,0.0,0.0,0.0,0.0,9.3872944E7,9.3872944E7,9.387296E7,9.387296E7,9.3873008E7,9.387304E7,63.991837,-22.605427,146.22948,0.100001,4.952096,180.01294,66.12711,2.282031,-0.134459,-2.0E-5,7.475143,451.90518,64.009834,12.0,40.0,0.0,0.0,70.000145,70.0,146.22948,4.0E-5,-0.001543,282.89807,220.15132,-0.016647,-2.084852,-1248.304,0.0
0.0,0.0,0.0,0.0,0.0,0.0,0.0,9.3872944E7,9.3872944E7,9.387296E7,9.387296E7,9.3873008E7,9.387304E7,63.991837,-22.605427,146.22948,0.100192,4.95217,180.01295,65.14274,2.267354,-0.13315,-1.9E-5,7.477101,449.07092,61.175568,12.0,40.0,0.0,0.0,60.00014,60.0,146.22948,4.0E-5,-0.001409,282.89807,214.81197,-0.016724,-2.10514,-1284.0469,0.0
0.0,0.0,0.0,0.0,0.0,0.0,0.0,9.3872944E7,9.3872944E7,9.387296E7,9.387296E7,9.3873008E7,9.387304E7,63.991837,-22.605427,146.22948,0.10038,4.952242,180.01297,64.14579,2.253354,-0.13149,-1.9E-5,7.478843,446.2365,58.341175,12.0,40.0,0.0,0.0,60.00014,60.0,146.22948,3.9E-5,-0.001476,282.89807,209.53438,-0.016798,-2.124437,-1316.0535,0.0
0.0,0.0,0.0,0.0,0.0,0.0,0.0,9.3872944E7,9.3872944E7,9.387296E7,9.387296E7,9.3873008E7,9.387304E7,63.991837,-22.605427,146.22948,0.100563,4.952313,180.01299,63.136635,2.240044,-0.129594,-1.8E-5,7.480493,443.40207,55.506725,12.0,40.0,0.0,0.0,60.00014,60.0,146.22948,3.8E-5,-0.001342,282.89807,204.32777,-0.016867,-2.14279,-1344.8647,0.0
0.0,0.0,0.0,0.0,0.0,0.0,0.0,9.3872944E7,9.3872944E7,9.387296E7,9.387296E7,9.3873008E7,9.387304E7,63.991837,-22.605427,146.22948,0.100742,4.952381,180.013,62.1157,2.227436,-0.127257,-1.7E-5,7.482096,440.5676,52.67225,12.0,40.0,0.0,0.0,60.00014,60.0,146.22948,3.7E-5,-0.001375,282.89807,199.20107,-0.016933,-2.160247,-1370.9148,0.0
0.0,0.0,0.0,0.0,0.0,0.0,0.0,9.3872944E7,9.3872944E7,9.387296E7,9.387296E7,9.3873008E7,9.387304E7,63.991837,-22.605427,146.22948,0.100915,4.952447,180.01302,61.08343,2.215544,-0.124312,-1.6E-5,7.483666,437.7331,49.837753,12.0,40.0,0.0,0.0,50.00014,50.0,146.22948,3.7E-5,-0.001208,282.89807,194.16286,-0.016996,-2.176851,-1394.5574,0.0
0.0,0.0,0.0,0.0,0.0,0.0,0.0,9.3872944E7,9.3872944E7,9.387296E7,9.387296E7,9.3873008E7,9.387304E7,63.991837,-22.605427,146.22948,0.101084,4.952511,180.01303,60.04032,2.204377,-0.121062,-1.5E-5,7.48521,434.8986,47.003235,12.0,40.0,0.0,0.0,50.00014,50.0,146.22948,3.6E-5,-0.001174,282.89807,189.22134,-0.017055,-2.192643,-1416.085,0.0
0.0,0.0,0.0,0.0,0.0,0.0,0.0,9.3872944E7,9.3872944E7,9.387296E7,9.387296E7,9.3873008E7,9.387304E7,63.991837,-22.605427,146.22946,0.101248,4.952573,180.01305,58.9869,2.193948,-0.117452,-1.4E-5,7.569952,432.06406,44.168705,12.0,40.0,0.0,0.0,50.00014,50.0,146.22946,3.5E-5,-0.001107,282.89807,184.38443,-0.017112,-2.207664,-1435.7418,0.0
0.0,0.0,0.0,0.0,0.0,0.0,0.0,9.3872944E7,9.3872944E7,9.387296E7,9.387296E7,9.3873008E7,9.387304E7,63.991837,-22.605427,146.22946,0.101407,4.952632,180.01305,57.923737,2.184268,-0.113183,-1.3E-5,7.576386,429.2295,41.334152,12.0,40.0,0.0,0.0,40.00014,40.0,146.22946,3.4E-5,-0.00104,282.89807,179.6596,-0.017166,-2.22195,-1453.7347,0.0
0.0,0.0,0.0,0.0,0.0,0.0,0.0,9.3872944E7,9.3872944E7,9.387296E7,9.387296E7,9.3873008E7,9.387304E7,63.991837,-22.605427,146.22946,0.101561,4.952689,180.01306,56.85144,2.175345,-0.108627,-1.2E-5,7.582379,426.39493,38.499588,12.0,40.0,0.0,0.0,40.00014,40.0,146.22946,3.4E-5,-0.001006,282.89807,175.05403,-0.017218,-2.235538,-1470.24,0.0
0.0,0.0,0.0,0.0,0.0,0.0,0.0,9.3872944E7,9.3872944E7,9.387296E7,9.387296E7,9.3873008E7,9.387304E7,63.991837,-22.605427,146.22946,0.101711,4.952744,180.01308,55.770653,2.167191,-0.103239,-1.1E-5,7.588455,423.56036,35.665005,12.0,40.0,0.0,0.0,40.00014,40.0,146.22946,3.3E-5,-9.39E-4,282.89807,170.57445,-0.017267,-2.248463,-1485.4093,0.0
0.0,0.0,0.0,0.0,0.0,0.0,0.0,9.3872944E7,9.3872944E7,9.387296E7,9.387296E7,9.3873008E7,9.387304E7,63.991837,-22.605427,146.22946,0.101855,4.952796,180.01309,54.68205,2.159813,-0.097503,-1.0E-5,7.594618,420.72574,32.830406,12.0,40.0,0.0,0.0,40.00014,40.0,146.22946,3.2E-5,-9.39E-4,282.89807,166.22726,-0.017314,-2.260755,-1499.3745,0.0
0.0,0.0,0.0,0.0,0.0,0.0,0.0,9.3872944E7,9.3872944E7,9.387296E7,9.387296E7,9.3873008E7,9.387304E7,63.991837,-22.605427,146.22946,0.101995,4.952846,180.01309,53.586338,2.153219,-0.091004,-9.0E-6,7.600867,417.89114,29.995792,12.0,40.0,0.0,0.0,30.000143,30.0,146.22946,3.2E-5,-8.72E-4,282.89807,162.01845,-0.017358,-2.272447,-1512.2502,0.0
0.0,0.0,0.0,0.0,0.0,0.0,0.0,9.3872944E7,9.3872944E7,9.387296E7,9.387296E7,9.3873008E7,9.387304E7,63.991837,-22.605427,146.22946,0.10213,4.952894,180.0131,52.48426,2.147418,-0.083793,-8.0E-6,7.607202,415.05652,27.161161,12.0,40.0,0.0,0.0,30.000143,30.0,146.22946,3.1E-5,-7.38E-4,282.89807,157.95361,-0.017401,-2.283568,-1524.1376,0.0
0.0,0.0,0.0,0.0,0.0,0.0,0.0,9.3872944E7,9.3872944E7,9.387296E7,9.387296E7,9.3873008E7,9.387304E7,63.991837,-22.605427,146.22946,0.10226,4.95294,180.01312,51.376583,2.142415,-0.076264,-7.0E-6,7.613623,412.22186,24.326513,12.0,40.0,0.0,0.0,30.000143,30.0,146.22946,3.1E-5,-7.04E-4,282.89807,154.03795,-0.017442,-2.294145,-1535.1256,0.0
0.0,0.0,0.0,0.0,0.0,0.0,0.0,9.3872944E7,9.3872944E7,9.387296E7,9.387296E7,9.3873008E7,9.387304E7,63.991837,-22.605427,146.22946,0.102387,4.952983,180.01314,50.26409,2.138216,-0.06788,-6.0E-6,7.620131,409.3872,21.491848,12.0,40.0,0.0,0.0,20.000143,20.0,146.22946,3.0E-5,-6.37E-4,282.89807,150.27626,-0.017481,-2.304205,-1545.2931,0.0
0.0,0.0,0.0,0.0,0.0,0.0,0.0,9.3872944E7,9.3872944E7,9.387296E7,9.387296E7,9.3873008E7,9.387304E7,63.991837,-22.605427,146.22945,0.102521,4.953028,180.01314,49.054432,2.134581,-0.055248,-5.0E-6,7.46472,406.1193,18.223934,12.0,40.0,0.0,0.0,20.000143,20.0,146.22945,2.9E-5,-6.37E-4,282.89807,146.37996,-0.017517,-2.314549,-1563.1333,0.0
0.0,0.0,0.0,0.0,0.0,0.0,0.0,9.3872944E7,9.3872944E7,9.387296E7,9.387296E7,9.3873008E7,9.387304E7,63.991837,-22.605427,146.22945,0.102629,4.953063,180.01315,48.02795,2.13225,-0.048152,-4.0E-6,7.507701,403.64612,15.750765,12.0,40.0,0.0,0.0,20.000143,20.0,146.22945,2.9E-5,-4.7E-4,282.89807,143.23204,-0.017555,-2.322874,-1565.6748,0.0
0.0,0.0,0.0,0.0,0.0,0.0,0.0,9.3872944E7,9.3872944E7,9.387296E7,9.387296E7,9.3873008E7,9.387304E7,63.991837,-22.605427,146.22945,0.102742,4.9531,180.01315,46.90597,2.130489,-0.03703,-3.0E-6,7.580271,400.8482,12.952873,12.0,40.0,0.0,0.0,20.000143,20.0,146.22945,2.8E-5,-4.03E-4,282.89807,139.95712,-0.017589,-2.33153,-1572.16,0.0
0.0,0.0,0.0,0.0,0.0,0.0,0.0,9.3872944E7,9.3872944E7,9.387296E7,9.387296E7,9.3873008E7,9.387304E7,63.991837,-22.605427,146.22945,0.102851,4.953135,180.01317,45.78253,2.129546,-0.024618,-2.0E-6,7.625515,398.0361,10.14075,12.0,40.0,0.0,0.0,10.000142,10.0,146.22945,2.8E-5,-3.69E-4,282.89807,136.85136,-0.017622,-2.339763,-1578.7544,0.0
0.0,0.0,0.0,0.0,0.0,0.0,0.0,9.3872944E7,9.3872944E7,9.387296E7,9.387296E7,9.3873008E7,9.387304E7,63.991837,-22.605427,146.22945,0.102956,4.953167,180.01317,44.658485,2.129423,-0.011008,-1.0E-6,7.646389,395.20932,7.313961,12.0,40.0,0.0,0.0,10.000142,10.0,146.22945,2.7E-5,-2.68E-4,282.89807,133.91762,-0.017654,-2.347594,-1585.4529,0.0
0.0,0.0,0.0,0.0,0.0,0.0,0.0,9.3872944E7,9.3872944E7,9.387296E7,9.387296E7,9.3873008E7,9.387304E7,63.991837,-22.605427,146.22945,0.103058,4.953198,180.01318,43.5347,2.130119,0.003561,0.0,7.658307,392.37735,4.481999,12.0,40.0,0.0,0.0,10.000142,10.0,146.22945,2.7E-5,-2.35E-4,282.89807,131.15825,-0.017684,-2.355042,-1591.8799,0.0
0.0,0.0,0.0,0.0,0.0,0.0,0.0,9.3872944E7,9.3872944E7,9.387296E7,9.387296E7,9.3873008E7,9.387304E7,63.991837,-22.605427,146.22945,0.103165,4.953229,180.0132,42.31857,2.131798,0.020832,1.0E-6,7.662502,389.17728,1.281945,12.0,40.0,0.0,0.0,1.42E-4,0.0,146.22945,2.6E-5,-2.01E-4,282.89807,128.36806,-0.017715,-2.362701,-1603.3563,0.0
0.0,0.0,0.0,0.0,0.0,0.0,0.0,9.3872944E7,9.3872944E7,9.387296E7,9.387296E7,9.3873008E7,9.387304E7,63.991837,-22.605427,146.22945,0.103253,4.953254,180.0132,41.291355,2.133966,0.035312,2.0E-6,7.5817,386.68765,-1.207703,12.0,40.0,0.0,0.0,1.42E-4,0.0,146.22945,2.5E-5,-1.01E-4,282.89807,126.17035,-0.017745,-2.368864,-1606.3076,0.0
0.0,0.0,0.0,0.0,0.0,0.0,0.0,9.3872944E7,9.3872944E7,9.387296E7,9.387296E7,9.3873008E7,9.387304E7,63.991837,-22.605427,146.22945,0.103351,4.953281,180.01321,40.0805,2.137412,0.054966,4.0E-6,7.642459,383.79266,-4.102666,12.0,40.0,0.0,0.0,1.42E-4,0.0,146.22945,2.5E-5,0.0,282.89807,123.76733,-0.017771,-2.375793,-1610.5287,0.0
0.0,0.0,0.0,0.0,0.0,0.0,0.0,9.3872944E7,9.3872944E7,9.387296E7,9.387296E7,9.3873008E7,9.387304E7,63.991837,-22.605427,146.22945,0.103432,4.953302,180.01321,39.05932,2.141071,0.069586,4.0E-6,7.594551,381.31992,-6.575443,12.0,40.0,0.0,0.0,1.42E-4,0.0,146.22945,2.4E-5,6.7E-5,282.89807,121.89913,-0.017799,-2.381368,-1614.7455,0.0
0.0,0.0,0.0,0.0,0.0,0.0,0.0,9.3872944E7,9.3872944E7,9.387296E7,9.387296E7,9.3873008E7,9.387304E7,63.991837,-22.605427,146.22945,0.103525,4.953325,180.01321,37.85738,2.146269,0.096987,6.0E-6,7.5319,378.33878,-9.556562,12.0,40.0,0.0,0.0,-9.999858,-10.0,146.22945,2.4E-5,1.34E-4,282.89807,119.88694,-0.017823,-2.387636,-1621.5383,0.0
0.0,0.0,0.0,0.0,0.0,0.0,0.0,9.3872944E7,9.3872944E7,9.387296E7,9.387296E7,9.3873008E7,9.387304E7,63.991837,-22.605427,146.22945,0.103606,4.953344,180.01323,36.75345,2.151901,0.122042,7.0E-6,7.644358,375.69836,-12.196991,12.0,40.0,0.0,0.0,-9.999858,-10.0,146.22945,2.3E-5,2.01E-4,282.89807,118.21778,-0.017849,-2.393127,-1623.1333,0.0
0.0,0.0,0.0,0.0,0.0,0.0,0.0,9.3872944E7,9.3872944E7,9.387296E7,9.387296E7,9.3873008E7,9.387304E7,63.991837,-22.605427,146.22945,0.103678,4.953361,180.01323,35.746876,2.157763,0.144962,8.0E-6,7.695205,373.24658,-14.648763,12.0,40.0,0.0,0.0,-9.999858,-10.0,146.22945,2.3E-5,2.68E-4,282.89807,116.84625,-0.017872,-2.397925,-1625.7578,0.0
0.0,0.0,0.0,0.0,0.0,0.0,0.0,9.3872944E7,9.3872944E7,9.387296E7,9.387296E7,9.3873008E7,9.387304E7,63.991837,-22.605427,146.22945,0.103754,4.953376,180.01324,34.65535,2.164913,0.171891,9.0E-6,7.714747,370.55,-17.345371,12.0,40.0,0.0,0.0,-9.999858,-10.0,146.22945,2.3E-5,3.35E-4,282.89807,115.5224,-0.017893,-2.402913,-1629.2996,0.0
0.0,0.0,0.0,0.0,0.0,0.0,0.0,9.3872944E7,9.3872944E7,9.387296E7,9.387296E7,9.3873008E7,9.387304E7,63.991837,-22.605427,146.22945,0.103828,4.953391,180.01324,33.57136,2.172843,0.199801,1.1E-5,7.726002,367.84982,-20.04551,12.0,40.0,0.0,0.0,-19.999857,-20.0,146.22945,2.2E-5,3.69E-4,282.89807,114.377495,-0.017914,-2.407658,-1632.7411,0.0
0.0,0.0,0.0,0.0,0.0,0.0,0.0,9.3872944E7,9.3872944E7,9.387296E7,9.387296E7,9.3873008E7,9.387304E7,63.991837,-22.605427,146.22945,0.103899,4.953403,180.01324,32.495598,2.181546,0.229454,1.2E-5,7.735073,365.14844,-22.7469,12.0,40.0,0.0,0.0,-19.999857,-20.0,146.22945,2.2E-5,4.03E-4,282.89807,113.410255,-0.017934,-2.41217,-1635.9995,0.0
0.0,0.0,0.0,0.0,0.0,0.0,0.0,9.3872944E7,9.3872944E7,9.387296E7,9.387296E7,9.3873008E7,9.387304E7,63.991837,-22.605427,146.22945,0.103968,4.953415,180.01326,31.428713,2.191012,0.260206,1.3E-5,7.743434,362.4466,-25.448744,12.0,40.0,0.0,0.0,-19.999857,-20.0,146.22945,2.1E-5,5.37E-4,282.89807,112.61907,-0.017953,-2.416463,-1639.0555,0.0
0.0,0.0,0.0,0.0,0.0,0.0,0.0,9.3872944E7,9.3872944E7,9.387296E7,9.387296E7,9.3873008E7,9.387304E7,63.991837,-22.605427,146.22946,0.104023,4.953423,180.01326,30.546877,2.199476,0.287046,1.4E-5,7.750241,360.19495,-27.700413,12.0,40.0,0.0,0.0,-29.999857,-30.0,146.22946,2.1E-5,5.37E-4,282.89807,112.09287,-0.017971,-2.419879,-1641.4495,0.0
0.0,0.0,0.0,0.0,0.0,0.0,0.0,9.3872944E7,9.3872944E7,9.387296E7,9.387296E7,9.3873008E7,9.387304E7,63.991837,-22.605427,146.22946,0.104099,4.953433,180.01326,29.324036,2.212193,0.323635,1.5E-5,7.682633,356.9989,-30.896454,12.0,40.0,0.0,0.0,-29.999857,-30.0,146.22946,2.0E-5,5.7E-4,282.89807,111.55691,-0.01799,-2.424428,-1646.1322,0.0
0.0,0.0,0.0,0.0,0.0,0.0,0.0,9.3872944E7,9.3872944E7,9.387296E7,9.387296E7,9.3873008E7,9.387304E7,63.991837,-22.605427,146.22946,0.104161,4.95344,180.01328,28.287373,2.223888,0.360456,1.6E-5,7.74017,354.32504,-33.570305,12.0,40.0,0.0,0.0,-29.999857,-30.0,146.22946,2.0E-5,7.04E-4,282.89807,111.28117,-0.018007,-2.428121,-1647.4094,0.0
0.0,0.0,0.0,0.0,0.0,0.0,0.0,9.3872944E7,9.3872944E7,9.387296E7,9.387296E7,9.3873008E7,9.387304E7,63.991837,-22.605427,146.22946,0.104221,4.953445,180.01328,27.261848,2.236303,0.395723,1.8E-5,7.766447,351.63284,-36.262493,12.0,40.0,0.0,0.0,-29.999857,-30.0,146.22946,2.0E-5,7.04E-4,282.89807,111.17201,-0.018023,-2.431634,-1649.3185,0.0
0.0,0.0,0.0,0.0,0.0,0.0,0.0,9.3872944E7,9.3872944E7,9.387296E7,9.387296E7,9.3873008E7,9.387304E7,63.991837,-22.605427,146.22946,0.10428,4.953449,180.01328,26.247932,2.249427,0.431818,1.9E-5,7.781116,348.9342,-38.961147,12.0,40.0,0.0,0.0,-39.99986,-40.0,146.22946,1.9E-5,8.39E-4,282.89807,111.22635,-0.018039,-2.434975,-1651.3518,0.0
0.0,0.0,0.0,0.0,0.0,0.0,0.0,9.3872944E7,9.3872944E7,9.387296E7,9.387296E7,9.3873008E7,9.387304E7,63.991837,-22.605427,146.22946,0.104336,4.953452,180.01329,25.246052,2.263248,0.467665,2.0E-5,7.791759,346.23325,-41.662086,12.0,40.0,0.0,0.0,-39.99986,-40.0,146.22946,1.9E-5,9.39E-4,282.89807,111.440834,-0.018054,-2.438153,-1653.3373,0.0
0.0,0.0,0.0,0.0,0.0,0.0,0.0,9.3872944E7,9.3872944E7,9.387296E7,9.387296E7,9.3873008E7,9.387304E7,63.991837,-22.605427,146.22946,0.104392,4.953453,180.01329,24.256592,2.277753,0.503667,2.1E-5,7.80104,343.5315,-44.36384,12.0,40.0,0.0,0.0,-39.99986,-40.0,146.22946,1.8E-5,9.39E-4,282.89807,111.81186,-0.018069,-2.441175,-1655.2206,0.0
0.0,0.0,0.0,0.0,0.0,0.0,0.0,9.3872944E7,9.3872944E7,9.387296E7,9.387296E7,9.3873008E7,9.387304E7,63.991837,-22.605427,146.22946,0.104445,4.953453,180.01329,23.279907,2.292929,0.539219,2.2E-5,7.809894,340.82947,-47.06589,12.0,40.0,0.0,0.0,-39.99986,-40.0,146.22946,1.8E-5,0.001006,282.89807,112.3356,-0.018083,-2.44405,-1656.9883,0.0
0.0,0.0,0.0,0.0,0.0,0.0,0.0,9.3872944E7,9.3872944E7,9.387296E7,9.387296E7,9.3873008E7,9.387304E7,63.991837,-22.605427,146.22946,0.104497,4.953452,180.0133,22.316305,2.308763,0.573872,2.4E-5,7.818649,338.1273,-49.768055,12.0,40.0,0.0,0.0,-49.99986,-50.0,146.22946,1.8E-5,0.001107,282.89807,113.00799,-0.018097,-2.446784,-1658.6407,0.0
0.0,0.0,0.0,0.0,0.0,0.0,0.0,9.3872944E7,9.3872944E7,9.387296E7,9.387296E7,9.3873008E7,9.387304E7,63.991837,-22.605427,146.22948,0.104548,4.95345,180.0133,21.36606,2.325242,0.6078,2.5E-5,7.827421,335.42508,-52.470272,12.0,40.0,0.0,0.0,-49.99986,-50.0,146.22948,1.7E-5,0.001174,282.89807,113.824745,-0.01811,-2.449385,-1660.183,0.0
0.0,0.0,0.0,0.0,0.0,0.0,0.0,9.3872944E7,9.3872944E7,9.387296E7,9.387296E7,9.3873008E7,9.387304E7,63.991837,-22.605427,146.22948,0.104598,4.953446,180.0133,20.429407,2.342352,0.640534,2.6E-5,7.83625,332.72284,-55.172516,12.0,40.0,0.0,0.0,-49.99986,-50.0,146.22948,1.7E-5,0.001208,282.89807,114.781395,-0.018123,-2.451859,-1661.6216,0.0
0.0,0.0,0.0,0.0,0.0,0.0,0.0,9.3872944E7,9.3872944E7,9.387296E7,9.387296E7,9.3873008E7,9.387304E7,63.991837,-22.605427,146.22948,0.104647,4.953441,180.0133,19.506588,2.36008,0.637246,2.7E-5,7.84515,330.02057,-57.87478,12.0,40.0,0.0,0.0,-59.99986,-60.0,146.22948,1.7E-5,0.001241,282.89807,115.87327,-0.018134,-2.454211,-1662.9626,0.0
0.0,0.0,0.0,0.0,0.0,0.0,0.0,9.3872944E7,9.3872944E7,9.387296E7,9.387296E7,9.3873008E7,9.387304E7,63.991837,-22.605427,146.22948,0.104703,4.953439,180.01332,18.597813,2.37841,0.575886,2.9E-5,7.854126,327.3183,-60.57706,12.0,40.0,0.0,0.0,-59.99986,-60.0,146.22948,1.6E-5,0.001342,282.89807,117.09552,-0.018143,-2.456449,-1664.2126,0.0
0.0,0.0,0.0,0.0,0.0,0.0,0.0,9.3872944E7,9.3872944E7,9.387296E7,9.387296E7,9.3873008E7,9.387304E7,63.991837,-22.605427,146.22948,0.10477,4.953442,180.01332,17.703112,2.39733,0.534727,3.0E-5,7.863179,324.616,-63.279358,12.0,40.0,0.0,0.0,-59.99986,-60.0,146.22948,1.6E-5,0.001342,282.89807,118.443146,-0.018152,-2.458577,-1665.3773,0.0
0.0,0.0,0.0,0.0,0.0,0.0,0.0,9.3872944E7,9.3872944E7,9.387296E7,9.387296E7,9.3873008E7,9.387304E7,63.991837,-22.605427,146.22948,0.104844,4.953449,180.01332,16.822575,2.416826,0.512695,3.1E-5,7.872311,321.91367,-65.981674,12.0,40.0,0.0,0.0,-59.99986,-60.0,146.22948,1.6E-5,0.001476,282.89807,119.910995,-0.018161,-2.460602,-1666.4623,0.0
0.0,0.0,0.0,0.0,0.0,0.0,0.0,9.3872944E7,9.3872944E7,9.387296E7,9.387296E7,9.3873008E7,9.387304E7,63.991837,-22.605427,146.22949,0.104924,4.953459,180.01334,15.956277,2.436885,0.502549,3.2E-5,7.88152,319.21133,-68.684,12.0,40.0,0.0,0.0,-69.999855,-70.0,146.22949,1.5E-5,0.001476,282.89807,121.49377,-0.018172,-2.462527,-1667.4725,0.0
0.0,0.0,0.0,0.0,0.0,0.0,0.0,9.3872944E7,9.3872944E7,9.387296E7,9.387296E7,9.3873008E7,9.387304E7,63.991837,-22.605427,146.22949,0.105008,4.95347,180.01334,15.10427,2.457494,0.499902,3.4E-5,7.890807,316.509,-71.386345,12.0,40.0,0.0,0.0,-69.999855,-70.0,146.22949,1.5E-5,0.001476,282.89807,123.186066,-0.018183,-2.464358,-1668.4128,0.0
0.0,0.0,0.0,0.0,0.0,0.0,0.0,9.3872944E7,9.3872944E7,9.387296E7,9.387296E7,9.3873008E7,9.387304E7,63.991837,-22.605427,146.22949,0.105096,4.95348,180.01335,14.266573,2.478638,0.501778,3.5E-5,7.900171,313.80664,-74.08871,12.0,40.0,0.0,0.0,-69.999855,-70.0,146.22949,1.5E-5,0.00161,282.89807,124.98235,-0.018195,-2.4661,-1669.2878,0.0
0.0,0.0,0.0,0.0,0.0,0.0,0.0,9.3872944E7,9.3872944E7,9.387296E7,9.387296E7,9.3873008E7,9.387304E7,63.991837,-22.605427,146.22949,0.105187,4.953489,180.01335,13.443182,2.500304,0.506402,3.6E-5,7.909613,311.10425,-76.791084,12.0,40.0,0.0,0.0,-69.999855,-70.0,146.22949,1.5E-5,0.00161,282.89807,126.877014,-0.018208,-2.467757,-1670.1016,0.0
0.0,0.0,0.0,0.0,0.0,0.0,0.0,9.3872944E7,9.3872944E7,9.387296E7,9.387296E7,9.3873008E7,9.387304E7,63.991837,-22.605427,146.22949,0.10528,4.953495,180.01337,12.634066,2.522478,0.5126,3.8E-5,7.919131,308.40186,-79.49348,12.0,40.0,0.0,0.0,-79.999855,-80.0,146.22949,1.4E-5,0.001744,282.89807,128.86435,-0.018221,-2.469332,-1670.8579,0.0
0.0,0.0,0.0,0.0,0.0,0.0,0.0,9.3872944E7,9.3872944E7,9.387296E7,9.387296E7,9.3873008E7,9.387304E7,63.991837,-22.605427,146.2295,0.105375,4.953499,180.01337,11.839173,2.545148,0.519115,3.9E-5,7.928727,305.69946,-82.195885,12.0,40.0,0.0,0.0,-79.999855,-80.0,146.2295,1.4E-5,0.001778,282.89807,130.93858,-0.018234,-2.470831,-1671.5607,0.0
0.0,0.0,0.0,0.0,0.0,0.0,0.0,9.3872944E7,9.3872944E7,9.387296E7,9.387296E7,9.3873008E7,9.387304E7,63.991837,-22.605427,146.2295,0.105473,4.953501,180.01338,11.058432,2.568299,0.525915,4.0E-5,7.938398,302.99704,-84.89831,12.0,40.0,0.0,0.0,-79.999855,-80.0,146.2295,1.4E-5,0.001879,282.89807,133.09389,-0.018247,-2.472257,-1672.2131,0.0
0.0,0.0,0.0,0.0,0.0,0.0,0.0,9.3872944E7,9.3872944E7,9.387296E7,9.387296E7,9.3873008E7,9.387304E7,63.991837,-22.605427,146.2295,0.105571,4.953499,180.01338,10.291749,2.59192,0.532061,4.2E-5,7.948146,300.2946,-87.600746,12.0,40.0,0.0,0.0,-89.999855,-90.0,146.2295,1.3E-5,0.001946,282.89807,135.32437,-0.018261,-2.473613,-1672.8186,0.0
0.0,0.0,0.0,0.0,0.0,0.0,0.0,9.3872944E7,9.3872944E7,9.387296E7,9.387296E7,9.3873008E7,9.387304E7,63.991837,-22.605427,146.2295,0.105672,4.953494,180.0134,9.539018,2.615998,0.53798,4.3E-5,7.95797,297.59213,-90.3032,12.0,40.0,0.0,0.0,-89.999855,-90.0,146.2295,1.3E-5,0.001979,282.89807,137.62415,-0.018276,-2.474902,-1673.3799,0.0
0.0,0.0,0.0,0.0,0.0,0.0,0.0,9.3872944E7,9.3872944E7,9.387296E7,9.387296E7,9.3873008E7,9.387304E7,63.991837,-22.605427,146.22952,0.105774,4.953485,180.0134,8.831907,2.631095,0.483872,3.9E-5,7.965751,294.88968,-93.00567,12.0,40.0,0.0,0.0,-89.999855,-90.0,146.22952,1.3E-5,0.00218,282.89807,139.98726,-0.01829,-2.476129,-1673.8999,0.0
0.0,0.0,0.0,0.0,0.0,0.0,0.0,9.3872944E7,9.3872944E7,9.387296E7,9.387296E7,9.3873008E7,9.387304E7,63.991837,-22.605427,146.22952,0.105879,4.953475,180.01341,8.194794,2.626767,0.336037,2.7E-5,7.966326,292.1872,-95.70815,12.0,40.0,0.0,0.0,-89.999855,-90.0,146.22952,1.3E-5,0.001543,282.89807,142.4078,-0.018304,-2.477295,-1674.3812,0.0
0.0,0.0,0.0,0.0,0.0,0.0,0.0,9.3872944E7,9.3872944E7,9.387296E7,9.387296E7,9.3873008E7,9.387304E7,63.991837,-22.605427,146.22952,0.105989,4.953466,180.01341,7.555624,2.622765,0.228844,1.9E-5,7.966633,289.48468,-98.41066,12.0,40.0,0.0,0.0,-99.999855,-100.0,146.22952,1.2E-5,0.001073,282.89807,144.87982,-0.018318,-2.478405,-1674.8263,0.0
0.0,0.0,0.0,0.0,0.0,0.0,0.0,9.3872944E7,9.3872944E7,9.387296E7,9.387296E7,9.3873008E7,9.387304E7,63.991837,-22.605427,146.22952,0.106104,4.953458,180.01343,6.914547,2.619089,0.153501,1.3E-5,7.919141,286.7463,-101.14904,12.0,40.0,0.0,0.0,-99.999855,-100.0,146.22952,1.2E-5,7.04E-4,282.89807,147.3974,-0.018334,-2.47946,-1676.5748,0.0
0.0,0.0,0.0,0.0,0.0,0.0,0.0,9.3872944E7,9.3872944E7,9.387296E7,9.387296E7,9.3873008E7,9.387304E7,63.991837,-22.605427,146.22952,0.106219,4.953451,180.01344,6.271709,2.615743,0.101693,8.0E-6,7.945018,284.06702,-103.82834,12.0,40.0,0.0,0.0,-99.999855,-100.0,146.22952,1.2E-5,4.36E-4,282.89807,149.95467,-0.01835,-2.480464,-1675.9722,0.0
0.0,0.0,0.0,0.0,0.0,0.0,0.0,9.3872944E7,9.3872944E7,9.387296E7,9.387296E7,9.3873008E7,9.387304E7,63.991837,-22.605427,146.22952,0.106346,4.953442,180.01344,5.573508,2.61249,0.064062,5.0E-6,7.942714,281.13354,-106.76179,12.0,40.0,0.0,0.0,-99.999855,-100.0,146.22952,1.2E-5,2.01E-4,282.89807,152.763,-0.018367,-2.481496,-1676.531,0.0
0.0,0.0,0.0,0.0,0.0,0.0,0.0,9.3872944E7,9.3872944E7,9.387296E7,9.387296E7,9.3873008E7,9.387304E7,63.991837,-22.605427,146.22952,0.106454,4.953434,180.01346,4.981408,2.610042,0.04238,4.0E-6,7.961118,278.67123,-109.2241,12.0,40.0,0.0,0.0,-109.999855,-110.0,146.22952,1.1E-5,1.01E-4,282.89807,155.16484,-0.018385,-2.482327,-1676.22,0.0
0.0,0.0,0.0,0.0,0.0,0.0,0.0,9.3872944E7,9.3872944E7,9.387296E7,9.387296E7,9.3873008E7,9.387304E7,63.991837,-22.605427,146.22952,0.106572,4.953424,180.01346,4.334264,2.607689,0.026919,2.0E-6,7.965797,275.9708,-111.92457,12.0,40.0,0.0,0.0,-109.999855,-110.0,146.22952,1.1E-5,3.4E-5,282.89807,157.80621,-0.018403,-2.48319,-1676.4377,0.0
0.0,0.0,0.0,0.0,0.0,0.0,0.0,9.3872944E7,9.3872944E7,9.387296E7,9.387296E7,9.3873008E7,9.387304E7,63.991837,-22.605427,146.22952,0.106691,4.953413,180.01347,3.686007,2.60567,0.017828,1.0E-6,7.920831,273.2388,-114.656555,12.0,40.0,0.0,0.0,-109.999855,-110.0,146.22952,1.1E-5,-3.4E-5,282.89807,160.46417,-0.01842,-2.484012,-1677.7825,0.0
0.0,0.0,0.0,0.0,0.0,0.0,0.0,9.3872944E7,9.3872944E7,9.387296E7,9.387296E7,9.3873008E7,9.387304E7,63.991837,-22.605427,146.22952,0.106809,4.953399,180.01349,3.036798,2.603985,0.013084,1.0E-6,7.949246,270.55597,-117.33938,12.0,40.0,0.0,0.0,-109.999855,-110.0,146.22952,1.1E-5,0.0,282.89807,163.13315,-0.018438,-2.484793,-1677.2079,0.0
0.0,0.0,0.0,0.0,0.0,0.0,0.0,9.3872944E7,9.3872944E7,9.387296E7,9.387296E7,9.3873008E7,9.387304E7,63.991837,-22.605427,146.22952,0.106926,4.953383,180.01349,2.386809,2.602634,0.011852,1.0E-6,7.961617,267.8603,-120.03504,12.0,40.0,0.0,0.0,-119.999855,-120.0,146.22952,1.1E-5,-3.4E-5,282.89807,165.80763,-0.018456,-2.485536,-1677.1583,0.0
0.0,0.0,0.0,0.0,0.0,0.0,0.0,9.3872944E7,9.3872944E7,9.387296E7,9.387296E7,9.3873008E7,9.387304E7,63.991837,-22.605427,146.22952,0.107044,4.953365,180.0135,1.736204,2.601619,0.012761,1.0E-6,7.966045,265.1601,-122.73524,12.0,40.0,0.0,0.0,-119.999855,-120.0,146.22952,1.0E-5,0.0,282.89807,168.4822,-0.018475,-2.486243,-1677.2803,0.0
0.0,0.0,0.0,0.0,0.0,0.0,0.0,9.3872944E7,9.3872944E7,9.387296E7,9.387296E7,9.3873008E7,9.387304E7,63.991837,-22.605427,146.22952,0.10716,4.953345,180.0135,1.085149,2.60094,0.015545,1.0E-6,7.96765,262.4583,-125.43704,12.0,40.0,0.0,0.0,-119.999855,-120.0,146.22952,1.0E-5,-3.4E-5,282.89807,171.15155,-0.018494,-2.486916,-1677.4498,0.0
0.0,0.0,0.0,0.0,0.0,0.0,0.0,9.3872944E7,9.3872944E7,9.387296E7,9.387296E7,9.3873008E7,9.387304E7,63.991837,-22.605427,146.22952,0.107277,4.953323,180.01352,0.433813,2.600596,0.019709,2.0E-6,7.968249,259.75592,-128.13942,12.0,40.0,0.0,0.0,-129.99986,-130.0,146.22952,1.0E-5,6.7E-5,282.89807,173.81052,-0.018513,-2.487555,-1677.6244,0.0
0.0,0.0,0.0,0.0,0.0,0.0,0.0,9.3872944E7,9.3872944E7,9.387296E7,9.387296E7,9.3873008E7,9.387304E7,63.991837,-22.605427,146.22952,0.107393,4.953299,180.01353,-0.217636,2.600588,0.024758,2.0E-6,7.968479,257.05334,-130.84201,12.0,40.0,0.0,0.0,-129.99986,-130.0,146.22952,1.0E-5,3.4E-5,282.89807,176.45404,-0.018532,-2.488163,-1677.7896,0.0
0.0,0.0,0.0,0.0,0.0,0.0,0.0,9.3872944E7,9.3872944E7,9.387296E7,9.387296E7,9.3873008E7,9.387304E7,63.991837,-22.605427,146.22952,0.107509,4.953277,180.01353,-0.86903,2.600912,0.028851,2.0E-6,7.968563,254.35066,-133.54468,12.0,40.0,0.0,0.0,-129.99986,-130.0,146.22952,1.0E-5,6.7E-5,282.89807,179.07716,-0.018551,-2.488742,-1677.9409,0.0
0.0,0.0,0.0,0.0,0.0,0.0,0.0,9.3872944E7,9.3872944E7,9.387296E7,9.387296E7,9.3873008E7,9.387304E7,63.991837,-22.605427,146.22952,0.107624,4.953266,180.01355,-1.5202,2.601572,0.03267,3.0E-6,7.968582,251.64795,-136.24739,12.0,40.0,0.0,0.0,-129.99986,-130.0,146.22952,9.0E-6,0.0,282.89807,181.67511,-0.018571,-2.489292,-1678.0778,0.0
0.0,0.0,0.0,0.0,0.0,0.0,0.0,9.3872944E7,9.3872944E7,9.387296E7,9.387296E7,9.3873008E7,9.387304E7,63.991837,-22.605427,146.22952,0.10774,4.953266,180.01355,-2.170979,2.602568,0.036786,3.0E-6,7.968565,248.94522,-138.95013,12.0,40.0,0.0,0.0,-139.99986,-140.0,146.22952,9.0E-6,0.0,282.89807,184.24323,-0.01859,-2.489815,-1678.2002,0.0
0.0,0.0,0.0,0.0,0.0,0.0,0.0,9.3872944E7,9.3872944E7,9.387296E7,9.387296E7,9.3873008E7,9.387304E7,63.991837,-22.605427,146.22952,0.107837,4.953271,180.01357,-2.712875,2.603655,0.040756,3.0E-6,7.968529,246.69292,-141.20242,12.0,40.0,0.0,0.0,-139.99986,-140.0,146.22952,9.0E-6,0.0,282.89807,186.3573,-0.018609,-2.490232,-1678.2919,0.0
0.0,0.0,0.0,0.0,0.0,0.0,0.0,9.3872944E7,9.3872944E7,9.387296E7,9.387296E7,9.3873008E7,9.387304E7,63.991837,-22.605427,146.22952,0.107973,4.953286,180.01358,-3.470693,2.605569,0.047503,4.0E-6,7.926682,243.51436,-144.38098,12.0,40.0,0.0,0.0,-139.99986,-140.0,146.22952,9.0E-6,0.0,282.89807,189.27216,-0.018629,-2.490786,-1679.2942,0.0
0.0,0.0,0.0,0.0,0.0,0.0,0.0,9.3872944E7,9.3872944E7,9.387296E7,9.387296E7,9.3873008E7,9.387304E7,63.991837,-22.605427,146.22952,0.108089,4.953301,180.01358,-4.119296,2.607573,0.053774,4.0E-6,7.952668,240.82799,-147.06737,12.0,40.0,0.0,0.0,-139.99986,-140.0,146.22952,9.0E-6,3.4E-5,282.89807,191.72446,-0.018649,-2.491236,-1678.6893,0.0
0.0,0.0,0.0,0.0,0.0,0.0,0.0,9.3872944E7,9.3872944E7,9.387296E7,9.387296E7,9.3873008E7,9.387304E7,63.991837,-22.605427,146.22952,0.108206,4.953319,180.0136,-4.766841,2.609911,0.060615,5.0E-6,7.962721,238.13095,-149.76439,12.0,40.0,0.0,0.0,-149.99986,-150.0,146.22952,8.0E-6,6.7E-5,282.89807,194.12991,-0.018668,-2.491665,-1678.5265,0.0
0.0,0.0,0.0,0.0,0.0,0.0,0.0,9.3872944E7,9.3872944E7,9.387296E7,9.387296E7,9.3873008E7,9.387304E7,63.991837,-22.605427,146.22952,0.108323,4.953335,180.0136,-5.413168,2.612582,0.06763,6.0E-6,7.966168,235.43016,-152.46518,12.0,40.0,0.0,0.0,-149.99986,-150.0,146.22952,8.0E-6,6.7E-5,282.89807,196.48466,-0.018688,-2.492072,-1678.5121,0.0
0.0,0.0,0.0,0.0,0.0,0.0,0.0,9.3872944E7,9.3872944E7,9.387296E7,9.387296E7,9.3873008E7,9.387304E7,63.991837,-22.605427,146.22952,0.108441,4.953352,180.01361,-6.058116,2.615586,0.074694,6.0E-6,7.967272,232.72804,-155.1673,12.0,40.0,0.0,0.0,-149.99986,-150.0,146.22952,8.0E-6,1.34E-4,282.89807,198.7851,-0.018707,-2.49246,-1678.5435,0.0
0.0,0.0,0.0,0.0,0.0,0.0,0.0,9.3872944E7,9.3872944E7,9.387296E7,9.387296E7,9.3873008E7,9.387304E7,63.991837,-22.605427,146.22952,0.108559,4.953367,180.01363,-6.701527,2.61892,0.081942,7.0E-6,7.967537,230.02545,-157.8699,12.0,40.0,0.0,0.0,-159.99986,-160.0,146.22952,8.0E-6,1.34E-4,282.89807,201.02768,-0.018727,-2.492828,-1678.5846,0.0
0.0,0.0,0.0,0.0,0.0,0.0,0.0,9.3872944E7,9.3872944E7,9.387296E7,9.387296E7,9.3873008E7,9.387304E7,63.991837,-22.605427,146.22952,0.108679,4.953381,180.01363,-7.343244,2.622585,0.089317,8.0E-6,7.967493,227.32266,-160.57268,12.0,40.0,0.0,0.0,-159.99986,-160.0,146.22952,8.0E-6,2.01E-4,282.89807,203.20915,-0.018747,-2.493179,-1678.6234,0.0
0.0,0.0,0.0,0.0,0.0,0.0,0.0,9.3872944E7,9.3872944E7,9.387296E7,9.387296E7,9.3873008E7,9.387304E7,63.991837,-22.605427,146.22952,0.108799,4.953392,180.01364,-7.983114,2.626577,0.096269,8.0E-6,7.967326,224.61981,-163.27553,12.0,40.0,0.0,0.0,-159.99986,-160.0,146.22952,8.0E-6,2.35E-4,282.89807,205.32639,-0.018766,-2.493512,-1678.6559,0.0
0.0,0.0,0.0,0.0,0.0,0.0,0.0,9.3872944E7,9.3872944E7,9.387296E7,9.387296E7,9.3873008E7,9.387304E7,63.991837,-22.605427,146.22952,0.10893,4.953403,180.01366,-8.674047,2.631271,0.103067,9.0E-6,7.954621,221.67474,-166.22061,12.0,40.0,0.0,0.0,-159.99986,-160.0,146.22952,8.0E-6,3.69E-4,282.89807,207.54419,-0.018787,-2.493855,-1679.3315,0.0
0.0,0.0,0.0,0.0,0.0,0.0,0.0,9.3872944E7,9.3872944E7,9.387296E7,9.387296E7,9.3873008E7,9.387304E7,63.991837,-22.605427,146.22952,0.109041,4.95341,180.01366,-9.256716,2.63554,0.109596,9.0E-6,7.956604,219.21384,-168.6815,12.0,40.0,0.0,0.0,-169.99986,-170.0,146.22952,7.0E-6,4.03E-4,282.89807,209.35666,-0.01881,-2.494131,-1678.6605,0.0
0.0,0.0,0.0,0.0,0.0,0.0,0.0,9.3872944E7,9.3872944E7,9.387296E7,9.387296E7,9.3873008E7,9.387304E7,63.991837,-22.605427,146.22952,0.109164,4.953415,180.01367,-9.89015,2.640508,0.117561,1.0E-5,7.966383,216.51102,-171.38432,12.0,40.0,0.0,0.0,-169.99986,-170.0,146.22952,7.0E-6,3.69E-4,282.89807,211.26443,-0.018829,-2.494417,-1678.6693,0.0
0.0,0.0,0.0,0.0,0.0,0.0,0.0,9.3872944E7,9.3872944E7,9.387296E7,9.387296E7,9.3873008E7,9.387304E7,63.991837,-22.605427,146.22952,0.109287,4.953418,180.01369,-10.521152,2.645798,0.124583,1.1E-5,7.966208,213.80812,-174.08723,12.0,40.0,0.0,0.0,-169.99986,-170.0,146.22952,7.0E-6,4.03E-4,282.89807,213.09744,-0.018849,-2.49469,-1678.6742,0.0
0.0,0.0,0.0,0.0,0.0,0.0,0.0,9.3872944E7,9.3872944E7,9.387296E7,9.387296E7,9.3873008E7,9.387304E7,63.991837,-22.605427,146.22954,0.109412,4.953419,180.01369,-11.149586,2.651407,0.13106,1.2E-5,7.9659,211.10516,-176.79018,12.0,40.0,0.0,0.0,-169.99986,-170.0,146.22954,7.0E-6,4.7E-4,282.89807,214.85353,-0.018869,-2.49495,-1678.6737,0.0
0.0,0.0,0.0,0.0,0.0,0.0,0.0,9.3872944E7,9.3872944E7,9.387296E7,9.387296E7,9.3873008E7,9.387304E7,63.991837,-22.605427,146.22954,0.109537,4.953417,180.0137,-11.775314,2.657335,0.137274,1.2E-5,7.965554,208.40219,-179.49315,12.0,40.0,0.0,0.0,-179.99986,-180.0,146.22954,7.0E-6,4.36E-4,282.89807,216.53076,-0.01889,-2.495197,-1678.6675,0.0
0.0,0.0,0.0,0.0,0.0,0.0,0.0,9.3872944E7,9.3872944E7,9.387296E7,9.387296E7,9.3873008E7,9.387304E7,63.991837,-22.605427,146.22954,0.109663,4.953413,180.0137,-12.398206,2.663578,0.143331,1.3E-5,7.965181,205.6992,-182.19615,12.0,40.0,0.0,0.0,-179.99986,-180.0,146.22954,7.0E-6,5.37E-4,282.89807,218.12735,-0.01891,-2.495431,-1678.6555,0.0
0.0,0.0,0.0,0.0,0.0,0.0,0.0,9.3872944E7,9.3872944E7,9.387296E7,9.387296E7,9.3873008E7,9.387304E7,63.991837,-22.605427,146.22954,0.109791,4.953407,180.01372,-13.018135,2.670136,0.149133,1.4E-5,7.964784,202.99619,-184.89915,12.0,40.0,0.0,0.0,-179.99986,-180.0,146.22954,7.0E-6,5.37E-4,282.89807,219.64175,-0.01893,-2.495655,-1678.6384,0.0
0.0,0.0,0.0,0.0,0.0,0.0,0.0,9.3872944E7,9.3872944E7,9.387296E7,9.387296E7,9.3873008E7,9.387304E7,63.991837,-22.605427,146.22954,0.10992,4.953398,180.01373,-13.634978,2.67701,0.15523,1.4E-5,7.964366,200.29317,-187.60219,12.0,40.0,0.0,0.0,-189.99986,-190.0,146.22954,6.0E-6,6.71E-4,282.89807,221.07259,-0.018951,-2.495867,-1678.6162,0.0
0.0,0.0,0.0,0.0,0.0,0.0,0.0,9.3872944E7,9.3872944E7,9.387296E7,9.387296E7,9.3873008E7,9.387304E7,63.991837,-22.605427,146.22954,0.110049,4.953387,180.01373,-14.248617,2.684192,0.160751,1.5E-5,7.963925,197.59012,-190.30522,12.0,40.0,0.0,0.0,-189.99986,-190.0,146.22954,6.0E-6,6.71E-4,282.89807,222.41867,-0.018972,-2.496069,-1678.5892,0.0
0.0,0.0,0.0,0.0,0.0,0.0,0.0,9.3872944E7,9.3872944E7,9.387296E7,9.387296E7,9.3873008E7,9.387304E7,63.991837,-22.605427,146.22954,0.11018,4.953374,180.01375,-14.858936,2.691681,0.166134,1.6E-5,7.963462,194.88707,-193.00829,12.0,40.0,0.0,0.0,-189.99986,-190.0,146.22954,6.0E-6,7.04E-4,282.89807,223.67903,-0.018993,-2.496261,-1678.558,0.0
0.0,0.0,0.0,0.0,0.0,0.0,0.0,9.3872944E7,9.3872944E7,9.387296E7,9.387296E7,9.3873008E7,9.387304E7,63.991837,-22.605427,146.22954,0.110313,4.953358,180.01376,-15.465826,2.699475,0.170965,1.6E-5,7.962977,192.18399,-195.71135,12.0,40.0,0.0,0.0,-189.99986,-190.0,146.22954,6.0E-6,7.38E-4,282.89807,224.85286,-0.019014,-2.496444,-1678.5225,0.0
0.0,0.0,0.0,0.0,0.0,0.0,0.0,9.3872944E7,9.3872944E7,9.387296E7,9.387296E7,9.3873008E7,9.387304E7,63.991837,-22.605427,146.22954,0.110446,4.95334,180.01378,-16.06918,2.707569,0.176053,1.7E-5,7.962471,189.4809,-198.41444,12.0,40.0,0.0,0.0,-199.99986,-200.0,146.22954,6.0E-6,7.72E-4,282.89807,225.93956,-0.019035,-2.496618,-1678.483,0.0
0.0,0.0,0.0,0.0,0.0,0.0,0.0,9.3872944E7,9.3872944E7,9.387296E7,9.387296E7,9.3873008E7,9.387304E7,63.991837,-22.605427,146.22954,0.110581,4.95332,180.01378,-16.668894,2.715962,0.180838,1.8E-5,7.961942,186.7778,-201.11755,12.0,40.0,0.0,0.0,-199.99986,-200.0,146.22954,6.0E-6,7.72E-4,282.89807,226.93869,-0.019057,-2.496783,-1678.4401,0.0
0.0,0.0,0.0,0.0,0.0,0.0,0.0,9.3872944E7,9.3872944E7,9.387296E7,9.387296E7,9.3873008E7,9.387304E7,63.991837,-22.605427,146.22954,0.110717,4.953296,180.0138,-17.264874,2.724652,0.185497,1.8E-5,7.96139,184.07468,-203.82066,12.0,40.0,0.0,0.0,-199.99986,-200.0,146.22954,6.0E-6,8.39E-4,282.89807,227.85002,-0.019079,-2.49694,-1678.3936,0.0
0.0,0.0,0.0,0.0,0.0,0.0,0.0,9.3872944E7,9.3872944E7,9.387296E7,9.387296E7,9.3873008E7,9.387304E7,63.991837,-22.605427,146.22954,0.110855,4.953271,180.01381,-17.857025,2.733634,0.189612,1.9E-5,7.960817,181.37154,-206.5238,12.0,40.0,0.0,0.0,-199.99986,-200.0,146.22954,6.0E-6,9.39E-4,282.89807,228.67348,-0.0191,-2.49709,-1678.3439,0.0
0.0,0.0,0.0,0.0,0.0,0.0,0.0,9.3872944E7,9.3872944E7,9.387296E7,9.387296E7,9.3873008E7,9.387304E7,63.991837,-22.605427,146.22955,0.110993,4.953243,180.01381,-18.44526,2.742908,0.193576,2.0E-5,7.960222,178.6684,-209.22696,12.0,40.0,0.0,0.0,-209.99986,-210.0,146.22955,5.0E-6,9.39E-4,282.89807,229.40918,-0.019122,-2.497232,-1678.2913,0.0
0.0,0.0,0.0,0.0,0.0,0.0,0.0,9.3872944E7,9.3872944E7,9.387296E7,9.387296E7,9.3873008E7,9.387304E7,63.991837,-22.605427,146.22955,0.111134,4.953213,180.01382,-19.029493,2.752468,0.197618,2.0E-5,7.959605,175.96523,-211.93013,12.0,40.0,0.0,0.0,-209.99986,-210.0,146.22955,5.0E-6,9.39E-4,282.89807,230.05739,-0.019145,-2.497367,-1678.2357,0.0
0.0,0.0,0.0,0.0,0.0,0.0,0.0,9.3872944E7,9.3872944E7,9.387296E7,9.387296E7,9.3873008E7,9.387304E7,63.991837,-22.605427,146.22955,0.111276,4.95318,180.01384,-19.609646,2.762313,0.201624,2.1E-5,7.958965,173.26204,-214.6333,12.0,40.0,0.0,0.0,-209.99986,-210.0,146.22955,5.0E-6,0.001006,282.89807,230.61859,-0.019167,-2.497496,-1678.1776,0.0
0.0,0.0,0.0,0.0,0.0,0.0,0.0,9.3872944E7,9.3872944E7,9.387296E7,9.387296E7,9.3873008E7,9.387304E7,63.991837,-22.605427,146.22955,0.111419,4.953145,180.01385,-20.18566,2.77244,0.207234,2.2E-5,7.958304,170.55884,-217.3365,12.0,40.0,0.0,0.0,-209.99986,-210.0,146.22955,5.0E-6,0.001073,282.89807,231.09337,-0.01919,-2.497618,-1678.1171,0.0
0.0,0.0,0.0,0.0,0.0,0.0,0.0,9.3872944E7,9.3872944E7,9.387296E7,9.387296E7,9.3873008E7,9.387304E7,63.991837,-22.605427,146.22955,0.111558,4.953109,180.01385,-20.75752,2.782845,0.223069,2.2E-5,7.95762,167.85562,-220.03972,12.0,40.0,0.0,0.0,-219.99986,-220.0,146.22955,5.0E-6,0.001006,282.89807,231.4825,-0.019216,-2.497735,-1678.0541,0.0
0.0,0.0,0.0,0.0,0.0,0.0,0.0,9.3872944E7,9.3872944E7,9.387296E7,9.387296E7,9.3873008E7,9.387304E7,63.991837,-22.605427,146.22955,0.11169,4.953078,180.01387,-21.325087,2.793525,0.239566,2.3E-5,7.956913,165.15239,-222.74295,12.0,40.0,0.0,0.0,-219.99986,-220.0,146.22955,5.0E-6,0.00104,282.89807,231.78693,-0.019241,-2.497845,-1677.989,0.0
0.0,0.0,0.0,0.0,0.0,0.0,0.0,9.3872944E7,9.3872944E7,9.387296E7,9.387296E7,9.3873008E7,9.387304E7,63.991837,-22.605427,146.22955,0.111816,4.95305,180.01389,-21.88828,2.804477,0.253883,2.3E-5,7.956184,162.44914,-225.4462,12.0,40.0,0.0,0.0,-219.99986,-220.0,146.22955,5.0E-6,0.001107,282.89807,232.00772,-0.019266,-2.497951,-1677.9219,0.0
0.0,0.0,0.0,0.0,0.0,0.0,0.0,9.3872944E7,9.3872944E7,9.387296E7,9.387296E7,9.3873008E7,9.387304E7,63.991837,-22.605427,146.22955,0.111938,4.953025,180.01389,-22.447044,2.815698,0.265676,2.4E-5,7.955433,159.74588,-228.14946,12.0,40.0,0.0,0.0,-229.99986,-230.0,146.22955,5.0E-6,0.001107,282.89807,232.1461,-0.01929,-2.498051,-1677.8528,0.0
0.0,0.0,0.0,0.0,0.0,0.0,0.0,9.3872944E7,9.3872944E7,9.387296E7,9.387296E7,9.3873008E7,9.387304E7,63.991837,-22.605427,146.22957,0.112058,4.953002,180.0139,-23.001331,2.827186,0.275611,2.4E-5,7.95466,157.0426,-230.85274,12.0,40.0,0.0,0.0,-229.99986,-230.0,146.22957,5.0E-6,0.001174,282.89807,232.20341,-0.019313,-2.498146,-1677.782,0.0
0.0,0.0,0.0,0.0,0.0,0.0,0.0,9.3872944E7,9.3872944E7,9.387296E7,9.387296E7,9.3873008E7,9.387304E7,63.991837,-22.605427,146.22957,0.112177,4.952981,180.01392,-23.551094,2.838937,0.283579,2.5E-5,7.953865,154.33931,-233.55603,12.0,40.0,0.0,0.0,-229.99986,-230.0,146.22957,5.0E-6,0.001107,282.89807,232.18118,-0.019335,-2.498237,-1677.7095,0.0
0.0,0.0,0.0,0.0,0.0,0.0,0.0,9.3872944E7,9.3872944E7,9.387296E7,9.387296E7,9.3873008E7,9.387304E7,63.991837,-22.605427,146.22957,0.112295,4.95296,180.01392,-24.096289,2.850947,0.290141,2.5E-5,7.953048,151.636,-236.25935,12.0,40.0,0.0,0.0,-229.99986,-230.0,146.22957,4.0E-6,0.001208,282.89807,232.081,-0.019358,-2.498323,-1677.6354,0.0
0.0,0.0,0.0,0.0,0.0,0.0,0.0,9.3872944E7,9.3872944E7,9.387296E7,9.387296E7,9.3873008E7,9.387304E7,63.991837,-22.605427,146.22957,0.112414,4.95294,180.01393,-24.63688,2.863214,0.295673,2.6E-5,7.952209,148.93268,-238.96268,12.0,40.0,0.0,0.0,-239.99986,-240.0,146.22957,4.0E-6,0.001241,282.89807,231.90462,-0.01938,-2.498405,-1677.5598,0.0
0.0,0.0,0.0,0.0,0.0,0.0,0.0,9.3872944E7,9.3872944E7,9.387296E7,9.387296E7,9.3873008E7,9.387304E7,63.991837,-22.605427,146.22957,0.112534,4.95292,180.01393,-25.17283,2.875735,0.300155,2.7E-5,7.951347,146.22932,-241.66602,12.0,40.0,0.0,0.0,-239.99986,-240.0,146.22957,4.0E-6,0.001208,282.89807,231.65392,-0.019401,-2.498483,-1677.4828,0.0
0.0,0.0,0.0,0.0,0.0,0.0,0.0,9.3872944E7,9.3872944E7,9.387296E7,9.387296E7,9.3873008E7,9.387304E7,63.991837,-22.605427,146.22957,0.112655,4.952899,180.01395,-25.704107,2.888391,0.303569,2.7E-5,5.932125,144.33571,-243.55963,12.0,40.0,0.0,0.0,-239.99986,-240.0,146.22957,4.0E-6,0.001275,282.89807,231.33084,-0.019423,-2.498557,-1645.2808,0.0
0.0,0.0,0.0,0.0,0.0,0.0,0.0,9.3872944E7,9.3872944E7,9.387296E7,9.387296E7,9.3873008E7,9.387304E7,63.991837,-22.605427,146.22958,0.112777,4.952878,180.01396,-26.230684,2.901264,0.30674,2.8E-5,4.088629,143.6562,-244.23914,12.0,40.0,0.0,0.0,-239.99986,-240.0,146.22958,4.0E-6,0.001308,282.89807,230.93747,-0.019444,-2.498627,-1565.1023,0.0
0.0,0.0,0.0,0.0,0.0,0.0,0.0,9.3872944E7,9.3872944E7,9.387296E7,9.387296E7,9.3873008E7,9.387304E7,63.991837,-22.605427,146.22958,0.1129,4.952856,180.01396,-26.752533,2.914379,0.309472,2.9E-5,3.185218,143.41129,-244.48405,12.0,40.0,0.0,0.0,-239.99986,-240.0,146.22958,4.0E-6,0.001409,282.89807,230.476,-0.019465,-2.498694,-1467.3734,0.0
0.0,0.0,0.0,0.0,0.0,0.0,0.0,9.3872944E7,9.3872944E7,9.387296E7,9.387296E7,9.3873008E7,9.387304E7,63.991837,-22.605427,146.22958,0.113025,4.952834,180.01398,-27.269634,2.927732,0.311843,2.9E-5,2.795296,143.31932,-244.57602,12.0,40.0,0.0,0.0,-239.99986,-240.0,146.22958,4.0E-6,0.001409,282.89807,229.94865,-0.019487,-2.498758,-1363.1456,0.0
0.0,0.0,0.0,0.0,0.0,0.0,0.0,9.3872944E7,9.3872944E7,9.387296E7,9.387296E7,9.3873008E7,9.387304E7,63.991837,-22.605427,146.22958,0.113151,4.952811,180.01399,-27.781967,2.941321,0.314266,3.0E-5,2.64186,143.28119,-244.61415,12.0,40.0,0.0,0.0,-239.99986,-240.0,146.22958,4.0E-6,0.001342,282.89807,229.35783,-0.019508,-2.498819,-1256.4757,0.0
0.0,0.0,0.0,0.0,0.0,0.0,0.0,9.3872944E7,9.3872944E7,9.387296E7,9.387296E7,9.3873008E7,9.387304E7,63.991837,-22.605427,146.22958,0.11328,4.952787,180.01399,-28.289518,2.955143,0.316338,3.0E-5,2.583481,143.26201,-244.63335,12.0,40.0,0.0,0.0,-239.99986,-240.0,146.22958,4.0E-6,0.001442,282.89807,228.70593,-0.019529,-2.498877,-1148.8792,0.0
0.0,0.0,0.0,0.0,0.0,0.0,0.0,9.3872944E7,9.3872944E7,9.387296E7,9.387296E7,9.3873008E7,9.387304E7,63.991837,-22.605427,146.22958,0.11341,4.952763,180.014,-28.792276,2.969193,0.318241,3.1E-5,2.560447,143.24948,-244.64587,12.0,40.0,0.0,0.0,-239.99986,-240.0,146.22958,4.0E-6,0.00151,282.89807,227.99545,-0.019551,-2.498932,-1040.9287,0.0
0.0,0.0,0.0,0.0,0.0,0.0,0.0,9.3872944E7,9.3872944E7,9.387296E7,9.387296E7,9.3873008E7,9.387304E7,63.991837,-22.605427,146.2296,0.113542,4.952738,180.01402,-29.290232,2.983469,0.320135,3.2E-5,2.550084,143.23927,-244.65607,12.0,40.0,0.0,0.0,-239.99986,-240.0,146.2296,4.0E-6,0.00151,282.89807,227.22899,-0.019572,-2.498984,-932.844,0.0
0.0,0.0,0.0,0.0,0.0,0.0,0.0,9.3872944E7,9.3872944E7,9.387296E7,9.387296E7,9.3873008E7,9.387304E7,63.991837,-22.605427,146.2296,0.113676,4.952712,180.01402,-29.783379,2.997967,0.321614,3.2E-5,2.544173,143.22989,-244.66545,12.0,40.0,0.0,0.0,-239.99986,-240.0,146.2296,4.0E-6,0.001577,282.89807,226.40916,-0.019594,-2.499033,-824.7118,0.0
0.0,0.0,0.0,0.0,0.0,0.0,0.0,9.3872944E7,9.3872944E7,9.387296E7,9.387296E7,9.3873008E7,9.387304E7,63.991837,-22.605427,146.2296,0.113809,4.952685,180.01404,-29.962748,3.003276,0.294889,2.7E-5,2.540306,143.22095,-244.6744,12.0,40.0,0.0,0.0,-239.99986,-240.0,146.2296,4.0E-6,0.001543,282.89807,225.53865,-0.01962,-2.499081,-716.5545,0.0
0.0,0.0,0.0,0.0,0.0,0.0,0.0,9.3872944E7,9.3872944E7,9.387296E7,9.387296E7,9.3873008E7,9.387304E7,63.991837,-22.605427,146.2296,0.113918,4.952662,180.01405,-29.962982,3.003195,0.28922,2.0E-5,2.538704,143.21248,-244.68286,12.0,40.0,0.0,0.0,-239.99986,-240.0,146.2296,3.0E-6,0.001174,282.89807,224.62018,-0.019652,-2.499125,-608.36505,0.0
0.0,0.0,0.0,0.0,0.0,0.0,0.0,9.3872944E7,9.3872944E7,9.387296E7,9.387296E7,9.3873008E7,9.387304E7,63.991837,-22.605427,146.2296,0.113997,4.952643,180.01405,-29.963179,3.003113,0.291779,1.4E-5,2.538089,143.2042,-244.69116,12.0,40.0,0.0,0.0,-239.99986,-240.0,146.2296,3.0E-6,8.72E-4,282.89807,223.65652,-0.019682,-2.499168,-500.17087,0.0
0.0,0.0,0.0,0.0,0.0,0.0,0.0,9.3872944E7,9.3872944E7,9.387296E7,9.387296E7,9.3873008E7,9.387304E7,63.991837,-22.605427,146.2296,0.114054,4.952631,180.01405,-29.963326,3.003029,0.295625,1.0E-5,2.537374,143.19585,-244.6995,12.0,40.0,0.0,0.0,-239.99986,-240.0,146.2296,3.0E-6,5.7E-4,282.89807,222.65048,-0.019708,-2.499209,-392.0057,0.0
0.0,0.0,0.0,0.0,0.0,0.0,0.0,9.3872944E7,9.3872944E7,9.387296E7,9.387296E7,9.3873008E7,9.387304E7,63.991837,-22.605427,146.2296,0.114095,4.952621,180.01407,-29.96343,3.002945,0.299679,8.0E-6,2.536142,143.18742,-244.70792,12.0,40.0,0.0,0.0,-239.99986,-240.0,146.2296,3.0E-6,4.03E-4,282.89807,221.60492,-0.01973,-2.499248,-283.89352,0.0
