aileron,elevator,rudder,flaps,slats,speedbrake,throttle,engine-pump0,engine-pump1,electric-pump0,electric-pump1,external-power,APU-generator,latitude-deg,longitude-deg,altitude-ft,roll-deg,pitch-deg,heading-deg,side-slip-deg,airspeed-kt,glideslope,vertical-speed-fps,airspeed-indicator_indicated-speed-kt,altimeter_indicated-altitude-ft,altimeter_pressure-alt-ft,attitude-indicator_indicated-pitch-deg,attitude-indicator_indicated-roll-deg,attitude-indicator_internal-pitch-deg,attitude-indicator_internal-roll-deg,encoder_indicated-altitude-ft,encoder_pressure-alt-ft,gps_indicated-altitude-ft,gps_indicated-ground-speed-kt,gps_indicated-vertical-speed,indicated-heading-deg,magnetic-compass_indicated-heading-deg,slip-skid-ball_indicated-slip-skid,turn-indicator_indicated-turn-rate,vertical-speed-indicator_indicated-speed-fpm,engine_rpm
0.0,0.0,0.0,0.0,0.0,0.0,1.0,1.1771576E8,1.1771576E8,1.17715776E8,1.17715776E8,1.17715824E8,1.17715856E8,63.985043,-22.592484,-9999.0,0.0,0.424,270.02136,0.0,0.0,0.0,0.0,0.0,0.0,0.0,0.0,0.0,0.0,0.0,0.0,0.0,0.0,0.0,0.0,0.0,0.0,0.0,0.0,0.0,0.0
0.0,0.0,0.0,0.0,0.0,0.0,1.0,1.1771576E8,1.1771576E8,1.17715776E8,1.17715776E8,1.17715824E8,1.17715856E8,63.985043,-22.592484,-9999.0,0.0,0.424,270.02136,0.0,0.0,0.0,0.0,0.0,389.08878,1.193444,12.0,40.0,0.0,0.0,0.0,0.0,0.0,0.0,0.0,282.89813,0.0,0.0,0.0,0.0,0.0
0.0,0.0,0.0,0.0,0.0,0.0,1.0,1.1771576E8,1.1771576E8,1.17715776E8,1.17715776E8,1.17715824E8,1.17715856E8,63.991837,-22.605425,-9999.0,0.0,0.424,180.01839,0.0,0.0,0.0,0.0,0.0,389.08878,1.193444,12.0,40.0,0.0,0.0,0.0,0.0,0.0,0.0,0.0,282.89813,0.0,0.0,0.0,0.0,0.0
0.0,0.0,0.0,0.0,0.0,0.0,1.0,1.1771576E8,1.1771576E8,1.17715776E8,1.17715776E8,1.17715824E8,1.17715856E8,63.991837,-22.605425,-9999.0,0.0,0.424,180.01839,0.0,0.0,0.0,0.0,0.0,389.08878,1.193444,12.0,40.0,0.0,0.0,0.0,0.0,0.0,0.0,0.0,282.89813,0.0,0.0,0.0,0.0,0.0
-0.571429,0.0,0.0,0.0,0.0,0.0,1.0,1.1771576E8,1.1771576E8,1.17715776E8,1.17715776E8,1.17715824E8,1.17715856E8,63.991837,-22.605425,-9999.0,0.0,0.424,180.01839,0.0,0.0,0.0,0.0,0.0,389.08878,1.193444,12.0,40.0,0.0,0.0,0.0,0.0,0.0,0.0,0.0,282.89813,0.0,0.0,0.0,0.0,0.0
0.0,0.0,0.0,0.0,0.0,0.0,1.0,1.1771576E8,1.1771576E8,1.17715776E8,1.17715776E8,1.17715824E8,1.17715856E8,63.991837,-22.605425,-9999.0,0.0,0.424,180.01839,0.0,0.0,0.0,0.0,0.0,389.08878,1.193444,12.0,40.0,0.0,0.0,0.0,0.0,0.0,0.0,0.0,282.89813,0.0,0.0,0.0,0.0,0.0
-0.571429,0.0,0.0,0.0,0.0,0.0,1.0,1.1771576E8,1.1771576E8,1.17715776E8,1.17715776E8,1.17715824E8,1.17715856E8,63.991837,-22.605425,-9999.0,0.0,0.424,180.01839,0.0,0.0,0.0,0.0,0.0,389.08878,1.193444,12.0,40.0,0.0,0.0,0.0,0.0,0.0,0.0,0.0,282.89813,0.0,0.0,0.0,0.0,0.0
0.0,0.0,0.0,0.0,0.0,0.0,1.0,1.1771576E8,1.1771576E8,1.17715776E8,1.17715776E8,1.17715824E8,1.17715856E8,63.991837,-22.605425,-9999.0,0.0,0.424,180.01839,0.0,0.0,0.0,0.0,0.0,389.08878,1.193444,12.0,40.0,0.0,0.0,0.0,0.0,0.0,0.0,0.0,282.89813,0.0,0.0,0.0,0.0,0.0
-0.571429,0.0,0.0,0.0,0.0,0.0,1.0,1.1771576E8,1.1771576E8,1.17715776E8,1.17715776E8,1.17715824E8,1.17715856E8,63.991837,-22.605425,-9999.0,0.0,0.424,180.01839,0.0,0.0,0.0,0.0,0.0,389.08878,1.193444,12.0,40.0,0.0,0.0,0.0,0.0,0.0,0.0,0.0,282.89813,0.0,0.0,0.0,0.0,0.0
0.0,0.0,0.0,0.0,0.0,0.0,1.0,1.1771576E8,1.1771576E8,1.17715776E8,1.17715776E8,1.17715824E8,1.17715856E8,63.991837,-22.605425,-9999.0,0.0,0.424,180.01839,0.0,0.0,0.0,0.0,0.0,389.08878,1.193444,12.0,40.0,0.0,0.0,0.0,0.0,0.0,0.0,0.0,282.89813,0.0,0.0,0.0,0.0,0.0
-0.571429,0.0,0.0,0.0,0.0,0.0,1.0,1.1771576E8,1.1771576E8,1.17715776E8,1.17715776E8,1.17715824E8,1.17715856E8,63.991837,-22.605425,-9999.0,0.0,0.424,180.01839,0.0,0.0,0.0,0.0,0.0,389.08878,1.193444,12.0,40.0,0.0,0.0,0.0,0.0,0.0,0.0,0.0,282.89813,0.0,0.0,0.0,0.0,0.0
0.0,0.0,0.0,0.0,0.0,0.0,1.0,1.1771576E8,1.1771576E8,1.17715776E8,1.17715776E8,1.17715824E8,1.17715856E8,63.991837,-22.605425,-9999.0,0.0,0.424,180.01839,0.0,0.0,0.0,0.0,0.0,389.08878,1.193444,12.0,40.0,0.0,0.0,0.0,0.0,0.0,0.0,0.0,282.89813,0.0,0.0,0.0,0.0,0.0
-0.571429,0.0,0.0,0.0,0.0,0.0,1.0,1.1771576E8,1.1771576E8,1.17715776E8,1.17715776E8,1.17715824E8,1.17715856E8,63.991837,-22.605425,-9999.0,0.0,0.424,180.01839,0.0,0.0,0.0,0.0,0.0,389.08878,1.193444,12.0,40.0,0.0,0.0,0.0,0.0,0.0,0.0,0.0,282.89813,0.0,0.0,0.0,0.0,0.0
-0.571429,0.0,0.0,0.0,0.0,0.0,1.0,1.1771576E8,1.1771576E8,1.17715776E8,1.17715776E8,1.17715824E8,1.17715856E8,63.991837,-22.605425,-9999.0,0.0,0.424,180.01839,0.0,0.0,0.0,0.0,0.0,389.08878,1.193444,12.0,40.0,0.0,0.0,0.0,0.0,0.0,0.0,0.0,282.89813,0.0,0.0,0.0,0.0,0.0
-0.571429,0.0,0.0,0.0,0.0,0.0,1.0,1.1771576E8,1.1771576E8,1.17715776E8,1.17715776E8,1.17715824E8,1.17715856E8,63.991837,-22.605425,-9999.0,0.0,0.424,180.01839,0.0,0.0,0.0,0.0,0.0,389.08878,1.193444,12.0,40.0,0.0,0.0,0.0,0.0,0.0,0.0,0.0,282.89813,0.0,0.0,0.0,0.0,0.0
-0.571429,0.0,0.0,0.0,0.0,0.0,1.0,1.1771576E8,1.1771576E8,1.17715776E8,1.17715776E8,1.17715824E8,1.17715856E8,63.991837,-22.605425,-9999.0,0.0,0.424,180.01839,0.0,0.0,0.0,0.0,0.0,389.08878,1.193444,12.0,40.0,0.0,0.0,0.0,0.0,0.0,0.0,0.0,282.89813,0.0,0.0,0.0,0.0,0.0
-0.571429,0.0,0.0,0.0,0.0,0.0,1.0,1.1771576E8,1.1771576E8,1.17715776E8,1.17715776E8,1.17715824E8,1.17715856E8,63.991837,-22.605425,-9999.0,0.0,0.424,180.01839,0.0,0.0,0.0,0.0,0.0,389.08878,1.193444,12.0,40.0,0.0,0.0,0.0,0.0,0.0,0.0,0.0,282.89813,0.0,0.0,0.0,0.0,0.0
-0.571429,0.0,0.0,0.0,0.0,0.0,1.0,1.1771576E8,1.1771576E8,1.17715776E8,1.17715776E8,1.17715824E8,1.17715856E8,63.991837,-22.605425,-9999.0,0.0,0.424,180.01839,0.0,0.0,0.0,0.0,0.0,389.08878,1.193444,12.0,40.0,0.0,0.0,0.0,0.0,0.0,0.0,0.0,282.89813,0.0,0.0,0.0,0.0,0.0
-0.571429,0.0,0.0,0.0,0.0,0.0,1.0,1.1771576E8,1.1771576E8,1.17715776E8,1.17715776E8,1.17715824E8,1.17715856E8,63.991837,-22.605425,-9999.0,0.0,0.424,180.01839,0.0,0.0,0.0,0.0,0.0,389.08878,1.193444,12.0,40.0,0.0,0.0,0.0,0.0,0.0,0.0,0.0,282.89813,0.0,0.0,0.0,0.0,0.0
-0.571429,0.0,0.0,0.0,0.0,0.0,1.0,1.1771576E8,1.1771576E8,1.17715776E8,1.17715776E8,1.17715824E8,1.17715856E8,63.991837,-22.605425,-9999.0,0.0,0.424,180.01839,0.0,0.0,0.0,0.0,0.0,389.08878,1.193444,12.0,40.0,0.0,0.0,0.0,0.0,0.0,0.0,0.0,282.89813,0.0,0.0,0.0,0.0,0.0
-0.571429,0.0,0.0,0.0,0.0,0.0,1.0,1.1771576E8,1.1771576E8,1.17715776E8,1.17715776E8,1.17715824E8,1.17715856E8,63.991837,-22.605425,-9999.0,0.0,0.424,180.01839,0.0,0.0,0.0,0.0,0.0,389.08878,1.193444,12.0,40.0,0.0,0.0,0.0,0.0,0.0,0.0,0.0,282.89813,0.0,0.0,0.0,0.0,0.0
-0.571429,0.0,0.0,0.0,0.0,0.0,1.0,1.1771576E8,1.1771576E8,1.17715776E8,1.17715776E8,1.17715824E8,1.17715856E8,63.991837,-22.605425,-9999.0,0.0,0.424,180.01839,0.0,0.0,0.0,0.0,0.0,389.08878,1.193444,12.0,40.0,0.0,0.0,0.0,0.0,0.0,0.0,0.0,282.89813,0.0,0.0,0.0,0.0,0.0
-0.571429,0.0,0.0,0.0,0.0,0.0,1.0,1.1771576E8,1.1771576E8,1.17715776E8,1.17715776E8,1.17715824E8,1.17715856E8,63.991837,-22.605425,-9999.0,0.0,0.424,180.01839,0.0,0.0,0.0,0.0,0.0,389.08878,1.193444,12.0,40.0,0.0,0.0,0.0,0.0,0.0,0.0,0.0,282.89813,0.0,0.0,0.0,0.0,0.0
-0.571429,0.0,0.0,0.0,0.0,0.0,1.0,1.1771576E8,1.1771576E8,1.17715776E8,1.17715776E8,1.17715824E8,1.17715856E8,63.991837,-22.605425,-9999.0,0.0,0.424,180.01839,0.0,0.0,0.0,0.0,0.0,389.08878,1.193444,12.0,40.0,0.0,0.0,0.0,0.0,0.0,0.0,0.0,282.89813,0.0,0.0,0.0,0.0,0.0
-0.571429,0.0,0.0,0.0,0.0,0.0,1.0,1.1771576E8,1.1771576E8,1.17715776E8,1.17715776E8,1.17715824E8,1.17715856E8,63.991837,-22.605425,-9999.0,0.0,0.424,180.01839,0.0,0.0,0.0,0.0,0.0,389.08878,1.193444,12.0,40.0,0.0,0.0,0.0,0.0,0.0,0.0,0.0,282.89813,0.0,0.0,0.0,0.0,0.0
-0.571429,0.0,0.0,0.0,0.0,0.0,1.0,1.1771576E8,1.1771576E8,1.17715776E8,1.17715776E8,1.17715824E8,1.17715856E8,63.991837,-22.605425,-9999.0,0.0,0.424,180.01839,0.0,0.0,0.0,0.0,0.0,389.08878,1.193444,12.0,40.0,0.0,0.0,0.0,0.0,0.0,0.0,0.0,282.89813,0.0,0.0,0.0,0.0,0.0
-0.571429,0.0,0.0,0.0,0.0,0.0,1.0,1.1771576E8,1.1771576E8,1.17715776E8,1.17715776E8,1.17715824E8,1.17715856E8,63.991837,-22.605425,-9999.0,0.0,0.424,180.01839,0.0,0.0,0.0,0.0,0.0,389.08878,1.193444,12.0,40.0,0.0,0.0,0.0,0.0,0.0,0.0,0.0,282.89813,0.0,0.0,0.0,0.0,0.0
-0.571429,0.0,0.0,0.0,0.0,0.0,1.0,1.1771576E8,1.1771576E8,1.17715776E8,1.17715776E8,1.17715824E8,1.17715856E8,63.991837,-22.605425,-9999.0,0.0,0.424,180.01839,0.0,0.0,0.0,0.0,0.0,389.08878,1.193444,12.0,40.0,0.0,0.0,0.0,0.0,0.0,0.0,0.0,282.89813,0.0,0.0,0.0,0.0,0.0
-0.571429,0.0,0.0,0.0,0.0,0.0,1.0,1.1771576E8,1.1771576E8,1.17715776E8,1.17715776E8,1.17715824E8,1.17715856E8,63.991837,-22.605425,-9999.0,0.0,0.424,180.01839,0.0,0.0,0.0,0.0,0.0,389.08878,1.193444,12.0,40.0,0.0,0.0,0.0,0.0,0.0,0.0,0.0,282.89813,0.0,0.0,0.0,0.0,0.0
-0.571429,0.0,0.0,0.0,0.0,0.0,1.0,1.1771576E8,1.1771576E8,1.17715776E8,1.17715776E8,1.17715824E8,1.17715856E8,63.991837,-22.605425,-9999.0,0.0,0.424,180.01839,0.0,0.0,0.0,0.0,0.0,389.08878,1.193444,12.0,40.0,0.0,0.0,0.0,0.0,0.0,0.0,0.0,282.89813,0.0,0.0,0.0,0.0,0.0
-0.571429,0.0,0.0,0.0,0.0,0.0,1.0,1.1771576E8,1.1771576E8,1.17715776E8,1.17715776E8,1.17715824E8,1.17715856E8,63.991837,-22.605425,-9999.0,0.0,0.424,180.01839,0.0,0.0,0.0,0.0,0.0,389.08878,1.193444,12.0,40.0,0.0,0.0,0.0,0.0,0.0,0.0,0.0,282.89813,0.0,0.0,0.0,0.0,0.0
-0.571429,0.0,0.0,0.0,0.0,0.0,1.0,1.1771576E8,1.1771576E8,1.17715776E8,1.17715776E8,1.17715824E8,1.17715856E8,63.991837,-22.605425,-9999.0,0.0,0.424,180.01839,0.0,0.0,0.0,0.0,0.0,389.08878,1.193444,12.0,40.0,0.0,0.0,0.0,0.0,0.0,0.0,0.0,282.89813,0.0,0.0,0.0,0.0,0.0
-0.571429,0.0,0.0,0.0,0.0,0.0,1.0,1.1771576E8,1.1771576E8,1.17715776E8,1.17715776E8,1.17715824E8,1.17715856E8,63.991837,-22.605425,-9999.0,0.0,0.424,180.01839,0.0,0.0,0.0,0.0,0.0,389.08878,1.193444,12.0,40.0,0.0,0.0,0.0,0.0,0.0,0.0,0.0,282.89813,0.0,0.0,0.0,0.0,0.0
-0.571429,0.0,0.0,0.0,0.0,0.0,1.0,1.1771576E8,1.1771576E8,1.17715776E8,1.17715776E8,1.17715824E8,1.17715856E8,63.991837,-22.605425,-9999.0,0.0,0.424,180.01839,0.0,0.0,0.0,0.0,0.0,389.08878,1.193444,12.0,40.0,0.0,0.0,0.0,0.0,0.0,0.0,0.0,282.89813,0.0,0.0,0.0,0.0,0.0
-0.571429,0.0,0.0,0.0,0.0,0.0,1.0,1.1771576E8,1.1771576E8,1.17715776E8,1.17715776E8,1.17715824E8,1.17715856E8,63.991837,-22.605425,-9999.0,0.0,0.424,180.01839,0.0,0.0,0.0,0.0,0.0,389.08878,1.193444,12.0,40.0,0.0,0.0,0.0,0.0,0.0,0.0,0.0,282.89813,0.0,0.0,0.0,0.0,0.0
-0.571429,0.0,0.0,0.0,0.0,0.0,1.0,1.1771576E8,1.1771576E8,1.17715776E8,1.17715776E8,1.17715824E8,1.17715856E8,63.991837,-22.605425,-9999.0,0.0,0.424,180.01839,0.0,0.0,0.0,0.0,0.0,389.08878,1.193444,12.0,40.0,0.0,0.0,0.0,0.0,0.0,0.0,0.0,282.89813,0.0,0.0,0.0,0.0,0.0
-0.571429,0.0,0.0,0.0,0.0,0.0,1.0,1.1771576E8,1.1771576E8,1.17715776E8,1.17715776E8,1.17715824E8,1.17715856E8,63.991837,-22.605425,-9999.0,0.0,0.424,180.01839,0.0,0.0,0.0,0.0,0.0,389.08878,1.193444,12.0,40.0,0.0,0.0,0.0,0.0,0.0,0.0,0.0,282.89813,0.0,0.0,0.0,0.0,0.0
-0.571429,0.0,0.0,0.0,0.0,0.0,1.0,1.1771576E8,1.1771576E8,1.17715776E8,1.17715776E8,1.17715824E8,1.17715856E8,63.991837,-22.605425,-9999.0,0.0,0.424,180.01839,0.0,0.0,0.0,0.0,0.0,389.08878,1.193444,12.0,40.0,0.0,0.0,0.0,0.0,0.0,0.0,0.0,282.89813,0.0,0.0,0.0,0.0,0.0
-0.571429,0.0,0.0,0.0,0.0,0.0,1.0,1.1771576E8,1.1771576E8,1.17715776E8,1.17715776E8,1.17715824E8,1.17715856E8,63.991837,-22.605425,-9999.0,0.0,0.424,180.01839,0.0,0.0,0.0,0.0,0.0,389.08878,1.193444,12.0,40.0,0.0,0.0,0.0,0.0,0.0,0.0,0.0,282.89813,0.0,0.0,0.0,0.0,0.0
-0.571429,0.0,0.0,0.0,0.0,0.0,1.0,1.1771576E8,1.1771576E8,1.17715776E8,1.17715776E8,1.17715824E8,1.17715856E8,63.991837,-22.605425,-9999.0,0.0,0.424,180.01839,0.0,0.0,0.0,0.0,0.0,389.08878,1.193444,12.0,40.0,0.0,0.0,0.0,0.0,0.0,0.0,0.0,282.89813,0.0,0.0,0.0,0.0,0.0
-0.571429,0.0,0.0,0.0,0.0,0.0,1.0,1.1771576E8,1.1771576E8,1.17715776E8,1.17715776E8,1.17715824E8,1.17715856E8,63.991837,-22.605425,-9999.0,0.0,0.424,180.01839,0.0,0.0,0.0,0.0,0.0,389.08878,1.193444,12.0,40.0,0.0,0.0,0.0,0.0,0.0,0.0,0.0,282.89813,0.0,0.0,0.0,0.0,0.0
-0.571429,0.0,0.0,0.0,0.0,0.0,1.0,1.1771576E8,1.1771576E8,1.17715776E8,1.17715776E8,1.17715824E8,1.17715856E8,63.991837,-22.605425,-9999.0,0.0,0.424,180.01839,0.0,0.0,0.0,0.0,0.0,389.08878,1.193444,12.0,40.0,0.0,0.0,0.0,0.0,0.0,0.0,0.0,282.89813,0.0,0.0,0.0,0.0,0.0
-0.571429,0.0,0.0,0.0,0.0,0.0,1.0,1.1771576E8,1.1771576E8,1.17715776E8,1.17715776E8,1.17715824E8,1.17715856E8,63.991837,-22.605425,-9999.0,0.0,0.424,180.01839,0.0,0.0,0.0,0.0,0.0,389.08878,1.193444,12.0,40.0,0.0,0.0,0.0,0.0,0.0,0.0,0.0,282.89813,0.0,0.0,0.0,0.0,0.0
-0.571429,0.0,0.0,0.0,0.0,0.0,0.0,1.1771576E8,1.1771576E8,1.17715776E8,1.17715776E8,1.17715824E8,1.17715856E8,63.991837,-22.605427,146.2295,0.104764,4.952322,180.01332,0.0,0.0,0.0,0.0,0.0,389.08878,1.193444,12.0,40.0,0.0,0.0,0.0,0.0,0.0,0.0,0.0,282.89813,0.0,0.0,0.0,0.0,0.0
-0.571429,0.0,0.0,0.0,0.0,0.0,1.0,1.1771576E8,1.1771576E8,1.17715776E8,1.17715776E8,1.17715824E8,1.17715856E8,63.991837,-22.605427,146.2293,0.093543,4.971404,180.01245,89.863174,3.012,-0.069164,-1.76E-4,0.0,536.8417,148.94633,12.0,40.0,0.0,0.0,140.00014,140.0,146.2293,1.25E-4,-0.019792,282.89807,356.89465,-0.006013,-0.487915,3948.154,0.0
-0.571429,0.0,0.0,0.0,0.0,0.0,0.0,1.1771576E8,1.1771576E8,1.17715776E8,1.17715776E8,1.17715824E8,1.17715856E8,63.991837,-22.605427,146.22954,0.092768,4.951406,180.01236,83.883064,2.733585,0.080017,1.9E-5,0.0,510.12122,122.225876,12.0,40.0,0.0,0.0,120.000145,120.0,146.22954,1.02E-4,0.002281,282.89807,329.5176,-0.01236,-1.280883,2397.4902,0.0
-0.571429,0.0,0.0,0.0,0.0,0.0,1.0,1.1771576E8,1.1771576E8,1.17715776E8,1.17715776E8,1.17715824E8,1.17715856E8,63.991837,-22.605427,146.22954,0.092948,4.951027,180.01237,82.73165,2.690585,0.055864,8.0E-6,4.518755,506.22617,118.33081,12.0,40.0,0.0,0.0,120.000145,120.0,146.22954,9.9E-5,8.05E-4,282.89807,322.74673,-0.012931,-1.378553,2108.4688,0.0
-0.571429,0.0,0.0,0.0,0.0,0.0,0.0,1.1771576E8,1.1771576E8,1.17715776E8,1.17715776E8,1.17715824E8,1.17715856E8,63.991837,-22.605427,146.22952,0.094895,4.951147,180.01253,78.33518,2.547204,-0.060157,-5.0E-6,0.047238,488.66492,100.76956,12.0,40.0,0.0,0.0,100.000145,100.0,146.22952,8.8E-5,-5.37E-4,282.89807,295.141,-0.014494,-1.666259,785.383,0.0
-0.571429,0.0,0.0,0.0,0.0,0.0,1.0,1.1771576E8,1.1771576E8,1.17715776E8,1.17715776E8,1.17715824E8,1.17715856E8,63.991837,-22.605427,146.22949,0.097691,4.952005,180.01276,70.23895,2.353082,-0.111157,-4.0E-6,0.0,461.70395,73.80862,12.0,40.0,0.0,0.0,70.000145,70.0,146.22949,7.2E-5,-3.02E-4,282.89807,244.2146,-0.016084,-1.982023,-759.12134,0.0
-0.571429,0.0,0.0,0.0,0.0,0.0,0.0,1.1771576E8,1.1771576E8,1.17715776E8,1.17715776E8,1.17715824E8,1.17715856E8,63.991837,-22.605427,146.22949,0.097784,4.952029,180.01276,69.000755,2.32996,-0.139783,-1.0E-5,6.008711,459.616,71.72064,12.0,40.0,0.0,0.0,70.000145,70.0,146.22949,7.1E-5,-6.37E-4,282.89807,236.89223,-0.016198,-2.015496,-789.5123,0.0
-0.571429,0.0,0.0,0.0,0.0,0.0,0.0,1.1771576E8,1.1771576E8,1.17715776E8,1.17715776E8,1.17715824E8,1.17715856E8,63.991837,-22.605427,146.22949,0.097873,4.952052,180.01277,68.21455,2.316068,-0.134167,-1.2E-5,6.851676,457.7146,69.81926,12.0,40.0,0.0,0.0,70.000145,70.0,146.22949,6.9E-5,-7.04E-4,282.89807,232.33308,-0.016251,-2.03531,-848.81836,0.0
-0.571429,0.0,0.0,0.0,0.0,0.0,0.0,1.1771576E8,1.1771576E8,1.17715776E8,1.17715776E8,1.17715824E8,1.17715856E8,63.991837,-22.605427,146.22949,0.098033,4.952098,180.01279,67.098114,2.29736,-0.1242,-1.4E-5,7.233535,454.607,66.71164,12.0,40.0,0.0,0.0,70.000145,70.0,146.22949,6.8E-5,-0.00104,282.89807,225.98622,-0.016352,-2.061695,-944.9678,0.0
-0.571429,0.0,0.0,0.0,0.0,0.0,0.0,1.1771576E8,1.1771576E8,1.17715776E8,1.17715776E8,1.17715824E8,1.17715856E8,63.991837,-22.605427,146.22948,0.098193,4.952147,180.0128,66.1268,2.282025,-0.120552,-1.5E-5,7.388865,451.85867,63.96332,12.0,40.0,0.0,0.0,70.000145,70.0,146.22948,6.6E-5,-0.00104,282.89807,220.59045,-0.016425,-2.083114,-1016.8574,0.0
-0.571429,0.0,0.0,0.0,0.0,0.0,0.0,1.1771576E8,1.1771576E8,1.17715776E8,1.17715776E8,1.17715824E8,1.17715856E8,63.991837,-22.605427,146.22948,0.098366,4.952204,180.0128,65.14255,2.267352,-0.117636,-1.6E-5,7.447739,449.05453,61.15919,12.0,40.0,0.0,0.0,60.00014,60.0,146.22948,6.5E-5,-0.001174,282.89807,215.2461,-0.016494,-2.103488,-1080.5148,0.0
-0.571429,0.0,0.0,0.0,0.0,0.0,0.0,1.1771576E8,1.1771576E8,1.17715776E8,1.17715776E8,1.17715824E8,1.17715856E8,63.991837,-22.605427,146.22948,0.098546,4.952264,180.01282,64.14568,2.253355,-0.115117,-1.6E-5,7.468133,446.23074,58.33541,12.0,40.0,0.0,0.0,60.00014,60.0,146.22948,6.4E-5,-0.001208,282.89807,209.9627,-0.016562,-2.122865,-1136.0767,0.0
-0.571429,0.0,0.0,0.0,0.0,0.0,0.0,1.1771576E8,1.1771576E8,1.17715776E8,1.17715776E8,1.17715824E8,1.17715856E8,63.991837,-22.605427,146.22948,0.098731,4.952326,180.01283,63.136593,2.240047,-0.112875,-1.6E-5,7.476725,443.40005,55.504696,12.0,40.0,0.0,0.0,60.00014,60.0,146.22948,6.3E-5,-0.001208,282.89807,204.74956,-0.016626,-2.141296,-1184.6842,0.0
-0.571429,0.0,0.0,0.0,0.0,0.0,0.0,1.1771576E8,1.1771576E8,1.17715776E8,1.17715776E8,1.17715824E8,1.17715856E8,63.991837,-22.605427,146.22948,0.098917,4.952389,180.01285,62.115704,2.227441,-0.110691,-1.5E-5,7.48076,440.5669,52.671535,12.0,40.0,0.0,0.0,60.00014,60.0,146.22948,6.1E-5,-0.001208,282.89807,199.6156,-0.016689,-2.158826,-1227.4913,0.0
-0.571429,0.0,0.0,0.0,0.0,0.0,0.0,1.1771576E8,1.1771576E8,1.17715776E8,1.17715776E8,1.17715824E8,1.17715856E8,63.991837,-22.605427,146.22948,0.099101,4.952452,180.01286,61.08346,2.215549,-0.108437,-1.5E-5,7.483216,437.73285,49.8375,12.0,40.0,0.0,0.0,50.00014,50.0,146.22948,6.0E-5,-0.001241,282.89807,194.56943,-0.016748,-2.175499,-1265.4604,0.0
-0.571429,0.0,0.0,0.0,0.0,0.0,0.0,1.1771576E8,1.1771576E8,1.17715776E8,1.17715776E8,1.17715824E8,1.17715856E8,63.991837,-22.605427,146.22948,0.099283,4.952513,180.01288,60.040375,2.204383,-0.105679,-1.4E-5,7.485008,434.8985,47.003147,12.0,40.0,0.0,0.0,50.00014,50.0,146.22948,5.9E-5,-0.001141,282.89807,189.6193,-0.016806,-2.191357,-1299.358,0.0
-0.571429,0.0,0.0,0.0,0.0,0.0,0.0,1.1771576E8,1.1771576E8,1.17715776E8,1.17715776E8,1.17715824E8,1.17715856E8,63.991837,-22.605427,146.22946,0.099463,4.952574,180.0129,58.98697,2.193954,-0.099829,-1.3E-5,7.466282,431.9992,44.103867,12.0,40.0,0.0,0.0,50.00014,50.0,146.22946,5.8E-5,-0.001208,282.89807,184.77312,-0.01686,-2.20644,-1332.627,0.0
-0.571429,0.0,0.0,0.0,0.0,0.0,0.0,1.1771576E8,1.1771576E8,1.17715776E8,1.17715776E8,1.17715824E8,1.17715856E8,63.991837,-22.605427,146.22946,0.099637,4.952632,180.01291,57.92381,2.184273,-0.099256,-1.3E-5,7.536179,429.20667,41.311333,12.0,40.0,0.0,0.0,40.00014,40.0,146.22946,5.7E-5,-0.00104,282.89807,180.03842,-0.016913,-2.220787,-1357.9175,0.0
-0.571429,0.0,0.0,0.0,0.0,0.0,0.0,1.1771576E8,1.1771576E8,1.17715776E8,1.17715776E8,1.17715824E8,1.17715856E8,63.991837,-22.605427,146.22946,0.099806,4.952689,180.01292,56.851517,2.175351,-0.095722,-1.2E-5,7.567852,426.3869,38.491554,12.0,40.0,0.0,0.0,40.00014,40.0,146.22946,5.5E-5,-0.001006,282.89807,175.42241,-0.016964,-2.234432,-1382.0687,0.0
-0.571429,0.0,0.0,0.0,0.0,0.0,0.0,1.1771576E8,1.1771576E8,1.17715776E8,1.17715776E8,1.17715824E8,1.17715856E8,63.991837,-22.605427,146.22946,0.099969,4.952743,180.01294,55.77073,2.167196,-0.091476,-1.1E-5,7.582782,423.55753,35.662178,12.0,40.0,0.0,0.0,40.00014,40.0,146.22946,5.4E-5,-9.39E-4,282.89807,170.93185,-0.017012,-2.24741,-1404.4513,0.0
-0.571429,0.0,0.0,0.0,0.0,0.0,0.0,1.1771576E8,1.1771576E8,1.17715776E8,1.17715776E8,1.17715824E8,1.17715856E8,63.991837,-22.605427,146.22946,0.100128,4.952795,180.01295,54.682125,2.159817,-0.086817,-1.0E-5,7.592546,420.72476,32.82941,12.0,40.0,0.0,0.0,40.00014,40.0,146.22946,5.3E-5,-8.72E-4,282.89807,166.57318,-0.017058,-2.259754,-1425.0068,0.0
-0.571429,0.0,0.0,0.0,0.0,0.0,0.0,1.1771576E8,1.1771576E8,1.17715776E8,1.17715776E8,1.17715824E8,1.17715856E8,63.991837,-22.605427,146.22946,0.100281,4.952845,180.01295,53.586414,2.153224,-0.081346,-9.0E-6,7.600081,417.89078,29.995441,12.0,40.0,0.0,0.0,30.000143,30.0,146.22946,5.2E-5,-8.05E-4,282.89807,162.3524,-0.017103,-2.271495,-1443.8488,0.0
-0.571429,0.0,0.0,0.0,0.0,0.0,0.0,1.1771576E8,1.1771576E8,1.17715776E8,1.17715776E8,1.17715824E8,1.17715856E8,63.991837,-22.605427,146.22946,0.100428,4.952892,180.01297,52.484333,2.147422,-0.075465,-8.0E-6,7.606867,415.0564,27.161037,12.0,40.0,0.0,0.0,30.000143,30.0,146.22946,5.1E-5,-8.05E-4,282.89807,158.27516,-0.017145,-2.282662,-1461.1305,0.0
-0.571429,0.0,0.0,0.0,0.0,0.0,0.0,1.1771576E8,1.1771576E8,1.17715776E8,1.17715776E8,1.17715824E8,1.17715856E8,63.991837,-22.605427,146.22946,0.10057,4.952938,180.01299,51.376648,2.142419,-0.068816,-7.0E-6,7.613449,412.2218,24.32647,12.0,40.0,0.0,0.0,30.000143,30.0,146.22946,5.0E-5,-7.38E-4,282.89807,154.3467,-0.017186,-2.293283,-1477.0032,0.0
-0.571429,0.0,0.0,0.0,0.0,0.0,0.0,1.1771576E8,1.1771576E8,1.17715776E8,1.17715776E8,1.17715824E8,1.17715856E8,63.991837,-22.605427,146.22946,0.100706,4.952981,180.013,50.264156,2.138219,-0.061212,-6.0E-6,7.620012,409.38718,21.491835,12.0,40.0,0.0,0.0,20.000143,20.0,146.22946,4.9E-5,-6.04E-4,282.89807,150.57182,-0.017225,-2.303385,-1491.6044,0.0
-0.571429,0.0,0.0,0.0,0.0,0.0,0.0,1.1771576E8,1.1771576E8,1.17715776E8,1.17715776E8,1.17715824E8,1.17715856E8,63.991837,-22.605427,146.22945,0.100838,4.953022,180.013,49.147663,2.134829,-0.052991,-5.0E-6,7.626624,406.55252,18.657164,12.0,40.0,0.0,0.0,20.000143,20.0,146.22945,4.8E-5,-5.37E-4,282.89807,146.95499,-0.017263,-2.312994,-1505.0563,0.0
-0.571429,0.0,0.0,0.0,0.0,0.0,0.0,1.1771576E8,1.1771576E8,1.17715776E8,1.17715776E8,1.17715824E8,1.17715856E8,63.991837,-22.605427,146.22945,0.100963,4.953061,180.01302,48.028004,2.132252,-0.04414,-4.0E-6,7.633352,403.7178,15.82247,12.0,40.0,0.0,0.0,20.000143,20.0,146.22945,4.7E-5,-4.7E-4,282.89807,143.50024,-0.017299,-2.322133,-1517.4664,0.0
-0.571429,0.0,0.0,0.0,0.0,0.0,0.0,1.1771576E8,1.1771576E8,1.17715776E8,1.17715776E8,1.17715824E8,1.17715856E8,63.991837,-22.605427,146.22945,0.101084,4.953098,180.01303,46.906017,2.130491,-0.033904,-3.0E-6,7.640117,400.88312,12.987758,12.0,40.0,0.0,0.0,20.000143,20.0,146.22945,4.6E-5,-4.03E-4,282.89807,140.2112,-0.017333,-2.330825,-1528.9299,0.0
-0.571429,0.0,0.0,0.0,0.0,0.0,0.0,1.1771576E8,1.1771576E8,1.17715776E8,1.17715776E8,1.17715824E8,1.17715856E8,63.991837,-22.605427,146.22945,0.101199,4.953133,180.01303,45.78257,2.129548,-0.02237,-2.0E-6,7.646966,398.04837,10.153028,12.0,40.0,0.0,0.0,10.000142,10.0,146.22945,4.5E-5,-4.03E-4,282.89807,137.09111,-0.017366,-2.339093,-1539.5312,0.0
-0.571429,0.0,0.0,0.0,0.0,0.0,0.0,1.1771576E8,1.1771576E8,1.17715776E8,1.17715776E8,1.17715824E8,1.17715856E8,63.991837,-22.605427,146.22945,0.101309,4.953166,180.01305,44.658512,2.129424,-0.009967,-1.0E-6,7.653944,395.21362,7.318283,12.0,40.0,0.0,0.0,10.000142,10.0,146.22945,4.4E-5,-3.35E-4,282.89807,134.14279,-0.017398,-2.346956,-1549.3451,0.0
-0.571429,0.0,0.0,0.0,0.0,0.0,0.0,1.1771576E8,1.1771576E8,1.17715776E8,1.17715776E8,1.17715824E8,1.17715856E8,63.991837,-22.605427,146.22945,0.101414,4.953197,180.01305,43.534714,2.13012,0.004112,0.0,7.660915,392.37888,4.483521,12.0,40.0,0.0,0.0,10.000142,10.0,146.22945,4.4E-5,-2.68E-4,282.89807,131.3687,-0.017428,-2.354436,-1558.4384,0.0
-0.571429,0.0,0.0,0.0,0.0,0.0,0.0,1.1771576E8,1.1771576E8,1.17715776E8,1.17715776E8,1.17715824E8,1.17715856E8,63.991837,-22.605427,146.22945,0.101515,4.953225,180.01306,42.41204,2.131634,0.019441,1.0E-6,7.668016,389.5441,1.648742,12.0,40.0,0.0,0.0,1.42E-4,0.0,146.22945,4.3E-5,-2.01E-4,282.89807,128.77086,-0.017457,-2.361549,-1566.8711,0.0
-0.571429,0.0,0.0,0.0,0.0,0.0,0.0,1.1771576E8,1.1771576E8,1.17715776E8,1.17715776E8,1.17715824E8,1.17715856E8,63.991837,-22.605427,146.22945,0.10161,4.953252,180.01306,41.29135,2.133966,0.036529,2.0E-6,7.675249,386.7649,-1.130467,12.0,40.0,0.0,0.0,1.42E-4,0.0,146.22945,4.2E-5,-1.34E-4,282.89807,126.35094,-0.017485,-2.368315,-1574.697,0.0
-0.571429,0.0,0.0,0.0,0.0,0.0,0.0,1.1771576E8,1.1771576E8,1.17715776E8,1.17715776E8,1.17715824E8,1.17715856E8,63.991837,-22.605427,146.22945,0.101701,4.953277,180.01308,40.17349,2.137113,0.055508,4.0E-6,7.682422,384.06293,-3.832421,12.0,40.0,0.0,0.0,1.42E-4,0.0,146.22945,4.1E-5,-6.7E-5,282.89807,124.110214,-0.017512,-2.374751,-1581.9648,0.0
-0.571429,0.0,0.0,0.0,0.0,0.0,0.0,1.1771576E8,1.1771576E8,1.17715776E8,1.17715776E8,1.17715824E8,1.17715856E8,63.991837,-22.605427,146.22945,0.101788,4.9533,180.01308,39.059296,2.14107,0.076524,5.0E-6,7.689823,381.36096,-6.53439,12.0,40.0,0.0,0.0,1.42E-4,0.0,146.22945,4.0E-5,0.0,282.89807,122.04956,-0.017537,-2.380872,-1588.7185,0.0
-0.571429,0.0,0.0,0.0,0.0,0.0,0.0,1.1771576E8,1.1771576E8,1.17715776E8,1.17715776E8,1.17715824E8,1.17715856E8,63.991837,-22.605427,146.22945,0.10187,4.953321,180.01309,37.94959,2.145835,0.099893,6.0E-6,7.697258,378.65897,-9.236376,12.0,40.0,0.0,0.0,-9.999858,-10.0,146.22945,3.9E-5,1.01E-4,282.89807,120.1695,-0.017561,-2.386693,-1594.9977,0.0
-0.571429,0.0,0.0,0.0,0.0,0.0,0.0,1.1771576E8,1.1771576E8,1.17715776E8,1.17715776E8,1.17715824E8,1.17715856E8,63.991837,-22.605427,146.22945,0.101942,4.95334,180.01309,36.936985,2.150906,0.114639,6.0E-6,7.755803,376.15814,-11.737202,12.0,40.0,0.0,0.0,-9.999858,-10.0,146.22945,3.9E-5,4.03E-4,282.89807,118.60489,-0.017584,-2.39178,-1601.3617,0.0
-0.571429,0.0,0.0,0.0,0.0,0.0,0.0,1.1771576E8,1.1771576E8,1.17715776E8,1.17715776E8,1.17715824E8,1.17715856E8,63.991837,-22.605427,146.22945,0.102016,4.953357,180.0131,35.838097,2.157201,0.151508,8.0E-6,7.697055,373.47168,-14.42367,12.0,40.0,0.0,0.0,-9.999858,-10.0,146.22945,3.8E-5,2.01E-4,282.89807,117.07107,-0.017605,-2.397069,-1606.1361,0.0
-0.571429,0.0,0.0,0.0,0.0,0.0,0.0,1.1771576E8,1.1771576E8,1.17715776E8,1.17715776E8,1.17715824E8,1.17715856E8,63.991837,-22.605427,146.22945,0.102091,4.953375,180.0131,34.655277,2.164911,0.184712,9.0E-6,7.720303,370.5555,-17.339825,12.0,40.0,0.0,0.0,-9.999858,-10.0,146.22945,3.7E-5,3.69E-4,282.89807,115.61255,-0.017626,-2.402507,-1611.1738,0.0
-0.571429,0.0,0.0,0.0,0.0,0.0,0.0,1.1771576E8,1.1771576E8,1.17715776E8,1.17715776E8,1.17715824E8,1.17715856E8,63.991837,-22.605427,146.22945,0.102157,4.95339,180.0131,33.571274,2.172841,0.220855,1.0E-5,7.729358,367.85178,-20.043556,12.0,40.0,0.0,0.0,-19.999857,-20.0,146.22945,3.6E-5,3.69E-4,282.89807,114.45276,-0.017646,-2.407271,-1615.9653,0.0
-0.571429,0.0,0.0,0.0,0.0,0.0,0.0,1.1771576E8,1.1771576E8,1.17715776E8,1.17715776E8,1.17715824E8,1.17715856E8,63.991837,-22.605427,146.22945,0.10222,4.953403,180.01312,32.49551,2.181544,0.251743,1.1E-5,7.805097,364.98712,-22.90823,12.0,40.0,0.0,0.0,-19.999857,-20.0,146.22945,3.6E-5,4.36E-4,282.89807,113.47076,-0.017665,-2.411803,-1626.909,0.0
-0.571429,0.0,0.0,0.0,0.0,0.0,0.0,1.1771576E8,1.1771576E8,1.17715776E8,1.17715776E8,1.17715824E8,1.17715856E8,63.991837,-22.605427,146.22946,0.102274,4.953413,180.01312,31.517159,2.190192,0.276681,1.2E-5,7.560704,362.46103,-25.434319,12.0,40.0,0.0,0.0,-19.999857,-20.0,146.22946,3.5E-5,7.38E-4,282.89807,112.72544,-0.017684,-2.415762,-1632.1499,0.0
-0.571429,0.0,0.0,0.0,0.0,0.0,0.0,1.1771576E8,1.1771576E8,1.17715776E8,1.17715776E8,1.17715824E8,1.17715856E8,63.991837,-22.605427,146.22946,0.10233,4.953423,180.01312,30.45894,2.200348,0.342048,1.3E-5,7.569886,359.86545,-28.029894,12.0,40.0,0.0,0.0,-29.999857,-30.0,146.22946,3.4E-5,5.03E-4,282.89807,112.07954,-0.017701,-2.419879,-1631.165,0.0
-0.571429,0.0,0.0,0.0,0.0,0.0,0.0,1.1771576E8,1.1771576E8,1.17715776E8,1.17715776E8,1.17715824E8,1.17715856E8,63.991837,-22.605427,146.22946,0.102385,4.953432,180.01312,29.323895,2.21219,0.39476,1.5E-5,7.685801,356.9919,-30.903433,12.0,40.0,0.0,0.0,-29.999857,-30.0,146.22946,3.4E-5,7.04E-4,282.89807,111.57418,-0.017717,-2.424112,-1632.6809,0.0
-0.571429,0.0,0.0,0.0,0.0,0.0,0.0,1.1771576E8,1.1771576E8,1.17715776E8,1.17715776E8,1.17715824E8,1.17715856E8,63.991837,-22.605427,146.22946,0.102433,4.953439,180.01314,28.287218,2.223885,0.454504,1.6E-5,7.73504,354.32257,-33.57276,12.0,40.0,0.0,0.0,-29.999857,-30.0,146.22946,3.3E-5,6.71E-4,282.89807,111.28446,-0.017733,-2.42782,-1634.6469,0.0
-0.571429,0.0,0.0,0.0,0.0,0.0,0.0,1.1771576E8,1.1771576E8,1.17715776E8,1.17715776E8,1.17715824E8,1.17715856E8,63.991837,-22.605427,146.22946,0.102478,4.953444,180.01314,27.261686,2.2363,0.507795,1.7E-5,7.709694,351.55106,-36.34428,12.0,40.0,0.0,0.0,-29.999857,-30.0,146.22946,3.2E-5,8.05E-4,282.89807,111.16157,-0.017748,-2.431348,-1640.4508,0.0
-0.571429,0.0,0.0,0.0,0.0,0.0,0.0,1.1771576E8,1.1771576E8,1.17715776E8,1.17715776E8,1.17715824E8,1.17715856E8,63.991837,-22.605427,146.22946,0.102519,4.953448,180.01314,26.247755,2.249424,0.570758,1.8E-5,7.722452,348.8546,-39.04072,12.0,40.0,0.0,0.0,-39.99986,-40.0,146.22946,3.2E-5,8.72E-4,282.89807,111.20245,-0.017762,-2.434703,-1642.9783,0.0
-0.571429,0.0,0.0,0.0,0.0,0.0,0.0,1.1771576E8,1.1771576E8,1.17715776E8,1.17715776E8,1.17715824E8,1.17715856E8,63.991837,-22.605427,146.22946,0.102558,4.953451,180.01314,25.24586,2.263245,0.626278,1.9E-5,7.712776,346.19974,-41.695606,12.0,40.0,0.0,0.0,-39.99986,-40.0,146.22946,3.1E-5,0.001107,282.89807,111.40378,-0.017775,-2.437894,-1643.6638,0.0
-0.571429,0.0,0.0,0.0,0.0,0.0,0.0,1.1771576E8,1.1771576E8,1.17715776E8,1.17715776E8,1.17715824E8,1.17715856E8,63.991837,-22.605427,146.22946,0.102582,4.953452,180.01315,24.584812,2.27284,0.656257,1.9E-5,7.75198,344.30893,-43.58641,12.0,40.0,0.0,0.0,-39.99986,-40.0,146.22946,3.1E-5,0.001208,282.89807,111.62537,-0.017784,-2.439934,-1648.8564,0.0
-0.571429,0.0,0.0,0.0,0.0,0.0,0.0,1.1771576E8,1.1771576E8,1.17715776E8,1.17715776E8,1.17715824E8,1.17715856E8,63.991837,-22.605427,146.22946,0.102624,4.953452,180.01315,23.360586,2.291636,0.755082,2.1E-5,7.658177,340.94315,-46.952198,12.0,40.0,0.0,0.0,-39.99986,-40.0,146.22946,3.0E-5,0.001241,282.89807,112.224846,-0.0178,-2.443581,-1650.9391,0.0
-0.571429,0.0,0.0,0.0,0.0,0.0,0.0,1.1771576E8,1.1771576E8,1.17715776E8,1.17715776E8,1.17715824E8,1.17715856E8,63.991837,-22.605427,146.22946,0.102657,4.953451,180.01315,22.316076,2.30876,0.844977,2.3E-5,7.737724,338.08127,-49.81408,12.0,40.0,0.0,0.0,-49.99986,-50.0,146.22946,2.9E-5,0.001073,282.89807,112.93343,-0.017811,-2.446562,-1650.555,0.0
-0.571429,0.0,0.0,0.0,0.0,0.0,0.0,1.1771576E8,1.1771576E8,1.17715776E8,1.17715776E8,1.17715824E8,1.17715856E8,63.991837,-22.605427,146.22948,0.102685,4.953448,180.01315,21.365818,2.325238,0.913308,2.4E-5,7.797802,335.40887,-52.486473,12.0,40.0,0.0,0.0,-49.99986,-50.0,146.22948,2.9E-5,0.001141,282.89807,113.73841,-0.017822,-2.449173,-1651.4457,0.0
-0.571429,0.0,0.0,0.0,0.0,0.0,0.0,1.1771576E8,1.1771576E8,1.17715776E8,1.17715776E8,1.17715824E8,1.17715856E8,63.991837,-22.605427,146.22948,0.102708,4.953445,180.01315,20.506687,2.340899,0.958961,2.5E-5,7.828426,332.92163,-54.973713,12.0,40.0,0.0,0.0,-49.99986,-50.0,146.22948,2.8E-5,0.001543,282.89807,114.59965,-0.017832,-2.451455,-1653.6864,0.0
-0.571429,0.0,0.0,0.0,0.0,0.0,0.0,1.1771576E8,1.1771576E8,1.17715776E8,1.17715776E8,1.17715824E8,1.17715856E8,63.991837,-22.605427,146.22948,0.102731,4.953441,180.01315,19.582691,2.358575,0.979805,2.6E-5,7.827841,330.23648,-57.65888,12.0,40.0,0.0,0.0,-59.99986,-60.0,146.22948,2.8E-5,0.001342,282.89807,115.6694,-0.01784,-2.453827,-1654.8652,0.0
-0.571429,0.0,0.0,0.0,0.0,0.0,0.0,1.1771576E8,1.1771576E8,1.17715776E8,1.17715776E8,1.17715824E8,1.17715856E8,63.991837,-22.605427,146.22948,0.102763,4.953438,180.01315,18.597542,2.378406,0.835003,2.7E-5,7.819287,327.26764,-60.627716,12.0,40.0,0.0,0.0,-59.99986,-60.0,146.22948,2.7E-5,0.001577,282.89807,116.97621,-0.017845,-2.456267,-1658.3624,0.0
-0.571429,0.0,0.0,0.0,0.0,0.0,0.0,1.1771576E8,1.1771576E8,1.17715776E8,1.17715776E8,1.17715824E8,1.17715856E8,63.991837,-22.605427,146.22948,0.102801,4.953441,180.01317,17.702827,2.397326,0.766904,2.9E-5,7.831674,324.59814,-63.297188,12.0,40.0,0.0,0.0,-59.99986,-60.0,146.22948,2.6E-5,0.001342,282.89807,118.31368,-0.017852,-2.458404,-1658.6173,0.0
-0.571429,0.0,0.0,0.0,0.0,0.0,0.0,1.1771576E8,1.1771576E8,1.17715776E8,1.17715776E8,1.17715824E8,1.17715856E8,63.991837,-22.605427,146.22948,0.102839,4.953447,180.01317,16.968061,2.413534,0.714868,3.0E-5,7.903127,322.25345,-65.641884,12.0,40.0,0.0,0.0,-59.99986,-60.0,146.22948,2.6E-5,0.001442,282.89807,119.52064,-0.017858,-2.460105,-1663.5219,0.0
-0.571429,0.0,0.0,0.0,0.0,0.0,0.0,1.1771576E8,1.1771576E8,1.17715776E8,1.17715776E8,1.17715824E8,1.17715856E8,63.991837,-22.605427,146.22949,0.102898,4.953459,180.01317,15.955975,2.436882,0.698696,3.1E-5,7.732137,319.11746,-68.7779,12.0,40.0,0.0,0.0,-69.999855,-70.0,146.22949,2.5E-5,0.001476,282.89807,121.34533,-0.017869,-2.46237,-1664.1426,0.0
-0.571429,0.0,0.0,0.0,0.0,0.0,0.0,1.1771576E8,1.1771576E8,1.17715776E8,1.17715776E8,1.17715824E8,1.17715856E8,63.991837,-22.605427,146.22949,0.102951,4.953469,180.01317,15.103953,2.45749,0.697995,3.3E-5,7.833085,316.47595,-71.419395,12.0,40.0,0.0,0.0,-69.999855,-70.0,146.22949,2.5E-5,0.001476,282.89807,123.02882,-0.017878,-2.464209,-1662.9247,0.0
-0.571429,0.0,0.0,0.0,0.0,0.0,0.0,1.1771576E8,1.1771576E8,1.17715776E8,1.17715776E8,1.17715824E8,1.17715856E8,63.991837,-22.605427,146.22949,0.103006,4.953479,180.01318,14.266248,2.478634,0.702252,3.4E-5,7.878808,313.795,-74.10034,12.0,40.0,0.0,0.0,-69.999855,-70.0,146.22949,2.4E-5,0.00161,282.89807,124.816765,-0.017887,-2.465958,-1663.3126,0.0
-0.571429,0.0,0.0,0.0,0.0,0.0,0.0,1.1771576E8,1.1771576E8,1.17715776E8,1.17715776E8,1.17715824E8,1.17715856E8,63.991837,-22.605427,146.22949,0.103053,4.953486,180.01318,13.579088,2.496654,0.709621,3.5E-5,7.898662,311.54977,-76.34556,12.0,40.0,0.0,0.0,-69.999855,-70.0,146.22949,2.4E-5,0.00161,282.89807,126.38247,-0.017893,-2.46735,-1664.046,0.0
-0.571429,0.0,0.0,0.0,0.0,0.0,0.0,1.1771576E8,1.1771576E8,1.17715776E8,1.17715776E8,1.17715824E8,1.17715856E8,63.991837,-22.605427,146.22949,0.103122,4.953495,180.01318,12.633722,2.522475,0.719421,3.7E-5,7.784814,308.31964,-79.5757,12.0,40.0,0.0,0.0,-79.999855,-80.0,146.22949,2.3E-5,0.001744,282.89807,128.6835,-0.017905,-2.469204,-1668.1246,0.0
-0.571429,0.0,0.0,0.0,0.0,0.0,0.0,1.1771576E8,1.1771576E8,1.17715776E8,1.17715776E8,1.17715824E8,1.17715856E8,63.991837,-22.605427,146.2295,0.103181,4.953498,180.0132,11.838818,2.545145,0.73598,3.8E-5,7.878185,305.67053,-82.22482,12.0,40.0,0.0,0.0,-79.999855,-80.0,146.2295,2.3E-5,0.001845,282.89807,130.75082,-0.017915,-2.470709,-1666.9298,0.0
-0.571429,0.0,0.0,0.0,0.0,0.0,0.0,1.1771576E8,1.1771576E8,1.17715776E8,1.17715776E8,1.17715824E8,1.17715856E8,63.991837,-22.605427,146.2295,0.103241,4.953499,180.0132,11.058067,2.568296,0.74896,3.9E-5,7.919747,302.98685,-84.90849,12.0,40.0,0.0,0.0,-79.999855,-80.0,146.2295,2.3E-5,0.001912,282.89807,132.89972,-0.017924,-2.472141,-1667.1451,0.0
-0.571429,0.0,0.0,0.0,0.0,0.0,0.0,1.1771576E8,1.1771576E8,1.17715776E8,1.17715776E8,1.17715824E8,1.17715856E8,63.991837,-22.605427,146.2295,0.103301,4.953498,180.0132,10.291377,2.591917,0.76037,4.1E-5,7.941528,300.29102,-87.60433,12.0,40.0,0.0,0.0,-89.999855,-90.0,146.2295,2.2E-5,0.001979,282.89807,135.12428,-0.017934,-2.473502,-1667.8131,0.0
-0.571429,0.0,0.0,0.0,0.0,0.0,0.0,1.1771576E8,1.1771576E8,1.17715776E8,1.17715776E8,1.17715824E8,1.17715856E8,63.991837,-22.605427,146.2295,0.103361,4.953493,180.01321,9.538636,2.615995,0.770759,4.2E-5,7.955595,297.59088,-90.30446,12.0,40.0,0.0,0.0,-89.999855,-90.0,146.2295,2.2E-5,0.002013,282.89807,137.41861,-0.017943,-2.474797,-1668.599,0.0
-0.571429,0.0,0.0,0.0,0.0,0.0,0.0,1.1771576E8,1.1771576E8,1.17715776E8,1.17715776E8,1.17715824E8,1.17715856E8,63.991837,-22.605427,146.22952,0.103422,4.953485,180.01321,8.831536,2.631093,0.690629,3.8E-5,7.964967,294.88922,-93.00611,12.0,40.0,0.0,0.0,-89.999855,-90.0,146.22952,2.1E-5,0.002113,282.89807,139.7768,-0.017953,-2.476029,-1669.3877,0.0
-0.571429,0.0,0.0,0.0,0.0,0.0,0.0,1.1771576E8,1.1771576E8,1.17715776E8,1.17715776E8,1.17715824E8,1.17715856E8,63.991837,-22.605427,146.22952,0.103493,4.953475,180.01321,8.194521,2.626766,0.432033,2.6E-5,7.965893,292.18704,-95.70831,12.0,40.0,0.0,0.0,-89.999855,-90.0,146.22952,2.1E-5,0.00161,282.89807,142.19289,-0.01796,-2.4772,-1670.1411,0.0
-0.571429,0.0,0.0,0.0,0.0,0.0,0.0,1.1771576E8,1.1771576E8,1.17715776E8,1.17715776E8,1.17715824E8,1.17715856E8,63.991837,-22.605427,146.22952,0.103579,4.953465,180.01323,7.555443,2.622764,0.265223,1.8E-5,7.966529,289.48462,-98.41071,12.0,40.0,0.0,0.0,-99.999855,-100.0,146.22952,2.0E-5,0.00104,282.89807,144.66095,-0.017968,-2.478314,-1670.8484,0.0
-0.571429,0.0,0.0,0.0,0.0,0.0,0.0,1.1771576E8,1.1771576E8,1.17715776E8,1.17715776E8,1.17715824E8,1.17715856E8,63.991837,-22.605427,146.22952,0.103678,4.953457,180.01323,6.91443,2.619089,0.165617,1.2E-5,7.966878,286.78217,-101.1132,12.0,40.0,0.0,0.0,-99.999855,-100.0,146.22952,2.0E-5,6.71E-4,282.89807,147.17506,-0.017978,-2.479374,-1671.5077,0.0
-0.571429,0.0,0.0,0.0,0.0,0.0,0.0,1.1771576E8,1.1771576E8,1.17715776E8,1.17715776E8,1.17715824E8,1.17715856E8,63.991837,-22.605427,146.22952,0.103785,4.953449,180.01324,6.271642,2.615743,0.104806,8.0E-6,7.967164,284.07962,-103.81572,12.0,40.0,0.0,0.0,-99.999855,-100.0,146.22952,2.0E-5,4.7E-4,282.89807,149.72935,-0.017989,-2.480382,-1672.1204,0.0
-0.571429,0.0,0.0,0.0,0.0,0.0,0.0,1.1771576E8,1.1771576E8,1.17715776E8,1.17715776E8,1.17715824E8,1.17715856E8,63.991837,-22.605427,146.22952,0.103898,4.953442,180.01324,5.627243,2.612726,0.066275,5.0E-6,7.967411,281.37708,-106.518265,12.0,40.0,0.0,0.0,-99.999855,-100.0,146.22952,1.9E-5,2.01E-4,282.89807,152.31793,-0.018002,-2.481341,-1672.6887,0.0
-0.571429,0.0,0.0,0.0,0.0,0.0,0.0,1.1771576E8,1.1771576E8,1.17715776E8,1.17715776E8,1.17715824E8,1.17715856E8,63.991837,-22.605427,146.22952,0.104014,4.953433,180.01326,4.981395,2.610042,0.041945,4.0E-6,7.967631,278.6745,-109.22083,12.0,40.0,0.0,0.0,-109.999855,-110.0,146.22952,1.9E-5,1.34E-4,282.89807,154.93501,-0.018016,-2.482253,-1673.2155,0.0
-0.571429,0.0,0.0,0.0,0.0,0.0,0.0,1.1771576E8,1.1771576E8,1.17715776E8,1.17715776E8,1.17715824E8,1.17715856E8,63.991837,-22.605427,146.22952,0.104133,4.953423,180.01328,4.334264,2.607689,0.026685,2.0E-6,7.967828,275.97192,-111.923416,12.0,40.0,0.0,0.0,-109.999855,-110.0,146.22952,1.8E-5,1.34E-4,282.89807,157.57484,-0.018031,-2.48312,-1673.7031,0.0
-0.571429,0.0,0.0,0.0,0.0,0.0,0.0,1.1771576E8,1.1771576E8,1.17715776E8,1.17715776E8,1.17715824E8,1.17715856E8,63.991837,-22.605427,146.22952,0.104253,4.953411,180.01328,3.686014,2.60567,0.017762,2.0E-6,7.968003,273.26932,-114.626015,12.0,40.0,0.0,0.0,-109.999855,-110.0,146.22952,1.8E-5,0.0,282.89807,160.23174,-0.018047,-2.483945,-1674.1542,0.0
-0.571429,0.0,0.0,0.0,0.0,0.0,0.0,1.1771576E8,1.1771576E8,1.17715776E8,1.17715776E8,1.17715824E8,1.17715856E8,63.991837,-22.605427,146.22952,0.104374,4.953398,180.01329,3.036812,2.603985,0.013369,1.0E-6,7.968152,270.5667,-117.32863,12.0,40.0,0.0,0.0,-109.999855,-110.0,146.22952,1.8E-5,-6.7E-5,282.89807,162.90009,-0.018063,-2.48473,-1674.5709,0.0
-0.571429,0.0,0.0,0.0,0.0,0.0,0.0,1.1771576E8,1.1771576E8,1.17715776E8,1.17715776E8,1.17715824E8,1.17715856E8,63.991837,-22.605427,146.22952,0.104495,4.953382,180.01329,2.386824,2.602634,0.012085,1.0E-6,7.968282,267.86407,-120.03126,12.0,40.0,0.0,0.0,-119.999855,-120.0,146.22952,1.7E-5,-3.4E-5,282.89807,165.57439,-0.01808,-2.485476,-1674.9554,0.0
-0.571429,0.0,0.0,0.0,0.0,0.0,0.0,1.1771576E8,1.1771576E8,1.17715776E8,1.17715776E8,1.17715824E8,1.17715856E8,63.991837,-22.605427,146.22952,0.104616,4.953364,180.0133,1.736218,2.601619,0.013156,1.0E-6,7.96839,265.16144,-122.73391,12.0,40.0,0.0,0.0,-119.999855,-120.0,146.22952,1.7E-5,-3.4E-5,282.89807,168.24924,-0.018098,-2.486186,-1675.3097,0.0
-0.571429,0.0,0.0,0.0,0.0,0.0,0.0,1.1771576E8,1.1771576E8,1.17715776E8,1.17715776E8,1.17715824E8,1.17715856E8,63.991837,-22.605427,146.22952,0.104736,4.953344,180.01332,1.08516,2.60094,0.01585,1.0E-6,7.968475,262.45877,-125.43657,12.0,40.0,0.0,0.0,-119.999855,-120.0,146.22952,1.7E-5,0.0,282.89807,170.9193,-0.018115,-2.486861,-1675.6357,0.0
-0.571429,0.0,0.0,0.0,0.0,0.0,0.0,1.1771576E8,1.1771576E8,1.17715776E8,1.17715776E8,1.17715824E8,1.17715856E8,63.991837,-22.605427,146.22952,0.104855,4.953322,180.01332,0.433821,2.600596,0.019785,2.0E-6,7.968539,259.7561,-128.13925,12.0,40.0,0.0,0.0,-129.99986,-130.0,146.22952,1.6E-5,3.4E-5,282.89807,173.5794,-0.018133,-2.487503,-1675.9353,0.0
-0.571429,0.0,0.0,0.0,0.0,0.0,0.0,1.1771576E8,1.1771576E8,1.17715776E8,1.17715776E8,1.17715824E8,1.17715856E8,63.991837,-22.605427,146.22952,0.104974,4.953297,180.01334,-0.217632,2.600588,0.024599,2.0E-6,7.96858,257.0534,-130.84195,12.0,40.0,0.0,0.0,-129.99986,-130.0,146.22952,1.6E-5,1.34E-4,282.89807,176.22446,-0.018152,-2.488114,-1676.2101,0.0
-0.571429,0.0,0.0,0.0,0.0,0.0,0.0,1.1771576E8,1.1771576E8,1.17715776E8,1.17715776E8,1.17715824E8,1.17715856E8,63.991837,-22.605427,146.22952,0.105091,4.953276,180.01335,-0.869034,2.600912,0.028683,2.0E-6,7.968599,254.3507,-133.54466,12.0,40.0,0.0,0.0,-129.99986,-130.0,146.22952,1.6E-5,1.01E-4,282.89807,178.84953,-0.01817,-2.488694,-1676.4615,0.0
-0.571429,0.0,0.0,0.0,0.0,0.0,0.0,1.1771576E8,1.1771576E8,1.17715776E8,1.17715776E8,1.17715824E8,1.17715856E8,63.991837,-22.605427,146.22952,0.105208,4.953265,180.01335,-1.520212,2.601572,0.032495,3.0E-6,7.968595,251.64796,-136.24738,12.0,40.0,0.0,0.0,-129.99986,-130.0,146.22952,1.5E-5,6.7E-5,282.89807,181.44981,-0.018189,-2.489247,-1676.6912,0.0
-0.571429,0.0,0.0,0.0,0.0,0.0,0.0,1.1771576E8,1.1771576E8,1.17715776E8,1.17715776E8,1.17715824E8,1.17715856E8,63.991837,-22.605427,146.22952,0.105323,4.953265,180.01337,-2.170999,2.602568,0.036617,3.0E-6,7.968569,248.94522,-138.95012,12.0,40.0,0.0,0.0,-139.99986,-140.0,146.22952,1.5E-5,0.0,282.89807,184.02065,-0.018208,-2.489773,-1676.9004,0.0
-0.571429,0.0,0.0,0.0,0.0,0.0,0.0,1.1771576E8,1.1771576E8,1.17715776E8,1.17715776E8,1.17715824E8,1.17715856E8,63.991837,-22.605427,146.22952,0.105439,4.953272,180.01337,-2.821226,2.6039,0.040236,3.0E-6,8.002748,246.20293,-141.69241,12.0,40.0,0.0,0.0,-139.99986,-140.0,146.22952,1.5E-5,3.4E-5,282.89807,186.55753,-0.018225,-2.490272,-1678.6287,0.0
-0.571429,0.0,0.0,0.0,0.0,0.0,0.0,1.1771576E8,1.1771576E8,1.17715776E8,1.17715776E8,1.17715824E8,1.17715856E8,63.991837,-22.605427,146.22952,0.105553,4.953285,180.01338,-3.470727,2.605569,0.047705,4.0E-6,7.944382,243.52577,-144.36957,12.0,40.0,0.0,0.0,-139.99986,-140.0,146.22952,1.5E-5,0.0,282.89807,189.05609,-0.018244,-2.490748,-1677.7156,0.0
-0.571429,0.0,0.0,0.0,0.0,0.0,0.0,1.1771576E8,1.1771576E8,1.17715776E8,1.17715776E8,1.17715824E8,1.17715856E8,63.991837,-22.605427,146.22952,0.105667,4.9533,180.0134,-4.119336,2.607573,0.054321,4.0E-6,7.960128,240.832,-147.06334,12.0,40.0,0.0,0.0,-139.99986,-140.0,146.22952,1.4E-5,3.4E-5,282.89807,191.51216,-0.018264,-2.4912,-1677.4941,0.0
-0.571429,0.0,0.0,0.0,0.0,0.0,0.0,1.1771576E8,1.1771576E8,1.17715776E8,1.17715776E8,1.17715824E8,1.17715856E8,63.991837,-22.605427,146.22952,0.105781,4.953317,180.0134,-4.766887,2.609911,0.061413,5.0E-6,7.965108,238.13237,-149.76297,12.0,40.0,0.0,0.0,-149.99986,-150.0,146.22952,1.4E-5,6.7E-5,282.89807,193.92169,-0.018283,-2.49163,-1677.5062,0.0
-0.571429,0.0,0.0,0.0,0.0,0.0,0.0,1.1771576E8,1.1771576E8,1.17715776E8,1.17715776E8,1.17715824E8,1.17715856E8,63.991837,-22.605427,146.22952,0.105895,4.953334,180.01341,-5.41322,2.612582,0.068714,6.0E-6,7.967044,235.43066,-152.46468,12.0,40.0,0.0,0.0,-149.99986,-150.0,146.22952,1.4E-5,6.7E-5,282.89807,196.28087,-0.018302,-2.492039,-1677.5908,0.0
-0.571429,0.0,0.0,0.0,0.0,0.0,0.0,1.1771576E8,1.1771576E8,1.17715776E8,1.17715776E8,1.17715824E8,1.17715856E8,63.991837,-22.605427,146.22952,0.106009,4.953351,180.01341,-6.058174,2.615586,0.076365,6.0E-6,7.967568,232.72823,-155.16713,12.0,40.0,0.0,0.0,-149.99986,-150.0,146.22952,1.3E-5,6.7E-5,282.89807,198.58597,-0.018321,-2.492428,-1677.692,0.0
-0.571429,0.0,0.0,0.0,0.0,0.0,0.0,1.1771576E8,1.1771576E8,1.17715776E8,1.17715776E8,1.17715824E8,1.17715856E8,63.991837,-22.605427,146.22952,0.106123,4.953366,180.01343,-6.701591,2.618921,0.083995,7.0E-6,7.967642,230.02551,-157.86984,12.0,40.0,0.0,0.0,-159.99986,-160.0,146.22952,1.3E-5,1.01E-4,282.89807,200.83354,-0.018341,-2.492798,-1677.7906,0.0
-0.571429,0.0,0.0,0.0,0.0,0.0,0.0,1.1771576E8,1.1771576E8,1.17715776E8,1.17715776E8,1.17715824E8,1.17715856E8,63.991837,-22.605427,146.22952,0.106236,4.95338,180.01344,-7.343313,2.622585,0.091897,7.0E-6,7.967531,227.3227,-160.57266,12.0,40.0,0.0,0.0,-159.99986,-160.0,146.22952,1.3E-5,2.01E-4,282.89807,203.02025,-0.01836,-2.49315,-1677.8805,0.0
-0.571429,0.0,0.0,0.0,0.0,0.0,0.0,1.1771576E8,1.1771576E8,1.17715776E8,1.17715776E8,1.17715824E8,1.17715856E8,63.991837,-22.605427,146.22952,0.10635,4.953392,180.01344,-7.98319,2.626577,0.100392,8.0E-6,7.96734,224.61983,-163.27553,12.0,40.0,0.0,0.0,-159.99986,-160.0,146.22952,1.3E-5,2.01E-4,282.89807,205.14296,-0.018379,-2.493485,-1677.9598,0.0
-0.571429,0.0,0.0,0.0,0.0,0.0,0.0,1.1771576E8,1.1771576E8,1.17715776E8,1.17715776E8,1.17715824E8,1.17715856E8,63.991837,-22.605427,146.22952,0.106465,4.953401,180.01346,-8.621063,2.630897,0.10795,9.0E-6,7.927571,221.87424,-166.0211,12.0,40.0,0.0,0.0,-159.99986,-160.0,146.22952,1.2E-5,3.02E-4,282.89807,207.19876,-0.018398,-2.493803,-1679.6528,0.0
-0.571429,0.0,0.0,0.0,0.0,0.0,0.0,1.1771576E8,1.1771576E8,1.17715776E8,1.17715776E8,1.17715824E8,1.17715856E8,63.991837,-22.605427,146.22952,0.106579,4.953409,180.01346,-9.256801,2.635541,0.116382,9.0E-6,7.940576,219.19899,-168.69635,12.0,40.0,0.0,0.0,-169.99986,-170.0,146.22952,1.2E-5,3.69E-4,282.89807,209.18489,-0.018418,-2.494106,-1678.5425,0.0
-0.571429,0.0,0.0,0.0,0.0,0.0,0.0,1.1771576E8,1.1771576E8,1.17715776E8,1.17715776E8,1.17715824E8,1.17715856E8,63.991837,-22.605427,146.22952,0.106694,4.953414,180.01347,-9.890243,2.640509,0.124345,1.0E-5,7.957417,216.5058,-171.38956,12.0,40.0,0.0,0.0,-169.99986,-170.0,146.22952,1.2E-5,3.35E-4,282.89807,211.0988,-0.018438,-2.494394,-1678.1869,0.0
-0.571429,0.0,0.0,0.0,0.0,0.0,0.0,1.1771576E8,1.1771576E8,1.17715776E8,1.17715776E8,1.17715824E8,1.17715856E8,63.991837,-22.605427,146.22952,0.106808,4.953417,180.01349,-10.521251,2.645799,0.13204,1.1E-5,7.962854,213.80627,-174.08907,12.0,40.0,0.0,0.0,-169.99986,-170.0,146.22952,1.2E-5,3.69E-4,282.89807,212.93813,-0.018457,-2.494668,-1678.0911,0.0
-0.571429,0.0,0.0,0.0,0.0,0.0,0.0,1.1771576E8,1.1771576E8,1.17715776E8,1.17715776E8,1.17715824E8,1.17715856E8,63.991837,-22.605427,146.22954,0.106923,4.953418,180.01349,-11.14969,2.651408,0.139319,1.1E-5,7.964722,211.10452,-176.79083,12.0,40.0,0.0,0.0,-169.99986,-170.0,146.22954,1.1E-5,4.36E-4,282.89807,214.7007,-0.018477,-2.494929,-1678.0808,0.0
-0.571429,0.0,0.0,0.0,0.0,0.0,0.0,1.1771576E8,1.1771576E8,1.17715776E8,1.17715776E8,1.17715824E8,1.17715856E8,63.991837,-22.605427,146.22954,0.107039,4.953416,180.0135,-11.775422,2.657336,0.146819,1.2E-5,7.96514,208.40196,-179.49338,12.0,40.0,0.0,0.0,-179.99986,-180.0,146.22954,1.1E-5,4.7E-4,282.89807,216.38455,-0.018497,-2.495176,-1678.0953,0.0
-0.571429,0.0,0.0,0.0,0.0,0.0,0.0,1.1771576E8,1.1771576E8,1.17715776E8,1.17715776E8,1.17715824E8,1.17715856E8,63.991837,-22.605427,146.22954,0.107154,4.953413,180.0135,-12.39832,2.663579,0.154068,1.3E-5,7.96504,205.69911,-182.19623,12.0,40.0,0.0,0.0,-179.99986,-180.0,146.22954,1.1E-5,5.03E-4,282.89807,217.98792,-0.018516,-2.495412,-1678.1134,0.0
-0.571429,0.0,0.0,0.0,0.0,0.0,0.0,1.1771576E8,1.1771576E8,1.17715776E8,1.17715776E8,1.17715824E8,1.17715856E8,63.991837,-22.605427,146.22954,0.107271,4.953406,180.01352,-13.018254,2.670137,0.161221,1.3E-5,7.964736,202.99615,-184.89919,12.0,40.0,0.0,0.0,-179.99986,-180.0,146.22954,1.1E-5,5.7E-4,282.89807,219.5092,-0.018536,-2.495636,-1678.1279,0.0
-0.571429,0.0,0.0,0.0,0.0,0.0,0.0,1.1771576E8,1.1771576E8,1.17715776E8,1.17715776E8,1.17715824E8,1.17715856E8,63.991837,-22.605427,146.22954,0.107388,4.953398,180.01353,-13.635102,2.677011,0.167774,1.4E-5,7.964351,200.29315,-187.60219,12.0,40.0,0.0,0.0,-189.99986,-190.0,146.22954,1.1E-5,5.37E-4,282.89807,220.94702,-0.018556,-2.49585,-1678.1368,0.0
-0.571429,0.0,0.0,0.0,0.0,0.0,0.0,1.1771576E8,1.1771576E8,1.17715776E8,1.17715776E8,1.17715824E8,1.17715856E8,63.991837,-22.605427,146.22954,0.107505,4.953387,180.01353,-14.248746,2.684194,0.174386,1.5E-5,7.963922,197.59012,-190.30522,12.0,40.0,0.0,0.0,-189.99986,-190.0,146.22954,1.0E-5,6.37E-4,282.89807,222.3002,-0.018576,-2.496053,-1678.1396,0.0
-0.571429,0.0,0.0,0.0,0.0,0.0,0.0,1.1771576E8,1.1771576E8,1.17715776E8,1.17715776E8,1.17715824E8,1.17715856E8,63.991837,-22.605427,146.22954,0.107623,4.953373,180.01355,-14.859071,2.691683,0.18108,1.5E-5,7.963464,194.88707,-193.00829,12.0,40.0,0.0,0.0,-189.99986,-190.0,146.22954,1.0E-5,6.71E-4,282.89807,223.5677,-0.018596,-2.496245,-1678.1362,0.0
-0.571429,0.0,0.0,0.0,0.0,0.0,0.0,1.1771576E8,1.1771576E8,1.17715776E8,1.17715776E8,1.17715824E8,1.17715856E8,63.991837,-22.605427,146.22954,0.107741,4.953358,180.01355,-15.465964,2.699476,0.187549,1.6E-5,7.962977,192.18399,-195.71135,12.0,40.0,0.0,0.0,-189.99986,-190.0,146.22954,1.0E-5,6.71E-4,282.89807,224.74875,-0.018616,-2.496429,-1678.127,0.0
-0.571429,0.0,0.0,0.0,0.0,0.0,0.0,1.1771576E8,1.1771576E8,1.17715776E8,1.17715776E8,1.17715824E8,1.17715856E8,63.991837,-22.605427,146.22954,0.10786,4.95334,180.01357,-16.069323,2.707571,0.193354,1.7E-5,7.962474,189.4809,-198.41444,12.0,40.0,0.0,0.0,-199.99986,-200.0,146.22954,1.0E-5,7.38E-4,282.89807,225.84268,-0.018636,-2.496603,-1678.1122,0.0
-0.571429,0.0,0.0,0.0,0.0,0.0,0.0,1.1771576E8,1.1771576E8,1.17715776E8,1.17715776E8,1.17715824E8,1.17715856E8,63.991837,-22.605427,146.22954,0.10798,4.953319,180.01358,-16.669043,2.715964,0.199169,1.7E-5,7.961946,186.7778,-201.11755,12.0,40.0,0.0,0.0,-199.99986,-200.0,146.22954,1.0E-5,8.72E-4,282.89807,226.84909,-0.018656,-2.496769,-1678.0923,0.0
-0.571429,0.0,0.0,0.0,0.0,0.0,0.0,1.1771576E8,1.1771576E8,1.17715776E8,1.17715776E8,1.17715824E8,1.17715856E8,63.991837,-22.605427,146.22954,0.108101,4.953296,180.01358,-17.265028,2.724654,0.194817,1.7E-5,7.993497,184.03761,-203.85773,12.0,40.0,0.0,0.0,-199.99986,-200.0,146.22954,9.0E-6,0.001073,282.89807,227.7677,-0.018674,-2.496927,-1679.5,0.0
-0.571429,0.0,0.0,0.0,0.0,0.0,0.0,1.1771576E8,1.1771576E8,1.17715776E8,1.17715776E8,1.17715824E8,1.17715856E8,63.991837,-22.605427,146.22954,0.108202,4.953275,180.0136,-17.758757,2.732119,0.200998,1.8E-5,7.979211,181.76405,-206.1313,12.0,40.0,0.0,0.0,-199.99986,-200.0,146.22954,9.0E-6,0.001107,282.89807,228.46606,-0.018687,-2.497053,-1680.2264,0.0
-0.571429,0.0,0.0,0.0,0.0,0.0,0.0,1.1771576E8,1.1771576E8,1.17715776E8,1.17715776E8,1.17715824E8,1.17715856E8,63.991837,-22.605427,146.22955,0.108345,4.953242,180.01361,-18.445425,2.74291,0.212921,1.9E-5,7.915895,178.64835,-209.247,12.0,40.0,0.0,0.0,-209.99986,-210.0,146.22955,9.0E-6,0.001006,282.89807,229.34137,-0.018713,-2.49722,-1678.5406,0.0
-0.571429,0.0,0.0,0.0,0.0,0.0,0.0,1.1771576E8,1.1771576E8,1.17715776E8,1.17715776E8,1.17715824E8,1.17715856E8,63.991837,-22.605427,146.22955,0.108468,4.953212,180.01361,-19.029663,2.75247,0.21975,2.0E-5,7.947529,175.95816,-211.93718,12.0,40.0,0.0,0.0,-209.99986,-210.0,146.22955,9.0E-6,0.001006,282.89807,229.99681,-0.018734,-2.497356,-1677.9683,0.0
-0.571429,0.0,0.0,0.0,0.0,0.0,0.0,1.1771576E8,1.1771576E8,1.17715776E8,1.17715776E8,1.17715824E8,1.17715856E8,63.991837,-22.605427,146.22955,0.10857,4.953185,180.01363,-19.513412,2.760655,0.223891,2.1E-5,7.95338,173.70961,-214.18573,12.0,40.0,0.0,0.0,-209.99986,-210.0,146.22955,9.0E-6,9.73E-4,282.89807,230.47647,-0.018747,-2.497464,-1677.7745,0.0
-0.571429,0.0,0.0,0.0,0.0,0.0,0.0,1.1771576E8,1.1771576E8,1.17715776E8,1.17715776E8,1.17715824E8,1.17715856E8,63.991837,-22.605427,146.22955,0.108705,4.953147,180.01363,-20.13799,2.771588,0.220026,2.0E-5,7.974679,170.73355,-217.16179,12.0,40.0,0.0,0.0,-209.99986,-210.0,146.22955,8.0E-6,0.001375,282.89807,231.01021,-0.018775,-2.497598,-1679.5548,0.0
-0.571429,0.0,0.0,0.0,0.0,0.0,0.0,1.1771576E8,1.1771576E8,1.17715776E8,1.17715776E8,1.17715824E8,1.17715856E8,63.991837,-22.605427,146.22955,0.108826,4.953112,180.01364,-20.710209,2.78197,0.237979,2.1E-5,7.959887,168.02812,-219.86722,12.0,40.0,0.0,0.0,-219.99986,-220.0,146.22955,8.0E-6,0.001442,282.89807,231.41348,-0.018798,-2.497715,-1679.4825,0.0
-0.571429,0.0,0.0,0.0,0.0,0.0,0.0,1.1771576E8,1.1771576E8,1.17715776E8,1.17715776E8,1.17715824E8,1.17715856E8,63.991837,-22.605427,146.22955,0.10893,4.953082,180.01366,-21.230978,2.791729,0.264602,2.2E-5,7.926933,165.5625,-222.33284,12.0,40.0,0.0,0.0,-219.99986,-220.0,146.22955,8.0E-6,0.001308,282.89807,231.70859,-0.018811,-2.497818,-1678.8684,0.0
-0.571429,0.0,0.0,0.0,0.0,0.0,0.0,1.1771576E8,1.1771576E8,1.17715776E8,1.17715776E8,1.17715824E8,1.17715856E8,63.991837,-22.605427,146.22955,0.109054,4.95305,180.01366,-21.888466,2.80448,0.287443,2.2E-5,7.924502,162.40779,-225.48755,12.0,40.0,0.0,0.0,-219.99986,-220.0,146.22955,8.0E-6,0.001342,282.89807,231.98227,-0.018839,-2.497942,-1678.7435,0.0
-0.571429,0.0,0.0,0.0,0.0,0.0,0.0,1.1771576E8,1.1771576E8,1.17715776E8,1.17715776E8,1.17715824E8,1.17715856E8,63.991837,-22.605427,146.22955,0.109147,4.953027,180.01367,-22.40084,2.814756,0.308067,2.3E-5,7.910277,159.94104,-227.95432,12.0,40.0,0.0,0.0,-229.99986,-230.0,146.22955,8.0E-6,0.001141,282.89807,232.11842,-0.018859,-2.498034,-1678.1807,0.0
-0.571429,0.0,0.0,0.0,0.0,0.0,0.0,1.1771576E8,1.1771576E8,1.17715776E8,1.17715776E8,1.17715824E8,1.17715856E8,63.991837,-22.605427,146.22957,0.109245,4.953004,180.01367,-22.955505,2.826222,0.323973,2.4E-5,7.936155,157.25728,-230.63808,12.0,40.0,0.0,0.0,-229.99986,-230.0,146.22957,8.0E-6,0.001107,282.89807,232.18907,-0.018877,-2.49813,-1677.3362,0.0
-0.571429,0.0,0.0,0.0,0.0,0.0,0.0,1.1771576E8,1.1771576E8,1.17715776E8,1.17715776E8,1.17715824E8,1.17715856E8,63.991837,-22.605427,146.22957,0.10935,4.952981,180.01369,-23.551296,2.838941,0.317957,2.3E-5,7.909957,154.34486,-233.55048,12.0,40.0,0.0,0.0,-229.99986,-230.0,146.22957,7.0E-6,0.001543,282.89807,232.17558,-0.018895,-2.498229,-1676.6534,0.0
-0.571429,0.0,0.0,0.0,0.0,0.0,0.0,1.1771576E8,1.1771576E8,1.17715776E8,1.17715776E8,1.17715824E8,1.17715856E8,63.991837,-22.605427,146.22957,0.109445,4.95296,180.01369,-24.096487,2.850951,0.346188,2.5E-5,7.956314,151.63795,-236.25739,12.0,40.0,0.0,0.0,-229.99986,-230.0,146.22957,7.0E-6,0.001208,282.89807,232.08174,-0.018915,-2.498316,-1676.7845,0.0
-0.571429,0.0,0.0,0.0,0.0,0.0,0.0,1.1771576E8,1.1771576E8,1.17715776E8,1.17715776E8,1.17715824E8,1.17715856E8,63.991837,-22.605427,146.22957,0.109541,4.95294,180.0137,-24.637081,2.863219,0.354123,2.6E-5,7.953111,148.93336,-238.96199,12.0,40.0,0.0,0.0,-239.99986,-240.0,146.22957,7.0E-6,0.001174,282.89807,231.91156,-0.018934,-2.498398,-1676.811,0.0
-0.571429,0.0,0.0,0.0,0.0,0.0,0.0,1.1771576E8,1.1771576E8,1.17715776E8,1.17715776E8,1.17715824E8,1.17715856E8,63.991837,-22.605427,146.22957,0.109621,4.952923,180.0137,-25.084032,2.873635,0.359767,2.6E-5,7.951998,146.68018,-241.21516,12.0,40.0,0.0,0.0,-239.99986,-240.0,146.22957,7.0E-6,0.001208,282.89807,231.71275,-0.018947,-2.498464,-1676.8018,0.0
-0.571429,0.0,0.0,0.0,0.0,0.0,0.0,1.1771576E8,1.1771576E8,1.17715776E8,1.17715776E8,1.17715824E8,1.17715856E8,63.991837,-22.605427,146.22957,0.109725,4.952901,180.01372,-25.660221,2.887334,0.365129,2.7E-5,6.121037,144.42055,-243.4748,12.0,40.0,0.0,0.0,-239.99986,-240.0,146.22957,7.0E-6,0.001308,282.89807,231.37881,-0.01897,-2.498545,-1650.1654,0.0
-0.571429,0.0,0.0,0.0,0.0,0.0,0.0,1.1771576E8,1.1771576E8,1.17715776E8,1.17715776E8,1.17715824E8,1.17715856E8,63.991837,-22.605427,146.22958,0.109822,4.95288,180.01372,-26.187193,2.900187,0.369914,2.7E-5,4.200314,143.68655,-244.2088,12.0,40.0,0.0,0.0,-239.99986,-240.0,146.22958,7.0E-6,0.001342,282.89807,230.99692,-0.018986,-2.498616,-1572.1477,0.0
-0.571429,0.0,0.0,0.0,0.0,0.0,0.0,1.1771576E8,1.1771576E8,1.17715776E8,1.17715776E8,1.17715824E8,1.17715856E8,63.991837,-22.605427,146.22958,0.109921,4.952858,180.01373,-26.709436,2.913281,0.358281,2.7E-5,3.243648,143.42223,-244.47313,12.0,40.0,0.0,0.0,-239.99986,-240.0,146.22958,7.0E-6,0.001711,282.89807,230.54654,-0.019004,-2.498683,-1475.2208,0.0
-0.571429,0.0,0.0,0.0,0.0,0.0,0.0,1.1771576E8,1.1771576E8,1.17715776E8,1.17715776E8,1.17715824E8,1.17715856E8,63.991837,-22.605427,146.22958,0.110028,4.952834,180.01373,-27.269848,2.927737,0.373889,2.8E-5,2.796802,143.31873,-244.57663,12.0,40.0,0.0,0.0,-239.99986,-240.0,146.22958,7.0E-6,0.00151,282.89807,229.98395,-0.019022,-2.498753,-1362.4749,0.0
-0.571429,0.0,0.0,0.0,0.0,0.0,0.0,1.1771576E8,1.1771576E8,1.17715776E8,1.17715776E8,1.17715824E8,1.17715856E8,63.991837,-22.605427,146.22958,0.11012,4.952813,180.01375,-27.739677,2.940185,0.362897,2.8E-5,2.653608,143.28307,-244.61227,12.0,40.0,0.0,0.0,-239.99986,-240.0,146.22958,6.0E-6,0.001946,282.89807,229.4494,-0.01904,-2.498809,-1264.7275,0.0
-0.571429,0.0,0.0,0.0,0.0,0.0,0.0,1.1771576E8,1.1771576E8,1.17715776E8,1.17715776E8,1.17715824E8,1.17715856E8,63.991837,-22.605427,146.22958,0.11023,4.952787,180.01375,-28.28974,2.955148,0.380594,3.0E-5,2.583114,143.26178,-244.63358,12.0,40.0,0.0,0.0,-239.99986,-240.0,146.22958,6.0E-6,0.001543,282.89807,228.75119,-0.019058,-2.498872,-1148.19,0.0
-0.571429,0.0,0.0,0.0,0.0,0.0,0.0,1.1771576E8,1.1771576E8,1.17715776E8,1.17715776E8,1.17715824E8,1.17715856E8,63.991837,-22.605427,146.22958,0.110332,4.952763,180.01376,-28.7925,2.969199,0.371138,2.9E-5,2.560513,143.24918,-244.64618,12.0,40.0,0.0,0.0,-239.99986,-240.0,146.22958,6.0E-6,0.001811,282.89807,228.0454,-0.019075,-2.498927,-1040.2439,0.0
-0.571429,0.0,0.0,0.0,0.0,0.0,0.0,1.1771576E8,1.1771576E8,1.17715776E8,1.17715776E8,1.17715824E8,1.17715856E8,63.991837,-22.605427,146.2296,0.110428,4.95274,180.01376,-29.249142,2.982276,0.384089,3.1E-5,2.550026,143.23975,-244.6556,12.0,40.0,0.0,0.0,-239.99986,-240.0,146.2296,6.0E-6,0.001644,282.89807,227.34897,-0.019092,-2.498975,-941.17053,0.0
-0.571429,0.0,0.0,0.0,0.0,0.0,0.0,1.1771576E8,1.1771576E8,1.17715776E8,1.17715776E8,1.17715824E8,1.17715856E8,63.991837,-22.605427,146.2296,0.110533,4.952713,180.01378,-29.742697,2.996757,0.375793,3.0E-5,2.543978,143.23032,-244.66502,12.0,40.0,0.0,0.0,-239.99986,-240.0,146.2296,6.0E-6,0.001946,282.89807,226.53773,-0.01911,-2.499025,-833.04095,0.0
-0.571429,0.0,0.0,0.0,0.0,0.0,0.0,1.1771576E8,1.1771576E8,1.17715776E8,1.17715776E8,1.17715824E8,1.17715856E8,63.991837,-22.605427,146.2296,0.110645,4.952685,180.0138,-29.962965,3.003282,0.358813,2.6E-5,2.539618,143.2208,-244.67455,12.0,40.0,0.0,0.0,-239.99986,-240.0,146.2296,6.0E-6,0.001577,282.89807,225.60127,-0.01913,-2.499077,-715.8556,0.0
-0.571429,0.0,0.0,0.0,0.0,0.0,0.0,1.1771576E8,1.1771576E8,1.17715776E8,1.17715776E8,1.17715824E8,1.17715856E8,63.991837,-22.605427,146.2296,0.110729,4.952662,180.0138,-29.96315,3.003199,0.352505,1.9E-5,2.538552,143.21222,-244.68312,12.0,40.0,0.0,0.0,-239.99986,-240.0,146.2296,6.0E-6,0.001208,282.89807,224.68657,-0.019154,-2.499122,-607.6765,0.0
-0.571429,0.0,0.0,0.0,0.0,0.0,0.0,1.1771576E8,1.1771576E8,1.17715776E8,1.17715776E8,1.17715824E8,1.17715856E8,63.991837,-22.605427,146.2296,0.110791,4.952644,180.0138,-29.963308,3.003115,0.355795,1.4E-5,2.537716,143.20389,-244.69145,12.0,40.0,0.0,0.0,-239.99986,-240.0,146.2296,6.0E-6,8.05E-4,282.89807,223.72644,-0.019176,-2.499165,-499.48633,0.0
-0.571429,0.0,0.0,0.0,0.0,0.0,0.0,1.1771576E8,1.1771576E8,1.17715776E8,1.17715776E8,1.17715824E8,1.17715856E8,63.991837,-22.605427,146.2296,0.110832,4.952632,180.0138,-29.963415,3.003038,0.360122,1.0E-5,2.53697,143.19638,-244.69896,12.0,40.0,0.0,0.0,-239.99986,-240.0,146.2296,5.0E-6,6.37E-4,282.89807,222.80884,-0.019196,-2.499202,-400.31403,0.0
-0.571429,0.0,0.0,0.0,0.0,0.0,0.0,1.1771576E8,1.1771576E8,1.17715776E8,1.17715776E8,1.17715824E8,1.17715856E8,63.991837,-22.605427,146.2296,0.110867,4.952622,180.01381,-29.963509,3.002946,0.365729,7.0E-6,2.537067,143.18764,-244.70772,12.0,40.0,0.0,0.0,-239.99986,-240.0,146.2296,5.0E-6,4.7E-4,282.89807,221.6812,-0.019212,-2.499244,-283.1324,0.0
-0.571429,0.0,0.0,0.0,0.0,0.0,0.0,1.1771576E8,1.1771576E8,1.17715776E8,1.17715776E8,1.17715824E8,1.17715856E8,63.991837,-22.605427,146.2296,0.11089,4.952616,180.01381,-29.96357,3.002861,0.370798,5.0E-6,2.537686,143.1794,-244.71594,12.0,40.0,0.0,0.0,-239.99986,-240.0,146.2296,5.0E-6,3.35E-4,282.89807,220.60175,-0.019227,-2.499281,-175.08974,0.0
