aileron,elevator,rudder,flaps,slats,speedbrake,throttle,engine-pump0,engine-pump1,electric-pump0,electric-pump1,external-power,APU-generator,latitude-deg,longitude-deg,altitude-ft,roll-deg,pitch-deg,heading-deg,side-slip-deg,airspeed-kt,glideslope,vertical-speed-fps,airspeed-indicator_indicated-speed-kt,altimeter_indicated-altitude-ft,altimeter_pressure-alt-ft,attitude-indicator_indicated-pitch-deg,attitude-indicator_indicated-roll-deg,attitude-indicator_internal-pitch-deg,attitude-indicator_internal-roll-deg,encoder_indicated-altitude-ft,encoder_pressure-alt-ft,gps_indicated-altitude-ft,gps_indicated-ground-speed-kt,gps_indicated-vertical-speed,indicated-heading-deg,magnetic-compass_indicated-heading-deg,slip-skid-ball_indicated-slip-skid,turn-indicator_indicated-turn-rate,vertical-speed-indicator_indicated-speed-fpm,engine_rpm
0.0,0.0,0.0,0.0,0.0,0.0,1.0,2.34435376E8,2.34435376E8,2.34435392E8,2.34435392E8,2.3443544E8,2.34435472E8,63.985043,-22.592484,-9999.0,0.0,0.424,270.02136,0.0,0.0,0.0,0.0,0.0,0.0,0.0,0.0,0.0,0.0,0.0,0.0,0.0,0.0,0.0,0.0,0.0,0.0,0.0,0.0,0.0,0.0
0.0,0.0,0.0,0.0,0.0,0.0,1.0,2.34435376E8,2.34435376E8,2.34435392E8,2.34435392E8,2.3443544E8,2.34435472E8,63.985043,-22.592484,-9999.0,0.0,0.424,270.02136,0.0,0.0,0.0,0.0,0.0,389.08878,1.193444,12.0,40.0,0.0,0.0,0.0,0.0,0.0,0.0,0.0,282.89813,0.0,0.0,0.0,0.0,0.0
0.0,0.0,0.0,0.0,0.0,0.0,1.0,2.34435376E8,2.34435376E8,2.34435392E8,2.34435392E8,2.3443544E8,2.34435472E8,63.991837,-22.605425,-9999.0,0.0,0.424,180.01839,0.0,0.0,0.0,0.0,0.0,389.08878,1.193444,12.0,40.0,0.0,0.0,0.0,0.0,0.0,0.0,0.0,282.89813,0.0,0.0,0.0,0.0,0.0
0.0,0.0,0.0,0.0,0.0,0.0,1.0,2.34435376E8,2.34435376E8,2.34435392E8,2.34435392E8,2.3443544E8,2.34435472E8,63.991837,-22.605425,-9999.0,0.0,0.424,180.01839,0.0,0.0,0.0,0.0,0.0,389.08878,1.193444,12.0,40.0,0.0,0.0,0.0,0.0,0.0,0.0,0.0,282.89813,0.0,0.0,0.0,0.0,0.0
0.0,0.0,0.0,0.0,0.0,0.0,1.0,2.34435376E8,2.34435376E8,2.34435392E8,2.34435392E8,2.3443544E8,2.34435472E8,63.991837,-22.605425,-9999.0,0.0,0.424,180.01839,0.0,0.0,0.0,0.0,0.0,389.08878,1.193444,12.0,40.0,0.0,0.0,0.0,0.0,0.0,0.0,0.0,282.89813,0.0,0.0,0.0,0.0,0.0
0.0,0.0,0.0,0.0,0.0,0.0,1.0,2.34435376E8,2.34435376E8,2.34435392E8,2.34435392E8,2.3443544E8,2.34435472E8,63.991837,-22.605425,-9999.0,0.0,0.424,180.01839,0.0,0.0,0.0,0.0,0.0,389.08878,1.193444,12.0,40.0,0.0,0.0,0.0,0.0,0.0,0.0,0.0,282.89813,0.0,0.0,0.0,0.0,0.0
0.0,0.0,0.0,0.0,0.0,0.0,1.0,2.34435376E8,2.34435376E8,2.34435392E8,2.34435392E8,2.3443544E8,2.34435472E8,63.991837,-22.605425,-9999.0,0.0,0.424,180.01839,0.0,0.0,0.0,0.0,0.0,389.08878,1.193444,12.0,40.0,0.0,0.0,0.0,0.0,0.0,0.0,0.0,282.89813,0.0,0.0,0.0,0.0,0.0
0.0,0.0,0.0,0.0,0.0,0.0,1.0,2.34435376E8,2.34435376E8,2.34435392E8,2.34435392E8,2.3443544E8,2.34435472E8,63.991837,-22.605425,-9999.0,0.0,0.424,180.01839,0.0,0.0,0.0,0.0,0.0,389.08878,1.193444,12.0,40.0,0.0,0.0,0.0,0.0,0.0,0.0,0.0,282.89813,0.0,0.0,0.0,0.0,0.0
0.0,0.0,0.0,0.0,0.0,0.0,1.0,2.34435376E8,2.34435376E8,2.34435392E8,2.34435392E8,2.3443544E8,2.34435472E8,63.991837,-22.605425,-9999.0,0.0,0.424,180.01839,0.0,0.0,0.0,0.0,0.0,389.08878,1.193444,12.0,40.0,0.0,0.0,0.0,0.0,0.0,0.0,0.0,282.89813,0.0,0.0,0.0,0.0,0.0
0.0,0.0,0.0,0.0,0.0,0.0,1.0,2.34435376E8,2.34435376E8,2.34435392E8,2.34435392E8,2.3443544E8,2.34435472E8,63.991837,-22.605425,-9999.0,0.0,0.424,180.01839,0.0,0.0,0.0,0.0,0.0,389.08878,1.193444,12.0,40.0,0.0,0.0,0.0,0.0,0.0,0.0,0.0,282.89813,0.0,0.0,0.0,0.0,0.0
0.0,0.0,0.0,0.0,0.0,0.0,1.0,2.34435376E8,2.34435376E8,2.34435392E8,2.34435392E8,2.3443544E8,2.34435472E8,63.991837,-22.605425,-9999.0,0.0,0.424,180.01839,0.0,0.0,0.0,0.0,0.0,389.08878,1.193444,12.0,40.0,0.0,0.0,0.0,0.0,0.0,0.0,0.0,282.89813,0.0,0.0,0.0,0.0,0.0
0.0,0.0,0.0,0.0,0.0,0.0,1.0,2.34435376E8,2.34435376E8,2.34435392E8,2.34435392E8,2.3443544E8,2.34435472E8,63.991837,-22.605425,-9999.0,0.0,0.424,180.01839,0.0,0.0,0.0,0.0,0.0,389.08878,1.193444,12.0,40.0,0.0,0.0,0.0,0.0,0.0,0.0,0.0,282.89813,0.0,0.0,0.0,0.0,0.0
0.0,0.0,0.0,0.0,0.0,0.0,1.0,2.34435376E8,2.34435376E8,2.34435392E8,2.34435392E8,2.3443544E8,2.34435472E8,63.991837,-22.605425,-9999.0,0.0,0.424,180.01839,0.0,0.0,0.0,0.0,0.0,389.08878,1.193444,12.0,40.0,0.0,0.0,0.0,0.0,0.0,0.0,0.0,282.89813,0.0,0.0,0.0,0.0,0.0
0.0,0.0,0.0,0.0,0.0,0.0,1.0,2.34435376E8,2.34435376E8,2.34435392E8,2.34435392E8,2.3443544E8,2.34435472E8,63.991837,-22.605425,-9999.0,0.0,0.424,180.01839,0.0,0.0,0.0,0.0,0.0,389.08878,1.193444,12.0,40.0,0.0,0.0,0.0,0.0,0.0,0.0,0.0,282.89813,0.0,0.0,0.0,0.0,0.0
0.0,0.0,0.0,0.0,0.0,0.0,1.0,2.34435376E8,2.34435376E8,2.34435392E8,2.34435392E8,2.3443544E8,2.34435472E8,63.991837,-22.605425,-9999.0,0.0,0.424,180.01839,0.0,0.0,0.0,0.0,0.0,389.08878,1.193444,12.0,40.0,0.0,0.0,0.0,0.0,0.0,0.0,0.0,282.89813,0.0,0.0,0.0,0.0,0.0
0.0,0.0,0.0,0.0,0.0,0.0,1.0,2.34435376E8,2.34435376E8,2.34435392E8,2.34435392E8,2.3443544E8,2.34435472E8,63.991837,-22.605425,-9999.0,0.0,0.424,180.01839,0.0,0.0,0.0,0.0,0.0,389.08878,1.193444,12.0,40.0,0.0,0.0,0.0,0.0,0.0,0.0,0.0,282.89813,0.0,0.0,0.0,0.0,0.0
0.0,0.0,0.0,0.0,0.0,0.0,1.0,2.34435376E8,2.34435376E8,2.34435392E8,2.34435392E8,2.3443544E8,2.34435472E8,63.991837,-22.605425,-9999.0,0.0,0.424,180.01839,0.0,0.0,0.0,0.0,0.0,389.08878,1.193444,12.0,40.0,0.0,0.0,0.0,0.0,0.0,0.0,0.0,282.89813,0.0,0.0,0.0,0.0,0.0
0.0,0.0,0.0,0.0,0.0,0.0,1.0,2.34435376E8,2.34435376E8,2.34435392E8,2.34435392E8,2.3443544E8,2.34435472E8,63.991837,-22.605425,-9999.0,0.0,0.424,180.01839,0.0,0.0,0.0,0.0,0.0,389.08878,1.193444,12.0,40.0,0.0,0.0,0.0,0.0,0.0,0.0,0.0,282.89813,0.0,0.0,0.0,0.0,0.0
0.0,0.0,0.0,0.0,0.0,0.0,1.0,2.34435376E8,2.34435376E8,2.34435392E8,2.34435392E8,2.3443544E8,2.34435472E8,63.991837,-22.605425,-9999.0,0.0,0.424,180.01839,0.0,0.0,0.0,0.0,0.0,389.08878,1.193444,12.0,40.0,0.0,0.0,0.0,0.0,0.0,0.0,0.0,282.89813,0.0,0.0,0.0,0.0,0.0
0.0,0.0,0.0,0.0,0.0,0.0,1.0,2.34435376E8,2.34435376E8,2.34435392E8,2.34435392E8,2.3443544E8,2.34435472E8,63.991837,-22.605425,-9999.0,0.0,0.424,180.01839,0.0,0.0,0.0,0.0,0.0,389.08878,1.193444,12.0,40.0,0.0,0.0,0.0,0.0,0.0,0.0,0.0,282.89813,0.0,0.0,0.0,0.0,0.0
0.0,0.0,0.0,0.0,0.0,0.0,1.0,2.34435376E8,2.34435376E8,2.34435392E8,2.34435392E8,2.3443544E8,2.34435472E8,63.991837,-22.605425,-9999.0,0.0,0.424,180.01839,0.0,0.0,0.0,0.0,0.0,389.08878,1.193444,12.0,40.0,0.0,0.0,0.0,0.0,0.0,0.0,0.0,282.89813,0.0,0.0,0.0,0.0,0.0
0.0,0.0,0.0,0.0,0.0,0.0,1.0,2.34435376E8,2.34435376E8,2.34435392E8,2.34435392E8,2.3443544E8,2.34435472E8,63.991837,-22.605425,-9999.0,0.0,0.424,180.01839,0.0,0.0,0.0,0.0,0.0,389.08878,1.193444,12.0,40.0,0.0,0.0,0.0,0.0,0.0,0.0,0.0,282.89813,0.0,0.0,0.0,0.0,0.0
0.0,0.0,0.0,0.0,0.0,0.0,1.0,2.34435376E8,2.34435376E8,2.34435392E8,2.34435392E8,2.3443544E8,2.34435472E8,63.991837,-22.605425,-9999.0,0.0,0.424,180.01839,0.0,0.0,0.0,0.0,0.0,389.08878,1.193444,12.0,40.0,0.0,0.0,0.0,0.0,0.0,0.0,0.0,282.89813,0.0,0.0,0.0,0.0,0.0
0.0,0.0,0.0,0.0,0.0,0.0,1.0,2.34435376E8,2.34435376E8,2.34435392E8,2.34435392E8,2.3443544E8,2.34435472E8,63.991837,-22.605425,-9999.0,0.0,0.424,180.01839,0.0,0.0,0.0,0.0,0.0,389.08878,1.193444,12.0,40.0,0.0,0.0,0.0,0.0,0.0,0.0,0.0,282.89813,0.0,0.0,0.0,0.0,0.0
0.0,0.0,0.0,0.0,0.0,0.0,1.0,2.34435376E8,2.34435376E8,2.34435392E8,2.34435392E8,2.3443544E8,2.34435472E8,63.991837,-22.605425,-9999.0,0.0,0.424,180.01839,0.0,0.0,0.0,0.0,0.0,389.08878,1.193444,12.0,40.0,0.0,0.0,0.0,0.0,0.0,0.0,0.0,282.89813,0.0,0.0,0.0,0.0,0.0
0.0,0.0,0.0,0.0,0.0,0.0,1.0,2.34435376E8,2.34435376E8,2.34435392E8,2.34435392E8,2.3443544E8,2.34435472E8,63.991837,-22.605425,-9999.0,0.0,0.424,180.01839,0.0,0.0,0.0,0.0,0.0,389.08878,1.193444,12.0,40.0,0.0,0.0,0.0,0.0,0.0,0.0,0.0,282.89813,0.0,0.0,0.0,0.0,0.0
0.0,0.0,0.0,0.0,0.0,0.0,1.0,2.34435376E8,2.34435376E8,2.34435392E8,2.34435392E8,2.3443544E8,2.34435472E8,63.991837,-22.605425,-9999.0,0.0,0.424,180.01839,0.0,0.0,0.0,0.0,0.0,389.08878,1.193444,12.0,40.0,0.0,0.0,0.0,0.0,0.0,0.0,0.0,282.89813,0.0,0.0,0.0,0.0,0.0
0.0,0.0,0.0,0.0,0.0,0.0,1.0,2.34435376E8,2.34435376E8,2.34435392E8,2.34435392E8,2.3443544E8,2.34435472E8,63.991837,-22.605425,-9999.0,0.0,0.424,180.01839,0.0,0.0,0.0,0.0,0.0,389.08878,1.193444,12.0,40.0,0.0,0.0,0.0,0.0,0.0,0.0,0.0,282.89813,0.0,0.0,0.0,0.0,0.0
0.0,0.0,0.0,0.0,0.0,0.0,1.0,2.34435376E8,2.34435376E8,2.34435392E8,2.34435392E8,2.3443544E8,2.34435472E8,63.991837,-22.605425,-9999.0,0.0,0.424,180.01839,0.0,0.0,0.0,0.0,0.0,389.08878,1.193444,12.0,40.0,0.0,0.0,0.0,0.0,0.0,0.0,0.0,282.89813,0.0,0.0,0.0,0.0,0.0
0.0,0.0,0.0,0.0,0.0,0.0,1.0,2.34435376E8,2.34435376E8,2.34435392E8,2.34435392E8,2.3443544E8,2.34435472E8,63.991837,-22.605425,-9999.0,0.0,0.424,180.01839,0.0,0.0,0.0,0.0,0.0,389.08878,1.193444,12.0,40.0,0.0,0.0,0.0,0.0,0.0,0.0,0.0,282.89813,0.0,0.0,0.0,0.0,0.0
0.0,0.0,0.0,0.0,0.0,0.0,1.0,2.34435376E8,2.34435376E8,2.34435392E8,2.34435392E8,2.3443544E8,2.34435472E8,63.991837,-22.605425,-9999.0,0.0,0.424,180.01839,0.0,0.0,0.0,0.0,0.0,389.08878,1.193444,12.0,40.0,0.0,0.0,0.0,0.0,0.0,0.0,0.0,282.89813,0.0,0.0,0.0,0.0,0.0
0.0,0.0,0.0,0.0,0.0,0.0,1.0,2.34435376E8,2.34435376E8,2.34435392E8,2.34435392E8,2.3443544E8,2.34435472E8,63.991837,-22.605425,-9999.0,0.0,0.424,180.01839,0.0,0.0,0.0,0.0,0.0,389.08878,1.193444,12.0,40.0,0.0,0.0,0.0,0.0,0.0,0.0,0.0,282.89813,0.0,0.0,0.0,0.0,0.0
0.0,0.0,0.0,0.0,0.0,0.0,1.0,2.34435376E8,2.34435376E8,2.34435392E8,2.34435392E8,2.3443544E8,2.34435472E8,63.991837,-22.605425,-9999.0,0.0,0.424,180.01839,0.0,0.0,0.0,0.0,0.0,389.08878,1.193444,12.0,40.0,0.0,0.0,0.0,0.0,0.0,0.0,0.0,282.89813,0.0,0.0,0.0,0.0,0.0
0.0,0.0,0.0,0.0,0.0,0.0,1.0,2.34435376E8,2.34435376E8,2.34435392E8,2.34435392E8,2.3443544E8,2.34435472E8,63.991837,-22.605425,-9999.0,0.0,0.424,180.01839,0.0,0.0,0.0,0.0,0.0,389.08878,1.193444,12.0,40.0,0.0,0.0,0.0,0.0,0.0,0.0,0.0,282.89813,0.0,0.0,0.0,0.0,0.0
0.0,0.0,0.0,0.0,0.0,0.0,1.0,2.34435376E8,2.34435376E8,2.34435392E8,2.34435392E8,2.3443544E8,2.34435472E8,63.991837,-22.605425,-9999.0,0.0,0.424,180.01839,0.0,0.0,0.0,0.0,0.0,389.08878,1.193444,12.0,40.0,0.0,0.0,0.0,0.0,0.0,0.0,0.0,282.89813,0.0,0.0,0.0,0.0,0.0
0.0,0.0,0.0,0.0,0.0,0.0,1.0,2.34435376E8,2.34435376E8,2.34435392E8,2.34435392E8,2.3443544E8,2.34435472E8,63.991837,-22.605425,-9999.0,0.0,0.424,180.01839,0.0,0.0,0.0,0.0,0.0,389.08878,1.193444,12.0,40.0,0.0,0.0,0.0,0.0,0.0,0.0,0.0,282.89813,0.0,0.0,0.0,0.0,0.0
0.0,0.0,0.0,0.0,0.0,0.0,1.0,2.34435376E8,2.34435376E8,2.34435392E8,2.34435392E8,2.3443544E8,2.34435472E8,63.991837,-22.605425,-9999.0,0.0,0.424,180.01839,0.0,0.0,0.0,0.0,0.0,389.08878,1.193444,12.0,40.0,0.0,0.0,0.0,0.0,0.0,0.0,0.0,282.89813,0.0,0.0,0.0,0.0,0.0
0.0,0.0,0.0,0.0,0.0,0.0,1.0,2.34435376E8,2.34435376E8,2.34435392E8,2.34435392E8,2.3443544E8,2.34435472E8,63.991837,-22.605425,-9999.0,0.0,0.424,180.01839,0.0,0.0,0.0,0.0,0.0,389.08878,1.193444,12.0,40.0,0.0,0.0,0.0,0.0,0.0,0.0,0.0,282.89813,0.0,0.0,0.0,0.0,0.0
0.0,0.0,0.0,0.0,0.0,0.0,1.0,2.34435376E8,2.34435376E8,2.34435392E8,2.34435392E8,2.3443544E8,2.34435472E8,63.991837,-22.605425,-9999.0,0.0,0.424,180.01839,0.0,0.0,0.0,0.0,0.0,389.08878,1.193444,12.0,40.0,0.0,0.0,0.0,0.0,0.0,0.0,0.0,282.89813,0.0,0.0,0.0,0.0,0.0
0.0,0.0,0.0,0.0,0.0,0.0,1.0,2.34435376E8,2.34435376E8,2.34435392E8,2.34435392E8,2.3443544E8,2.34435472E8,63.991837,-22.605425,-9999.0,0.0,0.424,180.01839,0.0,0.0,0.0,0.0,0.0,389.08878,1.193444,12.0,40.0,0.0,0.0,0.0,0.0,0.0,0.0,0.0,282.89813,0.0,0.0,0.0,0.0,0.0
0.0,0.0,0.0,0.0,0.0,0.0,0.0,2.34435376E8,2.34435376E8,2.34435392E8,2.34435392E8,2.3443544E8,2.34435472E8,63.991837,-22.605427,146.2295,0.104764,4.952322,180.01332,0.0,0.0,0.0,0.0,0.0,389.08878,1.193444,12.0,40.0,0.0,0.0,0.0,0.0,0.0,0.0,0.0,282.89813,0.0,0.0,0.0,0.0,0.0
0.0,0.0,0.0,0.0,0.0,0.0,0.0,2.34435376E8,2.34435376E8,2.34435392E8,2.34435392E8,2.3443544E8,2.34435472E8,63.991837,-22.605427,146.2293,0.095972,4.971209,180.01263,89.86088,3.012115,-0.068763,-1.75E-4,0.0,536.69446,148.79913,12.0,40.0,0.0,0.0,140.00014,140.0,146.2293,7.6E-5,-0.020496,282.89807,357.0099,-0.00579,-0.479496,3954.7231,0.0
0.0,0.0,0.0,0.0,0.0,0.0,0.0,2.34435376E8,2.34435376E8,2.34435392E8,2.34435392E8,2.3443544E8,2.34435472E8,63.991837,-22.605427,146.22952,0.09545,4.951427,180.01257,83.88305,2.733586,0.079302,1.8E-5,0.0,510.12122,122.225876,12.0,40.0,0.0,0.0,120.000145,120.0,146.22952,6.2E-5,0.002248,282.89807,329.84372,-0.012613,-1.275782,2407.7942,0.0
0.0,0.0,0.0,0.0,0.0,0.0,0.0,2.34435376E8,2.34435376E8,2.34435392E8,2.34435392E8,2.3443544E8,2.34435472E8,63.991837,-22.605427,146.22954,0.09548,4.951196,180.01257,83.312004,2.711946,0.073569,1.2E-5,4.844528,508.7485,120.85316,12.0,40.0,0.0,0.0,120.000145,120.0,146.22954,6.1E-5,0.001476,282.89807,326.53644,-0.012994,-1.325845,2280.6997,0.0
0.0,0.0,0.0,0.0,0.0,0.0,0.0,2.34435376E8,2.34435376E8,2.34435392E8,2.34435392E8,2.3443544E8,2.34435472E8,63.991837,-22.605427,146.22954,0.095941,4.95089,180.01262,81.2999,2.640425,-0.034907,-4.0E-6,6.049686,501.5104,113.61506,12.0,40.0,0.0,0.0,120.000145,120.0,146.22954,5.8E-5,-1.01E-4,282.89807,314.36087,-0.013854,-1.48124,1749.4608,0.0
0.0,0.0,0.0,0.0,0.0,0.0,0.0,2.34435376E8,2.34435376E8,2.34435392E8,2.34435392E8,2.3443544E8,2.34435472E8,63.991837,-22.605427,146.22954,0.096118,4.950872,180.01263,80.56343,2.615986,-0.06477,-9.0E-6,6.984103,499.13214,111.2368,12.0,40.0,0.0,0.0,110.000145,110.0,146.22954,5.7E-5,-5.37E-4,282.89807,309.756,-0.01413,-1.531027,1549.1348,0.0
0.0,0.0,0.0,0.0,0.0,0.0,0.0,2.34435376E8,2.34435376E8,2.34435392E8,2.34435392E8,2.3443544E8,2.34435472E8,63.991837,-22.605427,146.22954,0.096323,4.950884,180.01265,79.813095,2.591985,-0.081582,-1.3E-5,7.287973,496.45847,108.56311,12.0,40.0,0.0,0.0,110.000145,110.0,146.22954,5.6E-5,-8.72E-4,282.89807,305.01016,-0.014383,-1.578381,1321.7368,0.0
0.0,0.0,0.0,0.0,0.0,0.0,0.0,2.34435376E8,2.34435376E8,2.34435392E8,2.34435392E8,2.3443544E8,2.34435472E8,63.991837,-22.605427,146.22954,0.096359,4.950889,180.01265,79.686676,2.588028,-0.083821,-1.3E-5,7.313861,496.0,108.10467,12.0,40.0,0.0,0.0,110.000145,110.0,146.22954,5.5E-5,-8.72E-4,282.89807,304.20636,-0.014464,-1.586045,1281.1685,0.0
0.0,0.0,0.0,0.0,0.0,0.0,0.0,2.34435376E8,2.34435376E8,2.34435392E8,2.34435392E8,2.3443544E8,2.34435472E8,63.991837,-22.605427,146.2295,0.098259,4.951471,180.0128,75.013435,2.457835,-0.103747,-1.0E-5,0.15634,477.0981,89.20276,12.0,40.0,0.0,0.0,90.000145,90.0,146.2295,4.9E-5,-8.39E-4,282.89807,274.25787,-0.015625,-1.817675,-510.1001,0.0
0.0,0.0,0.0,0.0,0.0,0.0,0.0,2.34435376E8,2.34435376E8,2.34435392E8,2.34435392E8,2.3443544E8,2.34435472E8,63.991837,-22.605427,146.2295,0.098382,4.951514,180.01282,74.16354,2.437267,-0.142297,-1.4E-5,5.666787,475.8396,87.94424,12.0,40.0,0.0,0.0,90.000145,90.0,146.2295,4.8E-5,-8.39E-4,282.89807,268.86603,-0.015775,-1.851021,-556.62616,0.0
0.0,0.0,0.0,0.0,0.0,0.0,0.0,2.34435376E8,2.34435376E8,2.34435392E8,2.34435392E8,2.3443544E8,2.34435472E8,63.991837,-22.605427,146.2295,0.098526,4.951559,180.01282,73.2995,2.417249,-0.14184,-1.7E-5,6.891595,473.56677,85.67142,12.0,40.0,0.0,0.0,90.000145,90.0,146.2295,4.7E-5,-0.001073,282.89807,263.42984,-0.015907,-1.882736,-684.3679,0.0
0.0,0.0,0.0,0.0,0.0,0.0,0.0,2.34435376E8,2.34435376E8,2.34435392E8,2.34435392E8,2.3443544E8,2.34435472E8,63.991837,-22.605427,146.2295,0.098692,4.951612,180.01283,72.42119,2.397787,-0.139723,-1.8E-5,7.268682,470.93008,83.034744,12.0,40.0,0.0,0.0,90.000145,90.0,146.2295,4.6E-5,-0.001308,282.89807,257.961,-0.016029,-1.912902,-803.901,0.0
0.0,0.0,0.0,0.0,0.0,0.0,0.0,2.34435376E8,2.34435376E8,2.34435392E8,2.34435392E8,2.3443544E8,2.34435472E8,63.991837,-22.605427,146.2295,0.098875,4.951674,180.01285,71.52865,2.378894,-0.136569,-1.9E-5,7.389742,468.11206,80.21671,12.0,40.0,0.0,0.0,80.000145,80.0,146.2295,4.5E-5,-0.001442,282.89807,252.47095,-0.016143,-1.941593,-907.31647,0.0
0.0,0.0,0.0,0.0,0.0,0.0,0.0,2.34435376E8,2.34435376E8,2.34435392E8,2.34435392E8,2.3443544E8,2.34435472E8,63.991837,-22.605427,146.22949,0.099067,4.951743,180.01286,70.621956,2.360585,-0.13655,-2.0E-5,7.367809,465.29196,77.396614,12.0,40.0,0.0,0.0,80.000145,80.0,146.22949,4.5E-5,-0.001476,282.89807,246.97101,-0.016254,-1.968883,-990.06555,0.0
0.0,0.0,0.0,0.0,0.0,0.0,0.0,2.34435376E8,2.34435376E8,2.34435392E8,2.34435392E8,2.3443544E8,2.34435472E8,63.991837,-22.605427,146.22949,0.099264,4.951815,180.01288,69.701256,2.342874,-0.137341,-2.1E-5,7.420849,462.5074,74.61204,12.0,40.0,0.0,0.0,80.000145,80.0,146.22949,4.4E-5,-0.00151,282.89807,241.4723,-0.016357,-1.994838,-1056.7727,0.0
0.0,0.0,0.0,0.0,0.0,0.0,0.0,2.34435376E8,2.34435376E8,2.34435392E8,2.34435392E8,2.3443544E8,2.34435472E8,63.991837,-22.605427,146.22949,0.099462,4.95189,180.0129,68.76671,2.325777,-0.13678,-2.1E-5,7.453858,459.69052,71.79519,12.0,40.0,0.0,0.0,70.000145,70.0,146.22949,4.3E-5,-0.001442,282.89807,235.98566,-0.016453,-2.019526,-1115.3073,0.0
0.0,0.0,0.0,0.0,0.0,0.0,0.0,2.34435376E8,2.34435376E8,2.34435392E8,2.34435392E8,2.3443544E8,2.34435472E8,63.991837,-22.605427,146.22949,0.09966,4.951965,180.01291,67.81853,2.309306,-0.136232,-2.0E-5,7.466641,456.8623,68.966965,12.0,40.0,0.0,0.0,70.000145,70.0,146.22949,4.2E-5,-0.001543,282.89807,230.52174,-0.016544,-2.043006,-1166.4785,0.0
0.0,0.0,0.0,0.0,0.0,0.0,0.0,2.34435376E8,2.34435376E8,2.34435392E8,2.34435392E8,2.3443544E8,2.34435472E8,63.991837,-22.605427,146.22949,0.099856,4.952041,180.01292,66.85694,2.293475,-0.135276,-2.0E-5,7.472231,454.03006,66.13473,12.0,40.0,0.0,0.0,70.000145,70.0,146.22949,4.1E-5,-0.001476,282.89807,225.09091,-0.01663,-2.06534,-1211.4371,0.0
0.0,0.0,0.0,0.0,0.0,0.0,0.0,2.34435376E8,2.34435376E8,2.34435392E8,2.34435392E8,2.3443544E8,2.34435472E8,63.991837,-22.605427,146.22948,0.10005,4.952116,180.01294,65.88222,2.278299,-0.134324,-2.0E-5,7.475277,451.1964,63.30107,12.0,40.0,0.0,0.0,70.000145,70.0,146.22948,4.0E-5,-0.001476,282.89807,219.7033,-0.016711,-2.086581,-1251.2118,0.0
0.0,0.0,0.0,0.0,0.0,0.0,0.0,2.34435376E8,2.34435376E8,2.34435392E8,2.34435392E8,2.3443544E8,2.34435472E8,63.991837,-22.605427,146.22948,0.100241,4.952189,180.01295,64.89466,2.26379,-0.132878,-1.9E-5,7.477413,448.36224,60.4669,12.0,40.0,0.0,0.0,60.00014,60.0,146.22948,4.0E-5,-0.001409,282.89807,214.36868,-0.016788,-2.106785,-1286.6375,0.0
0.0,0.0,0.0,0.0,0.0,0.0,0.0,2.34435376E8,2.34435376E8,2.34435392E8,2.34435392E8,2.3443544E8,2.34435472E8,63.991837,-22.605427,146.22948,0.100427,4.95226,180.01297,63.894627,2.249961,-0.131122,-1.8E-5,7.479213,445.5279,57.632538,12.0,40.0,0.0,0.0,60.00014,60.0,146.22948,3.9E-5,-0.001409,282.89807,209.09662,-0.01686,-2.126001,-1318.3773,0.0
0.0,0.0,0.0,0.0,0.0,0.0,0.0,2.34435376E8,2.34435376E8,2.34435392E8,2.34435392E8,2.3443544E8,2.34435472E8,63.991837,-22.605427,146.22948,0.100609,4.952331,180.01299,62.88249,2.236825,-0.129195,-1.8E-5,7.48088,442.69345,54.7981,12.0,40.0,0.0,0.0,60.00014,60.0,146.22948,3.8E-5,-0.001342,282.89807,203.8963,-0.016929,-2.144279,-1346.9602,0.0
0.0,0.0,0.0,0.0,0.0,0.0,0.0,2.34435376E8,2.34435376E8,2.34435392E8,2.34435392E8,2.3443544E8,2.34435472E8,63.991837,-22.605427,146.22948,0.100786,4.952398,180.013,61.858677,2.224396,-0.126572,-1.7E-5,7.482485,439.85898,51.963623,12.0,40.0,0.0,0.0,50.00014,50.0,146.22948,3.7E-5,-0.001308,282.89807,198.77661,-0.016994,-2.161663,-1372.8123,0.0
0.0,0.0,0.0,0.0,0.0,0.0,0.0,2.34435376E8,2.34435376E8,2.34435392E8,2.34435392E8,2.3443544E8,2.34435472E8,63.991837,-22.605427,146.22948,0.100958,4.952464,180.01302,60.82365,2.212683,-0.123468,-1.6E-5,7.484053,437.02448,49.129124,12.0,40.0,0.0,0.0,50.00014,50.0,146.22948,3.6E-5,-0.001241,282.89807,193.74611,-0.017055,-2.178197,-1396.2816,0.0
0.0,0.0,0.0,0.0,0.0,0.0,0.0,2.34435376E8,2.34435376E8,2.34435392E8,2.34435392E8,2.3443544E8,2.34435472E8,63.991837,-22.605427,146.22946,0.101126,4.952527,180.01303,59.77791,2.2017,-0.120095,-1.5E-5,7.531429,434.18994,46.294605,12.0,40.0,0.0,0.0,50.00014,50.0,146.22946,3.6E-5,-0.001208,282.89807,188.81297,-0.017114,-2.193924,-1417.6564,0.0
0.0,0.0,0.0,0.0,0.0,0.0,0.0,2.34435376E8,2.34435376E8,2.34435392E8,2.34435392E8,2.3443544E8,2.34435472E8,63.991837,-22.605427,146.22946,0.101289,4.952588,180.01305,58.722,2.191458,-0.116272,-1.4E-5,7.571721,431.3554,43.460068,12.0,40.0,0.0,0.0,50.00014,50.0,146.22946,3.5E-5,-0.001107,282.89807,183.98508,-0.017169,-2.208882,-1437.1777,0.0
0.0,0.0,0.0,0.0,0.0,0.0,0.0,2.34435376E8,2.34435376E8,2.34435392E8,2.34435392E8,2.3443544E8,2.34435472E8,63.991837,-22.605427,146.22946,0.101446,4.952647,180.01306,57.656494,2.181966,-0.11197,-1.3E-5,7.577878,428.52087,40.625515,12.0,40.0,0.0,0.0,40.00014,40.0,146.22946,3.4E-5,-0.001073,282.89807,179.2699,-0.017222,-2.223109,-1455.0496,0.0
0.0,0.0,0.0,0.0,0.0,0.0,0.0,2.34435376E8,2.34435376E8,2.34435392E8,2.34435392E8,2.3443544E8,2.34435472E8,63.991837,-22.605427,146.22946,0.101599,4.952703,180.01306,56.582016,2.173234,-0.10722,-1.2E-5,7.58389,425.68628,37.790943,12.0,40.0,0.0,0.0,40.00014,40.0,146.22946,3.4E-5,-0.00104,282.89807,174.67453,-0.017273,-2.23664,-1471.4464,0.0
0.0,0.0,0.0,0.0,0.0,0.0,0.0,2.34435376E8,2.34435376E8,2.34435392E8,2.34435392E8,2.3443544E8,2.34435472E8,63.991837,-22.605427,146.22946,0.101747,4.952757,180.01308,55.499207,2.165273,-0.10196,-1.1E-5,7.589988,422.8517,34.956356,12.0,40.0,0.0,0.0,40.00014,40.0,146.22946,3.3E-5,-9.39E-4,282.89807,170.20572,-0.01732,-2.249511,-1486.5182,0.0
0.0,0.0,0.0,0.0,0.0,0.0,0.0,2.34435376E8,2.34435376E8,2.34435392E8,2.34435392E8,2.3443544E8,2.34435472E8,63.991837,-22.605427,146.22946,0.10189,4.952809,180.01309,54.40876,2.158091,-0.095908,-1.0E-5,7.596172,420.0171,32.121754,12.0,40.0,0.0,0.0,30.000143,30.0,146.22946,3.2E-5,-8.39E-4,282.89807,165.86981,-0.017366,-2.261752,-1500.395,0.0
0.0,0.0,0.0,0.0,0.0,0.0,0.0,2.34435376E8,2.34435376E8,2.34435392E8,2.34435392E8,2.3443544E8,2.34435472E8,63.991837,-22.605427,146.22946,0.102029,4.952858,180.0131,53.311386,2.151695,-0.089253,-9.0E-6,7.602443,417.1825,29.287136,12.0,40.0,0.0,0.0,30.000143,30.0,146.22946,3.2E-5,-8.05E-4,282.89807,161.67274,-0.01741,-2.273395,-1513.1909,0.0
0.0,0.0,0.0,0.0,0.0,0.0,0.0,2.34435376E8,2.34435376E8,2.34435392E8,2.34435392E8,2.3443544E8,2.34435472E8,63.991837,-22.605427,146.22946,0.102174,4.952909,180.0131,52.115616,2.145661,-0.077938,-8.0E-6,7.661579,414.08646,26.191109,12.0,40.0,0.0,0.0,30.000143,30.0,146.22946,3.1E-5,-9.06E-4,282.89807,157.28908,-0.017464,-2.285367,-1526.9904,0.0
0.0,0.0,0.0,0.0,0.0,0.0,0.0,2.34435376E8,2.34435376E8,2.34435392E8,2.34435392E8,2.3443544E8,2.34435472E8,63.991837,-22.605427,146.22946,0.102293,4.95295,180.01312,51.098877,2.14129,-0.07373,-7.0E-6,7.600324,411.51016,23.61483,12.0,40.0,0.0,0.0,30.000143,30.0,146.22946,3.0E-5,-7.04E-4,282.89807,153.71707,-0.017489,-2.295002,-1536.0065,0.0
0.0,0.0,0.0,0.0,0.0,0.0,0.0,2.34435376E8,2.34435376E8,2.34435392E8,2.34435392E8,2.3443544E8,2.34435472E8,63.991837,-22.605427,146.22946,0.102418,4.952993,180.01314,49.985313,2.137293,-0.065599,-6.0E-6,7.619842,408.67746,20.782118,12.0,40.0,0.0,0.0,20.000143,20.0,146.22946,3.0E-5,-5.03E-4,282.89807,149.9684,-0.017527,-2.305021,-1546.0298,0.0
0.0,0.0,0.0,0.0,0.0,0.0,0.0,2.34435376E8,2.34435376E8,2.34435392E8,2.34435392E8,2.3443544E8,2.34435472E8,63.991837,-22.605427,146.22945,0.102538,4.953034,180.01314,48.867958,2.134106,-0.055838,-5.0E-6,7.627728,405.84348,17.948122,12.0,40.0,0.0,0.0,20.000143,20.0,146.22945,2.9E-5,-6.04E-4,282.89807,146.37845,-0.017564,-2.314549,-1555.365,0.0
0.0,0.0,0.0,0.0,0.0,0.0,0.0,2.34435376E8,2.34435376E8,2.34435392E8,2.34435392E8,2.3443544E8,2.34435472E8,63.991837,-22.605427,146.22945,0.102656,4.953073,180.01315,47.747646,2.131733,-0.044638,-4.0E-6,7.529749,402.9301,15.034784,12.0,40.0,0.0,0.0,20.000143,20.0,146.22945,2.9E-5,-5.03E-4,282.89807,142.95122,-0.017598,-2.323612,-1566.9911,0.0
0.0,0.0,0.0,0.0,0.0,0.0,0.0,2.34435376E8,2.34435376E8,2.34435392E8,2.34435392E8,2.3443544E8,2.34435472E8,63.991837,-22.605427,146.22945,0.102769,4.953109,180.01317,46.625217,2.130177,-0.033915,-3.0E-6,7.593263,400.1466,12.251266,12.0,40.0,0.0,0.0,10.000142,10.0,146.22945,2.8E-5,-4.36E-4,282.89807,139.69023,-0.017632,-2.332232,-1572.8325,0.0
0.0,0.0,0.0,0.0,0.0,0.0,0.0,2.34435376E8,2.34435376E8,2.34435392E8,2.34435392E8,2.3443544E8,2.34435472E8,63.991837,-22.605427,146.22945,0.102877,4.953143,180.01317,45.501545,2.129439,-0.02109,-2.0E-6,7.631603,397.3299,9.434554,12.0,40.0,0.0,0.0,10.000142,10.0,146.22945,2.8E-5,-3.35E-4,282.89807,136.5987,-0.017664,-2.340431,-1579.5571,0.0
0.0,0.0,0.0,0.0,0.0,0.0,0.0,2.34435376E8,2.34435376E8,2.34435392E8,2.34435392E8,2.3443544E8,2.34435472E8,63.991837,-22.605427,146.22945,0.102982,4.953175,180.01318,44.37748,2.12952,-0.007443,-1.0E-6,7.64967,394.5015,6.606148,12.0,40.0,0.0,0.0,10.000142,10.0,146.22945,2.7E-5,-2.68E-4,282.89807,133.67935,-0.017694,-2.348229,-1586.2609,0.0
0.0,0.0,0.0,0.0,0.0,0.0,0.0,2.34435376E8,2.34435376E8,2.34435392E8,2.34435392E8,2.3443544E8,2.34435472E8,63.991837,-22.605427,146.22945,0.103083,4.953205,180.01318,43.253895,2.130421,0.007542,1.0E-6,7.660613,391.66895,3.773614,12.0,40.0,0.0,0.0,10.000142,10.0,146.22945,2.6E-5,-2.01E-4,282.89807,130.9346,-0.017724,-2.355646,-1592.6525,0.0
0.0,0.0,0.0,0.0,0.0,0.0,0.0,2.34435376E8,2.34435376E8,2.34435392E8,2.34435392E8,2.3443544E8,2.34435472E8,63.991837,-22.605427,146.22945,0.10318,4.953234,180.0132,42.13165,2.132141,0.023761,2.0E-6,7.669108,388.83496,0.939618,12.0,40.0,0.0,0.0,1.42E-4,0.0,146.22945,2.6E-5,-1.01E-4,282.89807,128.3664,-0.017752,-2.362701,-1598.653,0.0
0.0,0.0,0.0,0.0,0.0,0.0,0.0,2.34435376E8,2.34435376E8,2.34435392E8,2.34435392E8,2.3443544E8,2.34435472E8,63.991837,-22.605427,146.22945,0.103283,4.953262,180.0132,40.91839,2.134925,0.039066,3.0E-6,7.655151,385.76593,-2.129414,12.0,40.0,0.0,0.0,1.42E-4,0.0,146.22945,2.5E-5,-6.7E-5,282.89807,125.78524,-0.017787,-2.369955,-1608.5863,0.0
0.0,0.0,0.0,0.0,0.0,0.0,0.2,2.34435376E8,2.34435376E8,2.34435392E8,2.34435392E8,2.3443544E8,2.34435472E8,63.991837,-22.605427,146.22945,0.103298,4.953266,180.0132,40.73203,2.135438,0.043991,3.0E-6,7.595617,385.3313,-2.564039,12.0,40.0,0.0,0.0,1.42E-4,0.0,146.22945,2.5E-5,0.0,282.89807,125.4068,-0.017787,-2.371036,-1608.7803,0.0
0.0,0.0,0.0,0.0,0.0,0.0,0.2,2.34435376E8,2.34435376E8,2.34435392E8,2.34435392E8,2.3443544E8,2.34435472E8,63.991837,-22.605427,146.22946,0.104217,4.953485,180.01328,30.283165,2.202108,0.132317,1.0E-6,1.838309,116.87142,-30.743853,12.0,40.0,0.0,0.0,-29.999857,-30.0,146.22946,2.1E-5,6.7E-5,282.89517,112.0451,-0.018022,-2.420213,-1528.1791,0.0
0.0,0.0,0.0,0.0,0.0,0.0,0.2,2.34435376E8,2.34435376E8,2.34435392E8,2.34435392E8,2.3443544E8,2.34435472E8,63.991837,-22.605427,146.22946,0.10423,4.953487,180.01328,29.497423,2.210308,0.282662,4.0E-6,5.351106,115.98189,-31.633385,12.0,40.0,0.0,0.0,-29.999857,-30.0,146.22946,2.1E-5,4.03E-4,282.89517,111.68458,-0.018032,-2.422368,-1486.9038,9.865135
0.0,0.0,0.0,0.0,0.0,0.0,0.2,2.34435376E8,2.34435376E8,2.34435392E8,2.34435392E8,2.3443544E8,2.34435472E8,63.991837,-22.605427,146.22946,0.104269,4.95347,180.01328,27.943453,2.22797,0.245906,1.4E-5,6.838896,112.64377,-34.971504,12.0,40.0,0.0,0.0,-29.999857,-30.0,146.22946,2.0E-5,8.39E-4,282.89517,111.24975,-0.018056,-2.400632,-1475.8627,62.97102
0.0,0.0,0.0,0.0,0.0,0.0,0.2,2.34435376E8,2.34435376E8,2.34435392E8,2.34435392E8,2.3443544E8,2.34435472E8,63.991837,-22.605427,146.22946,0.104278,4.953385,180.01328,27.26034,2.236368,0.149082,2.1E-5,7.298646,111.10102,-36.51425,12.0,40.0,0.0,0.0,-29.999857,-30.0,146.22946,2.0E-5,0.001644,282.89517,111.17703,-0.018069,-2.379962,-1474.2561,85.5945
0.0,0.0,0.0,0.0,0.0,0.0,0.2,2.34435376E8,2.34435376E8,2.34435392E8,2.34435392E8,2.3443544E8,2.34435472E8,63.991837,-22.605427,146.22948,0.104229,4.952338,180.01328,24.992731,2.267086,0.078953,4.4E-5,5.451922,104.02627,-43.58901,12.0,40.0,0.0,0.0,-39.99986,-40.0,146.22948,1.9E-5,0.005166,282.89517,111.46412,-0.018111,-2.271753,-1538.5043,156.95723
0.0,0.0,0.0,0.0,0.0,0.0,0.2,2.34435376E8,2.34435376E8,2.34435392E8,2.34435392E8,2.3443544E8,2.34435472E8,63.991837,-22.605427,146.22948,0.104134,4.951417,180.01328,24.004992,2.281866,0.073171,5.6E-5,6.951087,102.10429,-45.510986,11.987557,39.958527,0.0,0.0,-39.99986,-40.0,146.22948,1.8E-5,0.006944,282.89517,111.84804,-0.018129,-2.209088,-1515.3529,186.10027
0.0,0.0,0.0,0.0,0.0,0.0,0.2,2.34435376E8,2.34435376E8,2.34435392E8,2.34435392E8,2.3443544E8,2.34435472E8,63.991837,-22.605427,146.22949,0.103999,4.950217,180.01326,23.030323,2.297309,0.070701,6.8E-5,7.507985,99.70785,-47.90743,11.878979,39.596596,0.0,0.0,-49.99986,-50.0,146.22949,1.8E-5,0.008353,282.89517,112.38434,-0.018143,-2.140093,-1513.8561,213.63028
0.0,0.0,0.0,0.0,0.0,0.0,0.2,2.34435376E8,2.34435376E8,2.34435392E8,2.34435392E8,2.3443544E8,2.34435472E8,63.991837,-22.605427,146.2295,0.10383,4.948757,180.01324,22.069048,2.313399,0.068657,7.8E-5,7.7154,97.11326,-50.502018,11.700322,39.001072,0.0,0.0,-49.99986,-50.0,146.2295,1.8E-5,0.009795,282.89517,113.06895,-0.018152,-2.066383,-1520.889,239.55367
0.0,0.0,0.0,0.0,0.0,0.0,0.2,2.34435376E8,2.34435376E8,2.34435392E8,2.34435392E8,2.3443544E8,2.34435472E8,63.991837,-22.605427,146.22952,0.10363,4.947071,180.01323,21.121445,2.330119,0.06735,8.6E-5,7.792859,94.44891,-53.16636,11.499537,38.331787,0.0,0.0,-49.99986,-50.0,146.22952,1.7E-5,0.01107,282.89517,113.89756,-0.018156,-1.989394,-1530.3513,263.8931
0.0,0.0,0.0,0.0,0.0,0.0,0.2,2.34435376E8,2.34435376E8,2.34435392E8,2.34435392E8,2.3443544E8,2.34435472E8,63.991837,-22.605427,146.22955,0.103403,4.945195,180.0132,20.18774,2.347452,0.066579,9.3E-5,7.825711,91.76001,-55.855263,11.281369,37.604565,0.0,0.0,-49.99986,-50.0,146.22955,1.7E-5,0.012009,282.89517,114.86568,-0.018155,-1.910395,-1540.1412,286.68427
0.0,0.0,0.0,0.0,0.0,0.0,0.2,2.34435376E8,2.34435376E8,2.34435392E8,2.34435392E8,2.3443544E8,2.34435472E8,63.991837,-22.605427,146.22957,0.103156,4.94317,180.01318,19.268177,2.365386,0.066347,9.9E-5,7.843062,89.06245,-58.552822,11.047747,36.82582,0.0,0.0,-59.99986,-60.0,146.22957,1.7E-5,0.012848,282.89517,115.96863,-0.018148,-1.830495,-1549.5676,307.973
0.0,0.0,0.0,0.0,0.0,0.0,0.2,2.34435376E8,2.34435376E8,2.34435392E8,2.34435392E8,2.3443544E8,2.34435472E8,63.991837,-22.605427,146.2296,0.102901,4.941036,180.01315,18.362865,2.383906,0.066531,1.03E-4,7.855028,86.36183,-61.25344,10.800508,36.00169,0.0,0.0,-59.99986,-60.0,146.2296,1.6E-5,0.013351,282.89517,117.20155,-0.018134,-1.750651,-1558.4291,327.81293
0.0,0.0,0.0,0.0,0.0,0.0,0.2,2.34435376E8,2.34435376E8,2.34435392E8,2.34435392E8,2.3443544E8,2.34435472E8,63.991837,-22.605427,146.22961,0.102624,4.938647,180.01314,17.398232,2.404616,0.066189,1.05E-4,7.957198,83.32786,-64.287415,10.520035,35.06678,1.0E-6,0.0,-59.99986,-60.0,146.22961,1.6E-5,0.014257,282.89517,118.67806,-0.01811,-1.665156,-1571.8334,347.74033
0.0,0.0,0.0,0.0,0.0,0.0,0.2,2.34435376E8,2.34435376E8,2.34435392E8,2.34435392E8,2.3443544E8,2.34435472E8,63.991837,-22.605427,146.22964,0.102389,4.93659,180.0131,16.595106,2.422654,0.067419,1.08E-4,7.810012,80.92139,-66.693886,10.272738,34.24245,3.0E-6,0.0,-59.99986,-60.0,146.22964,1.6E-5,0.013955,282.89514,120.037094,-0.018096,-1.594245,-1575.6715,363.38824
0.0,0.0,0.0,0.0,0.0,0.0,0.2,2.34435376E8,2.34435376E8,2.34435392E8,2.34435392E8,2.3443544E8,2.34435472E8,63.991837,-22.605427,146.22966,0.102136,4.934336,180.01309,15.732757,2.442857,0.068269,1.09E-4,7.861047,78.2429,-69.372375,9.994752,33.315815,7.0E-6,0.0,-69.999855,-70.0,146.22966,1.5E-5,0.013988,282.89508,121.62925,-0.018072,-1.518905,-1581.7495,379.25308
0.0,0.0,0.0,0.0,0.0,0.0,0.2,2.34435376E8,2.34435376E8,2.34435392E8,2.34435392E8,2.3443544E8,2.34435472E8,63.991837,-22.605427,146.22969,0.101888,4.932096,180.01308,14.884806,2.463596,0.069297,1.1E-4,7.885316,75.54896,-72.06632,9.709565,32.365154,1.9E-5,0.0,-69.999855,-70.0,146.22969,1.5E-5,0.013888,282.8949,123.33046,-0.018046,-1.446075,-1588.0287,393.92996
0.0,0.0,0.0,0.0,0.0,0.0,0.2,2.34435376E8,2.34435376E8,2.34435392E8,2.34435392E8,2.3443544E8,2.34435472E8,63.991837,-22.605427,146.2297,0.101649,4.929893,180.01305,14.051232,2.484858,0.07055,1.09E-4,7.899955,72.84956,-74.76571,9.418534,31.39497,4.3E-5,1.0E-6,-69.999855,-70.0,146.2297,1.5E-5,0.013619,282.89453,125.135216,-0.018017,-1.376061,-1594.0879,407.49435
0.0,0.0,0.0,0.0,0.0,0.0,0.2,2.34435376E8,2.34435376E8,2.34435392E8,2.34435392E8,2.3443544E8,2.34435472E8,63.991837,-22.605427,146.22974,0.101422,4.927744,180.01303,13.231987,2.506633,0.072038,1.08E-4,7.911261,70.14824,-77.46703,9.122924,30.409435,9.4E-5,2.0E-6,-69.999855,-70.0,146.22974,1.5E-5,0.013384,282.89374,127.03787,-0.017986,-1.309053,-1599.8013,420.01233
0.0,0.0,0.0,0.0,0.0,0.0,0.2,2.34435376E8,2.34435376E8,2.34435392E8,2.34435392E8,2.3443544E8,2.34435472E8,63.991837,-22.605427,146.22975,0.101208,4.925662,180.01302,12.427015,2.528907,0.073734,1.07E-4,7.921445,67.44623,-80.169044,8.823917,29.412416,1.93E-4,4.0E-6,-79.999855,-80.0,146.22975,1.4E-5,0.013049,282.89224,129.03273,-0.017954,-1.245138,-1605.145,431.5485
0.0,0.0,0.0,0.0,0.0,0.0,0.2,2.34435376E8,2.34435376E8,2.34435392E8,2.34435392E8,2.3443544E8,2.34435472E8,63.991837,-22.605427,146.22978,0.101006,4.923656,180.013,11.636247,2.551668,0.075678,1.05E-4,7.931283,64.743965,-82.87131,8.522621,28.407494,3.75E-4,8.0E-6,-79.999855,-80.0,146.22978,1.4E-5,0.01268,282.88947,131.114,-0.017922,-1.184298,-1610.129,442.16574
0.0,0.0,0.0,0.0,0.0,0.0,0.2,2.34435376E8,2.34435376E8,2.34435392E8,2.34435392E8,2.3443544E8,2.34435472E8,63.991837,-22.605427,146.2298,0.100819,4.921736,180.01297,10.859593,2.574906,0.077858,1.04E-4,7.941049,62.041603,-85.57367,8.220079,27.39796,6.96E-4,1.4E-5,-79.999855,-80.0,146.2298,1.4E-5,0.012177,282.88458,133.27586,-0.017889,-1.126429,-1614.7736,451.9249
0.0,0.0,0.0,0.0,0.0,0.0,0.2,2.34435376E8,2.34435376E8,2.34435392E8,2.34435392E8,2.3443544E8,2.34435472E8,63.991837,-22.605427,146.22981,0.100647,4.919906,180.01295,10.096953,2.598608,0.080345,1.02E-4,7.950838,59.33919,-88.27608,7.917287,26.38685,0.00124,2.5E-5,-89.999855,-90.0,146.22981,1.3E-5,0.011774,282.87628,135.51242,-0.017856,-1.071387,-1619.1011,460.8844
0.0,0.0,0.0,0.0,0.0,0.0,0.2,2.34435376E8,2.34435376E8,2.34435392E8,2.34435392E8,2.3443544E8,2.34435472E8,63.991837,-22.605427,146.22984,0.10049,4.91817,180.01294,9.348209,2.622761,0.083151,9.9E-5,7.914203,56.60662,-91.00865,7.615347,25.37743,0.002131,4.4E-5,-89.999855,-90.0,146.22984,1.3E-5,0.011338,282.8627,137.81778,-0.017824,-1.019035,-1624.2595,469.09995
0.0,0.0,0.0,0.0,0.0,0.0,0.2,2.34435376E8,2.34435376E8,2.34435392E8,2.34435392E8,2.3443544E8,2.34435472E8,63.991837,-22.605427,146.22986,0.100349,4.91653,180.01294,8.668484,2.630619,0.07838,8.8E-5,7.94759,53.92369,-93.69158,7.314909,24.371275,0.003549,7.3E-5,-89.999855,-90.0,146.22986,1.3E-5,0.010802,282.84106,140.186,-0.017792,-0.96924,-1627.1665,476.626
0.0,0.0,0.0,0.0,0.0,0.0,0.2,2.34435376E8,2.34435376E8,2.34435392E8,2.34435392E8,2.3443544E8,2.34435472E8,63.991837,-22.605427,146.22987,0.100212,4.914944,180.01292,8.029797,2.626492,0.079064,1.06E-4,7.960092,51.228092,-96.387184,7.013828,23.360394,0.005745,1.17E-4,-89.999855,-90.0,146.22987,1.3E-5,0.01221,282.80756,142.61115,-0.017776,-0.921879,-1630.379,516.6426
0.0,0.0,0.0,0.0,0.0,0.0,0.2,2.34435376E8,2.34435376E8,2.34435392E8,2.34435392E8,2.3443544E8,2.34435472E8,63.991837,-22.605427,146.2299,0.099814,4.912169,180.0129,7.384096,2.623446,0.064845,1.87E-4,7.964911,48.528023,-99.08725,6.686132,22.256796,0.009149,1.87E-4,-99.999855,-100.0,146.2299,1.2E-5,0.024521,282.75558,145.08728,-0.017855,-0.876843,-1633.5505,585.3972
0.0,0.0,0.0,0.0,0.0,0.0,0.2,2.34435376E8,2.34435376E8,2.34435392E8,2.34435392E8,2.3443544E8,2.34435472E8,63.991837,-22.605427,146.22997,0.099017,4.90694,180.01282,6.736885,2.620903,0.056289,2.66E-4,7.967022,45.826385,-101.78889,6.332855,21.061432,0.014514,2.95E-4,-99.999855,-100.0,146.22997,3.1E-5,0.038141,282.67358,147.60852,-0.017914,-0.834024,-1636.5693,647.8706
0.0,0.0,0.0,0.0,0.0,0.0,0.2,2.34435376E8,2.34435376E8,2.34435392E8,2.34435392E8,2.3443544E8,2.34435472E8,63.991837,-22.605427,146.23003,0.097901,4.899293,180.01273,6.089761,2.618535,0.052029,3.26E-4,7.968095,43.124195,-104.49107,5.962223,19.797798,0.023023,4.66E-4,-99.999855,-100.0,146.23003,1.01E-4,0.049445,282.5433,150.16895,-0.017925,-0.793309,-1639.4055,703.6711
0.0,0.0,0.0,0.0,0.0,0.0,0.2,2.34435376E8,2.34435376E8,2.34435392E8,2.34435392E8,2.3443544E8,2.34435472E8,63.991837,-22.605427,146.23012,0.096566,4.889769,180.0126,5.442953,2.616237,0.049528,3.64E-4,7.968725,40.421818,-107.19346,5.582732,18.488201,0.036491,7.33E-4,-99.999855,-100.0,146.23012,1.87E-4,0.057194,282.33667,152.76271,-0.017887,-0.754592,-1642.0575,752.71954
0.0,0.0,0.0,0.0,0.0,0.0,0.2,2.34435376E8,2.34435376E8,2.34435392E8,2.34435392E8,2.3443544E8,2.34435472E8,63.991837,-22.605427,146.23022,0.095103,4.879041,180.01248,4.795969,2.614203,0.045997,3.81E-4,7.96916,37.719368,-109.895905,5.203223,17.153173,0.057615,0.001147,-109.999855,-110.0,146.23022,2.82E-4,0.060985,282.01172,155.38403,-0.017806,-0.717771,-1644.533,795.1586
0.0,0.0,0.0,0.0,0.0,0.0,0.2,2.34435376E8,2.34435376E8,2.34435392E8,2.34435392E8,2.3443544E8,2.34435472E8,63.991837,-22.605427,146.23032,0.093594,4.86912,180.01231,4.143089,2.615912,0.026028,3.9E-4,7.963346,34.966084,-112.649185,4.834859,15.817052,0.090277,0.001779,-109.999855,-110.0,146.23032,4.13E-4,0.052465,281.5077,158.02718,-0.017706,-0.682759,-1648.8469,831.28375
0.0,0.0,0.0,0.0,0.0,0.0,0.2,2.34435376E8,2.34435376E8,2.34435392E8,2.34435392E8,2.3443544E8,2.34435472E8,63.991837,-22.605427,146.2304,0.092079,4.861954,180.01204,3.489217,2.622132,0.015342,4.41E-4,7.942109,32.29649,-115.31878,4.494253,14.518191,0.139611,0.002718,-109.999855,-110.0,146.2304,6.61E-4,0.042904,280.74402,160.68646,-0.017317,-0.649473,-1649.5803,861.4927
0.0,0.0,0.0,0.0,0.0,0.0,0.2,2.34435376E8,2.34435376E8,2.34435392E8,2.34435392E8,2.3443544E8,2.34435472E8,63.991837,-22.605427,146.23047,0.090662,4.857172,180.01186,2.829965,2.632258,0.011244,5.46E-4,7.965829,29.605537,-118.009735,4.190547,13.26564,0.212078,0.004078,-119.999855,-120.0,146.23047,0.001101,0.039181,279.61847,163.35634,-0.017328,-0.6178,-1651.0984,886.2434
0.0,0.0,0.0,0.0,0.0,0.0,0.2,2.34435376E8,2.34435376E8,2.34435392E8,2.34435392E8,2.3443544E8,2.34435472E8,63.991837,-22.605427,146.23053,0.089337,4.854137,180.01157,2.176278,2.645719,0.009385,6.89E-4,7.938366,26.864365,-120.75091,3.932783,12.063266,0.3156,0.005991,-119.999855,-120.0,146.23053,0.001793,0.038677,278.00424,166.0313,-0.017282,-0.587685,-1654.4553,906.0262
0.0,0.0,0.0,0.0,0.0,0.0,0.2,2.34435376E8,2.34435376E8,2.34435392E8,2.34435392E8,2.3443544E8,2.34435472E8,63.991837,-22.605427,146.2306,0.088137,4.85229,180.01125,1.526189,2.661926,0.008247,8.44E-4,7.959784,24.190874,-123.4244,3.730853,10.913592,0.459358,0.008609,-119.999855,-120.0,146.2306,0.002789,0.044346,275.7514,168.70593,-0.017123,-0.559046,-1654.9647,921.3424
0.0,0.0,0.0,0.0,0.0,0.0,0.2,2.34435376E8,2.34435376E8,2.34435392E8,2.34435392E8,2.3443544E8,2.34435472E8,63.991837,-22.605427,146.23067,0.087117,4.851232,180.01082,0.889188,2.680335,0.007982,0.001074,7.983872,21.498516,-126.11676,3.595263,9.819048,0.653177,0.012092,-119.999855,-120.0,146.23067,0.004123,0.041294,272.69373,171.37495,-0.017146,-0.531821,-1656.1733,932.6853
0.0,0.0,0.0,0.0,0.0,0.0,0.2,2.34435376E8,2.34435376E8,2.34435392E8,2.34435392E8,2.3443544E8,2.34435472E8,63.991837,-22.605427,146.23076,0.086255,4.850699,180.01035,0.257297,2.700428,0.007581,0.00128,8.080225,18.739052,-128.87622,3.535781,8.781417,0.906332,0.016586,-129.99986,-130.0,146.23076,0.005822,0.049311,268.66385,174.0332,-0.01743,-0.505928,-1659.965,940.5302
0.0,0.0,0.0,0.0,0.0,0.0,0.2,2.34435376E8,2.34435376E8,2.34435392E8,2.34435392E8,2.3443544E8,2.34435472E8,63.991837,-22.605427,146.23085,0.085553,4.850481,180.00983,-0.364948,2.721745,0.007473,0.001531,7.97023,16.07688,-131.53839,3.55955,7.801904,1.225636,0.022192,-129.99986,-130.0,146.23085,0.007901,0.056456,263.51886,176.6756,-0.017771,-0.481304,-1659.6643,945.3282
0.0,0.0,0.0,0.0,0.0,0.0,0.2,2.34435376E8,2.34435376E8,2.34435392E8,2.34435392E8,2.3443544E8,2.34435472E8,63.991837,-22.605427,146.23094,0.085014,4.850439,180.00928,-0.977353,2.743867,0.007311,0.001766,8.001341,13.388492,-134.22678,3.668607,6.881461,1.612846,0.028925,-129.99986,-130.0,146.23094,0.010365,0.060045,257.17734,179.29723,-0.018154,-0.457887,-1660.3989,947.49835
0.0,0.0,0.0,0.0,0.0,0.0,0.2,2.34435376E8,2.34435376E8,2.34435392E8,2.34435392E8,2.3443544E8,2.34435472E8,63.991837,-22.605427,146.23106,0.084629,4.850485,180.00868,-1.579758,2.766437,0.007212,0.002009,8.062144,10.587726,-137.02754,3.856866,6.020599,2.061686,0.036666,-129.99986,-130.0,146.23106,0.013214,0.06917,249.66614,181.8933,-0.01855,-0.435615,-1665.479,947.42664
0.0,0.0,0.0,0.0,0.0,0.0,0.2,2.34435376E8,2.34435376E8,2.34435392E8,2.34435392E8,2.3443544E8,2.34435472E8,63.991837,-22.605427,146.2312,0.084382,4.850554,180.00806,-2.172851,2.789155,0.007069,0.002228,7.965866,7.953698,-139.66158,4.107672,5.219462,2.555371,0.045128,-139.99986,-140.0,146.2312,0.016439,0.078663,241.16718,184.45917,-0.018965,-0.414434,-1663.7175,945.4676
0.0,0.0,0.0,0.0,0.0,0.0,0.2,2.34435376E8,2.34435376E8,2.34435392E8,2.34435392E8,2.3443544E8,2.34435472E8,63.991837,-22.605427,146.23131,0.084288,4.8506,180.00761,-2.655387,2.808003,0.006979,0.00241,8.00857,5.723158,-141.89212,4.344633,4.597327,2.981153,0.052396,-139.99986,-140.0,146.23131,0.019405,0.085741,233.59001,186.57108,-0.019377,-0.397576,-1663.7175,942.62396
0.0,0.0,0.0,0.0,0.0,0.0,0.2,2.34435376E8,2.34435376E8,2.34435392E8,2.34435392E8,2.3443544E8,2.34435472E8,63.991837,-22.605427,146.23149,0.084277,4.850622,180.00674,-3.3322,2.834061,0.00699,0.0027,7.955441,2.513058,-145.10222,4.676829,3.79521,3.556928,0.062208,-139.99986,-140.0,146.23149,0.023963,0.093288,222.85515,189.48251,-0.01979,-0.375127,-1666.9926,937.12823
0.0,0.0,0.0,0.0,0.0,0.0,0.2,2.34435376E8,2.34435376E8,2.34435392E8,2.34435392E8,2.3443544E8,2.34435472E8,63.991837,-22.605427,146.23167,0.084375,4.850577,180.00604,-3.899928,2.855878,0.006995,0.002938,8.006714,-0.142514,-147.75778,4.920515,3.171043,3.990085,0.06961,-149.99986,-150.0,146.23167,0.028223,0.099964,214.24146,191.93149,-0.020189,-0.35691,-1665.9554,931.291
0.0,0.0,0.0,0.0,0.0,0.0,0.2,2.34435376E8,2.34435376E8,2.34435392E8,2.34435392E8,2.3443544E8,2.34435472E8,63.991837,-22.605427,146.23186,0.084569,4.850486,180.00525,-4.460614,2.87709,0.006921,0.00313,8.042092,-2.828588,-150.44386,5.093822,2.60473,4.335074,0.07557,-149.99986,-150.0,146.23186,0.032787,0.109222,206.83885,194.33328,-0.020632,-0.339594,-1666.1627,924.65344
0.0,0.0,0.0,0.0,0.0,0.0,0.2,2.34435376E8,2.34435376E8,2.34435392E8,2.34435392E8,2.3443544E8,2.34435472E8,63.991837,-22.605427,146.23206,0.08484,4.850342,180.00447,-5.010033,2.897577,0.006846,0.003305,8.011359,-5.561275,-153.17654,5.183245,2.095882,4.578446,0.079888,-149.99986,-150.0,146.23206,0.037629,0.117609,201.09373,196.68405,-0.021256,-0.323128,-1668.1112,917.4148
0.0,0.0,0.0,0.0,0.0,0.0,0.2,2.34435376E8,2.34435376E8,2.34435392E8,2.34435392E8,2.3443544E8,2.34435472E8,63.991837,-22.605427,146.23225,0.085166,4.850148,180.00357,-5.558241,2.917314,0.006858,0.003508,8.046227,-8.238625,-155.8539,5.195641,1.644453,4.727113,0.082695,-149.99986,-150.0,146.23225,0.042723,0.123211,197.14029,198.98016,-0.022162,-0.307474,-1667.8308,909.7505
0.0,0.0,0.0,0.0,0.0,0.0,0.2,2.34435376E8,2.34435376E8,2.34435392E8,2.34435392E8,2.3443544E8,2.34435472E8,63.991837,-22.605427,146.23248,0.085543,4.849912,180.00264,-6.100474,2.936237,0.006874,0.003702,8.149839,-10.992838,-158.60811,5.153493,1.250497,4.803655,0.084369,-159.99986,-160.0,146.23248,0.048044,0.13049,194.77914,201.21815,-0.023027,-0.292592,-1670.5903,901.8116
0.0,0.0,0.0,0.0,0.0,0.0,0.2,2.34435376E8,2.34435376E8,2.34435392E8,2.34435392E8,2.3443544E8,2.34435472E8,63.991837,-22.605427,146.23271,0.08595,4.84965,180.00166,-6.639034,2.954334,0.006832,0.003851,8.04209,-13.65318,-161.26845,5.084435,0.914195,4.835783,0.085358,-159.99986,-160.0,146.23271,0.053565,0.136729,193.58531,203.39471,-0.023897,-0.278442,-1669.4817,893.7302
0.0,0.0,0.0,0.0,0.0,0.0,0.2,2.34435376E8,2.34435376E8,2.34435392E8,2.34435392E8,2.3443544E8,2.34435472E8,63.991837,-22.605427,146.23296,0.086395,4.849357,180.00067,-7.17335,2.971595,0.006881,0.004038,8.071596,-16.340948,-163.95622,5.011122,0.635544,4.846266,0.086023,-159.99986,-160.0,146.23296,0.05926,0.140419,193.0887,205.50677,-0.024697,-0.264985,-1669.4998,885.6184
0.0,0.0,0.0,0.0,0.0,0.0,0.2,2.34435376E8,2.34435376E8,2.34435392E8,2.34435392E8,2.3443544E8,2.34435472E8,63.991833,-22.605427,146.2332,0.086868,4.849034,179.99966,-7.704659,2.988038,0.006853,0.004169,8.085108,-19.038374,-166.65364,4.94699,0.414407,4.848644,0.086588,-159.99986,-160.0,146.2332,0.065105,0.145283,192.92401,207.5514,-0.02547,-0.252188,-1669.8848,877.57166
0.0,0.0,0.0,0.0,0.0,0.0,0.2,2.34435376E8,2.34435376E8,2.34435392E8,2.34435392E8,2.3443544E8,2.34435472E8,63.991833,-22.605427,146.23346,0.087351,4.848704,179.99864,-8.232948,3.003683,0.006843,0.004297,8.092328,-21.739204,-169.35448,4.897788,0.250487,4.848778,0.087124,-169.99986,-170.0,146.23346,0.071074,0.151187,192.88164,209.5259,-0.026193,-0.240018,-1670.371,869.6704
0.0,0.0,0.0,0.0,0.0,0.0,0.2,2.34435376E8,2.34435376E8,2.34435392E8,2.34435392E8,2.3443544E8,2.34435472E8,63.991833,-22.605427,146.23372,0.087843,4.848369,179.99762,-8.758781,3.018565,0.006835,0.004413,8.179416,-24.501707,-172.11697,4.865218,0.143418,4.848485,0.087643,-169.99986,-170.0,146.23372,0.077145,0.156051,192.87292,211.42773,-0.026868,-0.228444,-1673.255,861.98083
0.0,0.0,0.0,0.0,0.0,0.0,0.2,2.34435376E8,2.34435376E8,2.34435392E8,2.34435392E8,2.3443544E8,2.34435472E8,63.991833,-22.605427,146.234,0.088332,4.848031,179.99658,-9.282557,3.032725,0.006853,0.004536,8.065053,-27.164988,-174.78026,4.849546,0.092854,4.848138,0.088158,-169.99986,-170.0,146.234,0.083295,0.159104,192.87086,213.25458,-0.027497,-0.217438,-1672.0618,854.5582
0.0,0.0,0.0,0.0,0.0,0.0,0.2,2.34435376E8,2.34435376E8,2.34435392E8,2.34435392E8,2.3443544E8,2.34435472E8,63.991833,-22.605427,146.23427,0.088821,4.84769,179.99553,-9.804516,3.046209,0.006828,0.004619,8.083905,-29.904627,-177.5199,4.847778,0.088675,4.847778,0.088675,-179.99986,-180.0,146.23427,0.089505,0.163766,192.86969,215.0043,-0.028071,-0.20697,-1673.9015,847.44543
0.0,0.0,0.0,0.0,0.0,0.0,0.2,2.34435376E8,2.34435376E8,2.34435392E8,2.34435392E8,2.3443544E8,2.34435472E8,63.991833,-22.605427,146.23459,0.089289,4.847337,179.99438,-10.38364,3.060264,0.006743,0.004657,8.078853,-32.813213,-180.42848,4.847406,0.089213,4.847406,0.089213,-179.99986,-180.0,146.23459,0.096275,0.180103,192.8685,216.81055,-0.028783,-0.196209,-1673.4675,840.1293
0.0,0.0,0.0,0.0,0.0,0.0,0.2,2.34435376E8,2.34435376E8,2.34435392E8,2.34435392E8,2.3443544E8,2.34435472E8,63.991833,-22.605427,146.23485,0.089778,4.847054,179.99342,-10.843618,3.071351,0.006847,0.004801,8.084128,-35.260345,-182.87563,4.847109,0.089677,4.847109,0.089677,-179.99986,-180.0,146.23485,0.102023,0.168597,192.86748,218.2648,-0.029117,-0.187548,-1672.5638,834.2779
0.0,0.0,0.0,0.0,0.0,0.0,0.2,2.34435376E8,2.34435376E8,2.34435392E8,2.34435392E8,2.3443544E8,2.34435472E8,63.991833,-22.605427,146.23514,0.090241,4.846757,179.99237,-11.361266,3.083123,0.00683,0.00486,8.10524,-37.95748,-185.57275,4.846806,0.090148,4.846806,0.090148,-179.99986,-180.0,146.23514,0.108298,0.173025,192.86641,219.7723,-0.029585,-0.178543,-1672.6984,828.26575
0.0,0.0,0.0,0.0,0.0,0.0,0.2,2.34435376E8,2.34435376E8,2.34435392E8,2.34435392E8,2.3443544E8,2.34435472E8,63.991833,-22.605427,146.23544,0.090686,4.846469,179.9913,-11.877647,3.094434,0.006838,0.004929,8.110346,-40.658257,-188.27353,4.846516,0.090597,4.846516,0.090597,-189.99986,-190.0,146.23544,0.114562,0.173763,192.86534,221.19608,-0.030016,-0.16998,-1672.9586,822.65155
0.0,0.0,0.0,0.0,0.0,0.0,0.2,2.34435376E8,2.34435376E8,2.34435392E8,2.34435392E8,2.3443544E8,2.34435472E8,63.991833,-22.605427,146.23575,0.091115,4.846199,179.99025,-12.392996,3.10534,0.006826,0.004974,8.112908,-43.360317,-190.97559,4.846242,0.091028,4.846242,0.091028,-189.99986,-190.0,146.23575,0.120803,0.174937,192.86429,222.53499,-0.030427,-0.161836,-1673.2457,817.44055
0.0,0.0,0.0,0.0,0.0,0.0,0.2,2.34435376E8,2.34435376E8,2.34435392E8,2.34435392E8,2.3443544E8,2.34435472E8,63.991833,-22.605427,146.23605,0.09153,4.845947,179.98918,-12.907269,3.115894,0.006828,0.005023,8.114442,-46.06284,-193.67812,4.845989,0.091445,4.845989,0.091445,-189.99986,-190.0,146.23605,0.127007,0.174702,192.86322,223.78804,-0.030788,-0.15409,-1673.526,812.6329
0.0,0.0,0.0,0.0,0.0,0.0,0.2,2.34435376E8,2.34435376E8,2.34435392E8,2.34435392E8,2.3443544E8,2.34435472E8,63.991833,-22.605427,146.23636,0.09193,4.84572,179.98811,-13.420401,3.126149,0.006825,0.005061,8.11547,-48.765533,-196.38081,4.845757,0.091847,4.845757,0.091847,-189.99986,-190.0,146.23636,0.133164,0.176882,192.86215,224.95447,-0.031126,-0.146724,-1673.7887,808.2243
0.0,0.0,0.0,0.0,0.0,0.0,0.2,2.34435376E8,2.34435376E8,2.34435392E8,2.34435392E8,2.3443544E8,2.34435472E8,63.991833,-22.605427,146.23666,0.092313,4.845513,179.98705,-13.932371,3.136156,0.006851,0.005116,8.116189,-51.468296,-199.08357,4.845547,0.092232,4.845547,0.092232,-199.99986,-200.0,146.23666,0.139263,0.179398,192.86108,226.03368,-0.031438,-0.139718,-1674.0308,804.20703
0.0,0.0,0.0,0.0,0.0,0.0,0.2,2.34435376E8,2.34435376E8,2.34435392E8,2.34435392E8,2.3443544E8,2.34435472E8,63.991833,-22.605427,146.23697,0.092682,4.845329,179.98598,-14.443198,3.145965,0.006846,0.005141,8.116678,-54.171093,-201.78636,4.84536,0.092604,4.84536,0.092604,-199.99986,-200.0,146.23697,0.145297,0.181746,192.86002,227.02525,-0.031732,-0.133056,-1674.2523,800.56995
0.0,0.0,0.0,0.0,0.0,0.0,0.2,2.34435376E8,2.34435376E8,2.34435392E8,2.34435392E8,2.3443544E8,2.34435472E8,63.991833,-22.605427,146.23729,0.093033,4.845166,179.98491,-14.952835,3.155625,0.006822,0.005148,8.116979,-56.87391,-204.48918,4.845192,0.092958,4.845192,0.092958,-199.99986,-200.0,146.23729,0.151258,0.184028,192.85895,227.92897,-0.032009,-0.12672,-1674.454,797.2995
0.0,0.0,0.0,0.0,0.0,0.0,0.2,2.34435376E8,2.34435376E8,2.34435392E8,2.34435392E8,2.3443544E8,2.34435472E8,63.991833,-22.605427,146.23761,0.093369,4.845022,179.98383,-15.461011,3.165177,0.006853,0.005192,8.078343,-59.61944,-207.23471,4.845046,0.093296,4.845046,0.093296,-199.99986,-200.0,146.23761,0.15714,0.182552,192.85788,228.74477,-0.032266,-0.120694,-1676.2646,794.3796
0.0,0.0,0.0,0.0,0.0,0.0,0.2,2.34435376E8,2.34435376E8,2.34435392E8,2.34435392E8,2.3443544E8,2.34435472E8,63.991833,-22.605427,146.23792,0.09369,4.844894,179.98276,-15.967821,3.174666,0.006858,0.005213,8.091318,-62.29462,-209.9099,4.844916,0.093618,4.844916,0.093618,-209.99986,-210.0,146.23792,0.162936,0.181277,192.8568,229.4728,-0.032503,-0.114963,-1675.2584,791.7935
0.0,0.0,0.0,0.0,0.0,0.0,0.2,2.34435376E8,2.34435376E8,2.34435392E8,2.34435392E8,2.3443544E8,2.34435472E8,63.991833,-22.605427,146.23824,0.093994,4.844789,179.98167,-16.472986,3.184128,0.006861,0.005228,8.107813,-64.98774,-212.60301,4.844806,0.093926,4.844806,0.093926,-209.99986,-210.0,146.23824,0.168644,0.182082,192.85571,230.11331,-0.032725,-0.109514,-1675.0022,789.5224
0.0,0.0,0.0,0.0,0.0,0.0,0.2,2.34435376E8,2.34435376E8,2.34435392E8,2.34435392E8,2.3443544E8,2.34435472E8,63.991833,-22.605427,146.23856,0.094275,4.844698,179.98059,-16.976425,3.193602,0.006851,0.005231,8.113484,-67.687195,-215.30246,4.844712,0.09421,4.844712,0.09421,-209.99986,-210.0,146.23856,0.174259,0.18443,192.85464,230.66681,-0.032941,-0.104331,-1674.9999,787.5466
0.0,0.0,0.0,0.0,0.0,0.0,0.2,2.34435376E8,2.34435376E8,2.34435392E8,2.34435392E8,2.3443544E8,2.34435472E8,63.99183,-22.605427,146.23888,0.094555,4.844629,179.9795,-17.477882,3.203117,0.006851,0.00524,8.108306,-70.4397,-218.05496,4.84464,0.094489,4.84464,0.094489,-219.99986,-220.0,146.23888,0.179779,0.185503,192.85355,231.13391,-0.033131,-0.099403,-1677.0497,785.8457
0.0,0.0,0.0,0.0,0.0,0.0,0.2,2.34435376E8,2.34435376E8,2.34435392E8,2.34435392E8,2.3443544E8,2.34435472E8,63.99183,-22.605427,146.2392,0.094819,4.844581,179.97841,-17.97752,3.21271,0.006834,0.005233,8.046172,-73.15195,-220.76723,4.844588,0.094757,4.844588,0.094757,-219.99986,-220.0,146.2392,0.185201,0.185235,192.85246,231.51541,-0.033333,-0.094717,-1677.3772,784.3997
0.0,0.0,0.0,0.0,0.0,0.0,0.2,2.34435376E8,2.34435376E8,2.34435392E8,2.34435392E8,2.3443544E8,2.34435472E8,63.99183,-22.605427,146.23952,0.095065,4.844534,179.97731,-18.474943,3.222403,0.006856,0.005253,8.078509,-75.81546,-223.43074,4.844542,0.095006,4.844542,0.095006,-219.99986,-220.0,146.23952,0.190525,0.185772,192.85136,231.81223,-0.033524,-0.090261,-1675.8176,783.1887
0.0,0.0,0.0,0.0,0.0,0.0,0.2,2.34435376E8,2.34435376E8,2.34435392E8,2.34435392E8,2.3443544E8,2.34435472E8,63.99183,-22.605427,146.23984,0.095301,4.844499,179.97621,-18.969955,3.232221,0.006863,0.005262,8.101732,-78.50453,-226.1198,4.844504,0.095243,4.844504,0.095243,-219.99986,-220.0,146.23984,0.195749,0.18604,192.85027,232.02547,-0.033699,-0.086023,-1675.336,782.1921
0.0,0.0,0.0,0.0,0.0,0.0,0.2,2.34435376E8,2.34435376E8,2.34435392E8,2.34435392E8,2.3443544E8,2.34435472E8,63.99183,-22.605427,146.24016,0.09553,4.844485,179.97511,-19.462545,3.24219,0.006849,0.005253,8.109527,-81.2026,-228.81787,4.844487,0.095472,4.844487,0.095472,-229.99986,-230.0,146.24016,0.200874,0.186007,192.84917,232.15636,-0.033875,-0.081994,-1675.226,781.38995
0.0,0.0,0.0,0.0,0.0,0.0,0.2,2.34435376E8,2.34435376E8,2.34435392E8,2.34435392E8,2.3443544E8,2.34435472E8,63.99183,-22.605427,146.24046,0.095762,4.844491,179.974,-19.952486,3.252326,0.006853,0.005257,8.111794,-83.90385,-231.51912,4.844489,0.095704,4.844489,0.095704,-229.99986,-230.0,146.24046,0.205899,0.184397,192.84807,232.20627,-0.034035,-0.078162,-1675.2391,780.76324
0.0,0.0,0.0,0.0,0.0,0.0,0.2,2.34435376E8,2.34435376E8,2.34435392E8,2.34435392E8,2.3443544E8,2.34435472E8,63.99183,-22.605427,146.24078,0.095976,4.844517,179.97289,-20.439999,3.262652,0.006874,0.005273,8.11209,-86.60623,-234.2215,4.844512,0.095922,4.844512,0.095922,-229.99986,-230.0,146.24078,0.210826,0.183893,192.84695,232.17671,-0.034211,-0.074518,-1675.2885,780.2934
0.0,0.0,0.0,0.0,0.0,0.0,0.2,2.34435376E8,2.34435376E8,2.34435392E8,2.34435392E8,2.3443544E8,2.34435472E8,63.99183,-22.605427,146.2411,0.096164,4.844554,179.97177,-20.924536,3.273168,0.006847,0.005252,8.111669,-89.30902,-236.92429,4.844547,0.096114,4.844547,0.096114,-229.99986,-230.0,146.2411,0.215654,0.187214,192.84584,232.06932,-0.034362,-0.071054,-1675.3438,779.96265
0.0,0.0,0.0,0.0,0.0,0.0,0.2,2.34435376E8,2.34435376E8,2.34435392E8,2.34435392E8,2.3443544E8,2.34435472E8,63.99183,-22.605427,146.24142,0.096339,4.844598,179.97066,-21.406113,3.28389,0.006849,0.005253,8.110975,-92.01196,-239.62723,4.84459,0.096291,4.84459,0.096291,-239.99986,-240.0,146.24142,0.220387,0.188019,192.84473,231.88583,-0.034504,-0.067759,-1675.3948,779.75433
0.0,0.0,0.0,0.0,0.0,0.0,0.2,2.34435376E8,2.34435376E8,2.34435392E8,2.34435392E8,2.3443544E8,2.34435472E8,63.99183,-22.605427,146.24174,0.096502,4.844636,179.96953,-21.884684,3.294823,0.006868,0.005267,8.027693,-94.696365,-242.31165,4.844629,0.096455,4.844629,0.096455,-239.99986,-240.0,146.24174,0.225024,0.186946,192.8436,231.62814,-0.034643,-0.064627,-1674.6954,779.6525
0.0,0.0,0.0,0.0,0.0,0.0,0.2,2.34435376E8,2.34435376E8,2.34435392E8,2.34435392E8,2.3443544E8,2.34435472E8,63.99183,-22.605427,146.24207,0.096661,4.844678,179.96841,-22.359991,3.305821,0.00687,0.005267,5.591482,-96.17243,-243.7877,4.84467,0.096615,4.84467,0.096615,-239.99986,-240.0,146.24207,0.229567,0.186174,192.84248,231.29822,-0.034765,-0.061647,-1626.0531,779.6483
0.0,0.0,0.0,0.0,0.0,0.0,0.2,2.34435376E8,2.34435376E8,2.34435392E8,2.34435392E8,2.3443544E8,2.34435472E8,63.99183,-22.605427,146.24239,0.096814,4.844734,179.96729,-22.83212,3.317049,0.006856,0.005255,4.117075,-96.69768,-244.31294,4.844724,0.096769,4.844724,0.096769,-239.99986,-240.0,146.24239,0.23402,0.185101,192.84135,230.89813,-0.034884,-0.058814,-1539.744,779.7318
0.0,0.0,0.0,0.0,0.0,0.0,0.2,2.34435376E8,2.34435376E8,2.34435392E8,2.34435392E8,2.3443544E8,2.34435472E8,63.99183,-22.605427,146.2427,0.096948,4.844807,179.96616,-23.300959,3.328513,0.00687,0.005265,3.446147,-96.887955,-244.50323,4.844793,0.096906,4.844793,0.096906,-239.99986,-240.0,146.2427,0.238382,0.189428,192.84023,230.4301,-0.034999,-0.05612,-1439.7429,779.88916
0.0,0.0,0.0,0.0,0.0,0.0,0.2,2.34435376E8,2.34435376E8,2.34435392E8,2.34435392E8,2.3443544E8,2.34435472E8,63.99183,-22.605427,146.24303,0.097079,4.844884,179.96503,-23.766258,3.340215,0.006891,0.005281,3.173816,-96.96048,-244.57576,4.84487,0.097037,4.84487,0.097037,-239.99986,-240.0,146.24303,0.242657,0.184631,192.83911,229.89636,-0.035108,-0.053559,-1334.6545,780.10736
0.0,0.0,0.0,0.0,0.0,0.0,0.2,2.34435376E8,2.34435376E8,2.34435392E8,2.34435392E8,2.3443544E8,2.34435472E8,63.99183,-22.605427,146.24335,0.097207,4.84497,179.9639,-24.228117,3.352162,0.006875,0.005268,3.070226,-96.99157,-244.60684,4.844954,0.097166,4.844954,0.097166,-239.99986,-240.0,146.24335,0.246846,0.184262,192.83797,229.29929,-0.035214,-0.051123,-1227.6484,780.37463
0.0,0.0,0.0,0.0,0.0,0.0,0.2,2.34435376E8,2.34435376E8,2.34435392E8,2.34435392E8,2.3443544E8,2.34435472E8,63.99183,-22.605427,146.24367,0.09733,4.845061,179.96277,-24.68632,3.364353,0.006849,0.005249,3.031121,-97.00808,-244.62335,4.845045,0.097289,4.845045,0.097289,-239.99986,-240.0,146.24367,0.250953,0.188657,192.83684,228.64131,-0.035312,-0.048806,-1119.912,780.6804
0.0,0.0,0.0,0.0,0.0,0.0,0.2,2.34435376E8,2.34435376E8,2.34435392E8,2.34435392E8,2.3443544E8,2.34435472E8,63.99183,-22.605427,146.24399,0.097463,4.845143,179.96162,-25.140848,3.37679,0.006852,0.005252,3.015464,-97.01947,-244.63474,4.845128,0.097419,4.845128,0.097419,-239.99986,-240.0,146.24399,0.254978,0.184833,192.83571,227.92494,-0.035409,-0.046603,-1011.89526,781.0151
0.0,0.0,0.0,0.0,0.0,0.0,0.2,2.34435376E8,2.34435376E8,2.34435392E8,2.34435392E8,2.3443544E8,2.34435472E8,63.99183,-22.605427,146.24431,0.097588,4.845234,179.96048,-25.59184,3.389477,0.006864,0.005262,3.008149,-97.02906,-244.64433,4.845217,0.097547,4.845217,0.097547,-239.99986,-240.0,146.24431,0.258926,0.18916,192.83456,227.15277,-0.035507,-0.044509,-903.7716,781.3702
0.0,0.0,0.0,0.0,0.0,0.0,0.2,2.34435376E8,2.34435376E8,2.34435392E8,2.34435392E8,2.3443544E8,2.34435472E8,63.99183,-22.605427,146.24463,0.097715,4.845331,179.95934,-26.038939,3.402405,0.006896,0.005288,3.003776,-97.03803,-244.6533,4.845314,0.097673,4.845314,0.097673,-239.99986,-240.0,146.24463,0.262797,0.183591,192.83342,226.32741,-0.035599,-0.042518,-795.60974,781.73816
0.0,0.0,0.0,0.0,0.0,0.0,0.2,2.34435376E8,2.34435376E8,2.34435392E8,2.34435392E8,2.3443544E8,2.34435472E8,63.991825,-22.605427,146.24495,0.097835,4.845423,179.95819,-26.088625,3.403981,0.006854,0.005258,3.001219,-97.046524,-244.66179,4.845406,0.097795,4.845406,0.097795,-239.99986,-240.0,146.24495,0.266594,0.185839,192.83228,225.45157,-0.035703,-0.040624,-687.4143,782.1124
0.0,0.0,0.0,0.0,0.0,0.0,0.2,2.34435376E8,2.34435376E8,2.34435392E8,2.34435392E8,2.3443544E8,2.34435472E8,63.991825,-22.605427,146.24527,0.097927,4.845505,179.95703,-26.086226,3.404087,0.006876,0.005277,3.000381,-97.05462,-244.66989,4.84549,0.097893,4.84549,0.097893,-239.99986,-240.0,146.24527,0.270321,0.189428,192.83112,224.52797,-0.035798,-0.038824,-579.1885,782.4873
0.0,0.0,0.0,0.0,0.0,0.0,0.2,2.34435376E8,2.34435376E8,2.34435392E8,2.34435392E8,2.3443544E8,2.34435472E8,63.991825,-22.605427,146.24559,0.097988,4.845572,179.95587,-26.083458,3.404228,0.006878,0.005281,3.000217,-97.06274,-244.67801,4.845561,0.097959,4.845561,0.097959,-239.99986,-240.0,146.24559,0.273978,0.183088,192.82997,223.55939,-0.035892,-0.037114,-470.97714,782.8579
0.0,0.0,0.0,0.0,0.0,0.0,0.2,2.34435376E8,2.34435376E8,2.34435392E8,2.34435392E8,2.3443544E8,2.34435472E8,63.991825,-22.605427,146.24591,0.098025,4.845623,179.95473,-26.080362,3.404406,0.006835,0.005252,3.000088,-97.07053,-244.6858,4.845614,0.098001,4.845614,0.098001,-239.99986,-240.0,146.24591,0.277568,0.187114,192.82881,222.54863,-0.035985,-0.035488,-362.73782,783.2202
0.0,0.0,0.0,0.0,0.0,0.0,0.2,2.34435376E8,2.34435376E8,2.34435392E8,2.34435392E8,2.3443544E8,2.34435472E8,63.991825,-22.605427,146.24623,0.098043,4.845662,179.95355,-26.07693,3.404618,0.006857,0.005273,3.000493,-97.078384,-244.69366,4.845655,0.098022,4.845655,0.098022,-239.99986,-240.0,146.24623,0.281093,0.187047,192.82765,221.49854,-0.036056,-0.033943,-254.53532,783.57074
