aileron,elevator,rudder,flaps,slats,speedbrake,throttle,engine-pump0,engine-pump1,electric-pump0,electric-pump1,external-power,APU-generator,latitude-deg,longitude-deg,altitude-ft,roll-deg,pitch-deg,heading-deg,side-slip-deg,airspeed-kt,glideslope,vertical-speed-fps,airspeed-indicator_indicated-speed-kt,altimeter_indicated-altitude-ft,altimeter_pressure-alt-ft,attitude-indicator_indicated-pitch-deg,attitude-indicator_indicated-roll-deg,attitude-indicator_internal-pitch-deg,attitude-indicator_internal-roll-deg,encoder_indicated-altitude-ft,encoder_pressure-alt-ft,gps_indicated-altitude-ft,gps_indicated-ground-speed-kt,gps_indicated-vertical-speed,indicated-heading-offset-deg,indicated-heading-deg,magnetic-compass_indicated-heading-deg,slip-skid-ball_indicated-slip-skid,turn-indicator_indicated-turn-rate,vertical-speed-indicator_indicated-speed-fpm,engine_rpm
0.0,0.0,0.0,0.0,0.0,0.0,1.0,2.18768176E8,2.18768176E8,2.18768192E8,2.18768192E8,2.1876824E8,2.18768272E8,63.985043,-22.592484,-9999.0,0.0,0.424,270.02136,0.0,0.0,0.0,0.0,0.0,0.0,0.0,0.0,0.0,0.0,0.0,0.0,0.0,0.0,0.0,0.0,12.876752,0.0,0.0,0.0,0.0,0.0,0.0
0.0,0.0,0.0,0.0,0.0,0.0,1.0,2.18768176E8,2.18768176E8,2.18768192E8,2.18768192E8,2.1876824E8,2.18768272E8,63.985043,-22.592484,-9999.0,0.0,0.424,270.02136,0.0,0.0,0.0,0.0,0.0,389.08878,1.193444,12.0,40.0,0.0,0.0,0.0,0.0,0.0,0.0,0.0,12.876752,282.89813,0.0,0.0,0.0,0.0,0.0
0.0,0.0,0.0,0.0,0.0,0.0,1.0,2.18768176E8,2.18768176E8,2.18768192E8,2.18768192E8,2.1876824E8,2.18768272E8,63.991837,-22.605425,-9999.0,0.0,0.424,180.01839,0.0,0.0,0.0,0.0,0.0,389.08878,1.193444,12.0,40.0,0.0,0.0,0.0,0.0,0.0,0.0,0.0,12.876752,282.89813,0.0,0.0,0.0,0.0,0.0
0.0,0.0,0.0,0.0,0.0,0.0,1.0,2.18768176E8,2.18768176E8,2.18768192E8,2.18768192E8,2.1876824E8,2.18768272E8,63.991837,-22.605425,-9999.0,0.0,0.424,180.01839,0.0,0.0,0.0,0.0,0.0,389.08878,1.193444,12.0,40.0,0.0,0.0,0.0,0.0,0.0,0.0,0.0,12.876752,282.89813,0.0,0.0,0.0,0.0,0.0
0.0,0.0,0.0,0.0,0.0,0.0,1.0,2.18768176E8,2.18768176E8,2.18768192E8,2.18768192E8,2.1876824E8,2.18768272E8,63.991837,-22.605425,-9999.0,0.0,0.424,180.01839,0.0,0.0,0.0,0.0,0.0,389.08878,1.193444,12.0,40.0,0.0,0.0,0.0,0.0,0.0,0.0,0.0,12.876752,282.89813,0.0,0.0,0.0,0.0,0.0
0.0,0.0,0.0,0.0,0.0,0.0,1.0,2.18768176E8,2.18768176E8,2.18768192E8,2.18768192E8,2.1876824E8,2.18768272E8,63.991837,-22.605425,-9999.0,0.0,0.424,180.01839,0.0,0.0,0.0,0.0,0.0,389.08878,1.193444,12.0,40.0,0.0,0.0,0.0,0.0,0.0,0.0,0.0,12.876752,282.89813,0.0,0.0,0.0,0.0,0.0
0.0,0.0,0.0,0.0,0.0,0.0,1.0,2.18768176E8,2.18768176E8,2.18768192E8,2.18768192E8,2.1876824E8,2.18768272E8,63.991837,-22.605425,-9999.0,0.0,0.424,180.01839,0.0,0.0,0.0,0.0,0.0,389.08878,1.193444,12.0,40.0,0.0,0.0,0.0,0.0,0.0,0.0,0.0,12.876752,282.89813,0.0,0.0,0.0,0.0,0.0
0.0,0.0,0.0,0.0,0.0,0.0,1.0,2.18768176E8,2.18768176E8,2.18768192E8,2.18768192E8,2.1876824E8,2.18768272E8,63.991837,-22.605425,-9999.0,0.0,0.424,180.01839,0.0,0.0,0.0,0.0,0.0,389.08878,1.193444,12.0,40.0,0.0,0.0,0.0,0.0,0.0,0.0,0.0,12.876752,282.89813,0.0,0.0,0.0,0.0,0.0
0.0,0.0,0.0,0.0,0.0,0.0,1.0,2.18768176E8,2.18768176E8,2.18768192E8,2.18768192E8,2.1876824E8,2.18768272E8,63.991837,-22.605425,-9999.0,0.0,0.424,180.01839,0.0,0.0,0.0,0.0,0.0,389.08878,1.193444,12.0,40.0,0.0,0.0,0.0,0.0,0.0,0.0,0.0,12.876752,282.89813,0.0,0.0,0.0,0.0,0.0
0.0,0.0,0.0,0.0,0.0,0.0,1.0,2.18768176E8,2.18768176E8,2.18768192E8,2.18768192E8,2.1876824E8,2.18768272E8,63.991837,-22.605425,-9999.0,0.0,0.424,180.01839,0.0,0.0,0.0,0.0,0.0,389.08878,1.193444,12.0,40.0,0.0,0.0,0.0,0.0,0.0,0.0,0.0,12.876752,282.89813,0.0,0.0,0.0,0.0,0.0
0.0,0.0,0.0,0.0,0.0,0.0,1.0,2.18768176E8,2.18768176E8,2.18768192E8,2.18768192E8,2.1876824E8,2.18768272E8,63.991837,-22.605425,-9999.0,0.0,0.424,180.01839,0.0,0.0,0.0,0.0,0.0,389.08878,1.193444,12.0,40.0,0.0,0.0,0.0,0.0,0.0,0.0,0.0,12.876752,282.89813,0.0,0.0,0.0,0.0,0.0
0.0,0.0,0.0,0.0,0.0,0.0,1.0,2.18768176E8,2.18768176E8,2.18768192E8,2.18768192E8,2.1876824E8,2.18768272E8,63.991837,-22.605425,-9999.0,0.0,0.424,180.01839,0.0,0.0,0.0,0.0,0.0,389.08878,1.193444,12.0,40.0,0.0,0.0,0.0,0.0,0.0,0.0,0.0,12.876752,282.89813,0.0,0.0,0.0,0.0,0.0
0.0,0.0,0.0,0.0,0.0,0.0,1.0,2.18768176E8,2.18768176E8,2.18768192E8,2.18768192E8,2.1876824E8,2.18768272E8,63.991837,-22.605425,-9999.0,0.0,0.424,180.01839,0.0,0.0,0.0,0.0,0.0,389.08878,1.193444,12.0,40.0,0.0,0.0,0.0,0.0,0.0,0.0,0.0,12.876752,282.89813,0.0,0.0,0.0,0.0,0.0
0.0,0.0,0.0,0.0,0.0,0.0,1.0,2.18768176E8,2.18768176E8,2.18768192E8,2.18768192E8,2.1876824E8,2.18768272E8,63.991837,-22.605425,-9999.0,0.0,0.424,180.01839,0.0,0.0,0.0,0.0,0.0,389.08878,1.193444,12.0,40.0,0.0,0.0,0.0,0.0,0.0,0.0,0.0,12.876752,282.89813,0.0,0.0,0.0,0.0,0.0
0.0,0.0,0.0,0.0,0.0,0.0,1.0,2.18768176E8,2.18768176E8,2.18768192E8,2.18768192E8,2.1876824E8,2.18768272E8,63.991837,-22.605425,-9999.0,0.0,0.424,180.01839,0.0,0.0,0.0,0.0,0.0,389.08878,1.193444,12.0,40.0,0.0,0.0,0.0,0.0,0.0,0.0,0.0,12.876752,282.89813,0.0,0.0,0.0,0.0,0.0
0.0,0.0,0.0,0.0,0.0,0.0,1.0,2.18768176E8,2.18768176E8,2.18768192E8,2.18768192E8,2.1876824E8,2.18768272E8,63.991837,-22.605425,-9999.0,0.0,0.424,180.01839,0.0,0.0,0.0,0.0,0.0,389.08878,1.193444,12.0,40.0,0.0,0.0,0.0,0.0,0.0,0.0,0.0,12.876752,282.89813,0.0,0.0,0.0,0.0,0.0
0.0,0.0,0.0,0.0,0.0,0.0,1.0,2.18768176E8,2.18768176E8,2.18768192E8,2.18768192E8,2.1876824E8,2.18768272E8,63.991837,-22.605425,-9999.0,0.0,0.424,180.01839,0.0,0.0,0.0,0.0,0.0,389.08878,1.193444,12.0,40.0,0.0,0.0,0.0,0.0,0.0,0.0,0.0,12.876752,282.89813,0.0,0.0,0.0,0.0,0.0
0.0,0.0,0.0,0.0,0.0,0.0,1.0,2.18768176E8,2.18768176E8,2.18768192E8,2.18768192E8,2.1876824E8,2.18768272E8,63.991837,-22.605425,-9999.0,0.0,0.424,180.01839,0.0,0.0,0.0,0.0,0.0,389.08878,1.193444,12.0,40.0,0.0,0.0,0.0,0.0,0.0,0.0,0.0,12.876752,282.89813,0.0,0.0,0.0,0.0,0.0
0.0,0.0,0.0,0.0,0.0,0.0,1.0,2.18768176E8,2.18768176E8,2.18768192E8,2.18768192E8,2.1876824E8,2.18768272E8,63.991837,-22.605425,-9999.0,0.0,0.424,180.01839,0.0,0.0,0.0,0.0,0.0,389.08878,1.193444,12.0,40.0,0.0,0.0,0.0,0.0,0.0,0.0,0.0,12.876752,282.89813,0.0,0.0,0.0,0.0,0.0
0.0,0.0,0.0,0.0,0.0,0.0,1.0,2.18768176E8,2.18768176E8,2.18768192E8,2.18768192E8,2.1876824E8,2.18768272E8,63.991837,-22.605425,-9999.0,0.0,0.424,180.01839,0.0,0.0,0.0,0.0,0.0,389.08878,1.193444,12.0,40.0,0.0,0.0,0.0,0.0,0.0,0.0,0.0,12.876752,282.89813,0.0,0.0,0.0,0.0,0.0
0.0,0.0,0.0,0.0,0.0,0.0,1.0,2.18768176E8,2.18768176E8,2.18768192E8,2.18768192E8,2.1876824E8,2.18768272E8,63.991837,-22.605425,-9999.0,0.0,0.424,180.01839,0.0,0.0,0.0,0.0,0.0,389.08878,1.193444,12.0,40.0,0.0,0.0,0.0,0.0,0.0,0.0,0.0,12.876752,282.89813,0.0,0.0,0.0,0.0,0.0
0.0,0.0,0.0,0.0,0.0,0.0,1.0,2.18768176E8,2.18768176E8,2.18768192E8,2.18768192E8,2.1876824E8,2.18768272E8,63.991837,-22.605425,-9999.0,0.0,0.424,180.01839,0.0,0.0,0.0,0.0,0.0,389.08878,1.193444,12.0,40.0,0.0,0.0,0.0,0.0,0.0,0.0,0.0,12.876752,282.89813,0.0,0.0,0.0,0.0,0.0
0.0,0.0,0.0,0.0,0.0,0.0,1.0,2.18768176E8,2.18768176E8,2.18768192E8,2.18768192E8,2.1876824E8,2.18768272E8,63.991837,-22.605425,-9999.0,0.0,0.424,180.01839,0.0,0.0,0.0,0.0,0.0,389.08878,1.193444,12.0,40.0,0.0,0.0,0.0,0.0,0.0,0.0,0.0,12.876752,282.89813,0.0,0.0,0.0,0.0,0.0
0.0,0.0,0.0,0.0,0.0,0.0,1.0,2.18768176E8,2.18768176E8,2.18768192E8,2.18768192E8,2.1876824E8,2.18768272E8,63.991837,-22.605425,-9999.0,0.0,0.424,180.01839,0.0,0.0,0.0,0.0,0.0,389.08878,1.193444,12.0,40.0,0.0,0.0,0.0,0.0,0.0,0.0,0.0,12.876752,282.89813,0.0,0.0,0.0,0.0,0.0
0.0,0.0,0.0,0.0,0.0,0.0,1.0,2.18768176E8,2.18768176E8,2.18768192E8,2.18768192E8,2.1876824E8,2.18768272E8,63.991837,-22.605425,-9999.0,0.0,0.424,180.01839,0.0,0.0,0.0,0.0,0.0,389.08878,1.193444,12.0,40.0,0.0,0.0,0.0,0.0,0.0,0.0,0.0,12.876752,282.89813,0.0,0.0,0.0,0.0,0.0
0.0,0.0,0.0,0.0,0.0,0.0,1.0,2.18768176E8,2.18768176E8,2.18768192E8,2.18768192E8,2.1876824E8,2.18768272E8,63.991837,-22.605425,-9999.0,0.0,0.424,180.01839,0.0,0.0,0.0,0.0,0.0,389.08878,1.193444,12.0,40.0,0.0,0.0,0.0,0.0,0.0,0.0,0.0,12.876752,282.89813,0.0,0.0,0.0,0.0,0.0
0.0,0.0,0.0,0.0,0.0,0.0,1.0,2.18768176E8,2.18768176E8,2.18768192E8,2.18768192E8,2.1876824E8,2.18768272E8,63.991837,-22.605425,-9999.0,0.0,0.424,180.01839,0.0,0.0,0.0,0.0,0.0,389.08878,1.193444,12.0,40.0,0.0,0.0,0.0,0.0,0.0,0.0,0.0,12.876752,282.89813,0.0,0.0,0.0,0.0,0.0
0.0,0.0,0.0,0.0,0.0,0.0,1.0,2.18768176E8,2.18768176E8,2.18768192E8,2.18768192E8,2.1876824E8,2.18768272E8,63.991837,-22.605425,-9999.0,0.0,0.424,180.01839,0.0,0.0,0.0,0.0,0.0,389.08878,1.193444,12.0,40.0,0.0,0.0,0.0,0.0,0.0,0.0,0.0,12.876752,282.89813,0.0,0.0,0.0,0.0,0.0
0.0,0.0,0.0,0.0,0.0,0.0,1.0,2.18768176E8,2.18768176E8,2.18768192E8,2.18768192E8,2.1876824E8,2.18768272E8,63.991837,-22.605425,-9999.0,0.0,0.424,180.01839,0.0,0.0,0.0,0.0,0.0,389.08878,1.193444,12.0,40.0,0.0,0.0,0.0,0.0,0.0,0.0,0.0,12.876752,282.89813,0.0,0.0,0.0,0.0,0.0
0.0,0.0,0.0,0.0,0.0,0.0,1.0,2.18768176E8,2.18768176E8,2.18768192E8,2.18768192E8,2.1876824E8,2.18768272E8,63.991837,-22.605425,-9999.0,0.0,0.424,180.01839,0.0,0.0,0.0,0.0,0.0,389.08878,1.193444,12.0,40.0,0.0,0.0,0.0,0.0,0.0,0.0,0.0,12.876752,282.89813,0.0,0.0,0.0,0.0,0.0
0.0,0.0,0.0,0.0,0.0,0.0,1.0,2.18768176E8,2.18768176E8,2.18768192E8,2.18768192E8,2.1876824E8,2.18768272E8,63.991837,-22.605425,-9999.0,0.0,0.424,180.01839,0.0,0.0,0.0,0.0,0.0,389.08878,1.193444,12.0,40.0,0.0,0.0,0.0,0.0,0.0,0.0,0.0,12.876752,282.89813,0.0,0.0,0.0,0.0,0.0
0.0,0.0,0.0,0.0,0.0,0.0,1.0,2.18768176E8,2.18768176E8,2.18768192E8,2.18768192E8,2.1876824E8,2.18768272E8,63.991837,-22.605425,-9999.0,0.0,0.424,180.01839,0.0,0.0,0.0,0.0,0.0,389.08878,1.193444,12.0,40.0,0.0,0.0,0.0,0.0,0.0,0.0,0.0,12.876752,282.89813,0.0,0.0,0.0,0.0,0.0
0.0,0.0,0.0,0.0,0.0,0.0,1.0,2.18768176E8,2.18768176E8,2.18768192E8,2.18768192E8,2.1876824E8,2.18768272E8,63.991837,-22.605425,-9999.0,0.0,0.424,180.01839,0.0,0.0,0.0,0.0,0.0,389.08878,1.193444,12.0,40.0,0.0,0.0,0.0,0.0,0.0,0.0,0.0,12.876752,282.89813,0.0,0.0,0.0,0.0,0.0
0.0,0.0,0.0,0.0,0.0,0.0,1.0,2.18768176E8,2.18768176E8,2.18768192E8,2.18768192E8,2.1876824E8,2.18768272E8,63.991837,-22.605425,-9999.0,0.0,0.424,180.01839,0.0,0.0,0.0,0.0,0.0,389.08878,1.193444,12.0,40.0,0.0,0.0,0.0,0.0,0.0,0.0,0.0,12.876752,282.89813,0.0,0.0,0.0,0.0,0.0
0.0,0.0,0.0,0.0,0.0,0.0,1.0,2.18768176E8,2.18768176E8,2.18768192E8,2.18768192E8,2.1876824E8,2.18768272E8,63.991837,-22.605425,-9999.0,0.0,0.424,180.01839,0.0,0.0,0.0,0.0,0.0,389.08878,1.193444,12.0,40.0,0.0,0.0,0.0,0.0,0.0,0.0,0.0,12.876752,282.89813,0.0,0.0,0.0,0.0,0.0
0.0,0.0,0.0,0.0,0.0,0.0,1.0,2.18768176E8,2.18768176E8,2.18768192E8,2.18768192E8,2.1876824E8,2.18768272E8,63.991837,-22.605425,-9999.0,0.0,0.424,180.01839,0.0,0.0,0.0,0.0,0.0,389.08878,1.193444,12.0,40.0,0.0,0.0,0.0,0.0,0.0,0.0,0.0,12.876752,282.89813,0.0,0.0,0.0,0.0,0.0
0.0,0.0,0.0,0.0,0.0,0.0,1.0,2.18768176E8,2.18768176E8,2.18768192E8,2.18768192E8,2.1876824E8,2.18768272E8,63.991837,-22.605425,-9999.0,0.0,0.424,180.01839,0.0,0.0,0.0,0.0,0.0,389.08878,1.193444,12.0,40.0,0.0,0.0,0.0,0.0,0.0,0.0,0.0,12.876752,282.89813,0.0,0.0,0.0,0.0,0.0
0.0,0.0,0.0,0.0,0.0,0.0,1.0,2.18768176E8,2.18768176E8,2.18768192E8,2.18768192E8,2.1876824E8,2.18768272E8,63.991837,-22.605425,-9999.0,0.0,0.424,180.01839,0.0,0.0,0.0,0.0,0.0,389.08878,1.193444,12.0,40.0,0.0,0.0,0.0,0.0,0.0,0.0,0.0,12.876752,282.89813,0.0,0.0,0.0,0.0,0.0
0.0,0.0,0.0,0.0,0.0,0.0,1.0,2.18768176E8,2.18768176E8,2.18768192E8,2.18768192E8,2.1876824E8,2.18768272E8,63.991837,-22.605425,-9999.0,0.0,0.424,180.01839,0.0,0.0,0.0,0.0,0.0,389.08878,1.193444,12.0,40.0,0.0,0.0,0.0,0.0,0.0,0.0,0.0,12.876752,282.89813,0.0,0.0,0.0,0.0,0.0
0.0,0.0,0.0,0.0,0.0,0.0,1.0,2.18768176E8,2.18768176E8,2.18768192E8,2.18768192E8,2.1876824E8,2.18768272E8,63.991837,-22.605425,-9999.0,0.0,0.424,180.01839,0.0,0.0,0.0,0.0,0.0,389.08878,1.193444,12.0,40.0,0.0,0.0,0.0,0.0,0.0,0.0,0.0,12.876752,282.89813,0.0,0.0,0.0,0.0,0.0
0.0,0.0,0.0,0.0,0.0,0.0,1.0,2.18768176E8,2.18768176E8,2.18768192E8,2.18768192E8,2.1876824E8,2.18768272E8,63.991837,-22.605425,-9999.0,0.0,0.424,180.01839,0.0,0.0,0.0,0.0,0.0,389.08878,1.193444,12.0,40.0,0.0,0.0,0.0,0.0,0.0,0.0,0.0,12.876752,282.89813,0.0,0.0,0.0,0.0,0.0
0.0,0.0,0.0,0.0,0.0,0.0,1.0,2.18768176E8,2.18768176E8,2.18768192E8,2.18768192E8,2.1876824E8,2.18768272E8,63.991837,-22.605425,-9999.0,0.0,0.424,180.01839,0.0,0.0,0.0,0.0,0.0,389.08878,1.193444,12.0,40.0,0.0,0.0,0.0,0.0,0.0,0.0,0.0,12.876752,282.89813,0.0,0.0,0.0,0.0,0.0
0.0,0.0,0.0,0.0,0.0,0.0,0.0,2.18768176E8,2.18768176E8,2.18768192E8,2.18768192E8,2.1876824E8,2.18768272E8,63.991837,-22.605427,146.2295,0.104764,4.952322,180.01332,0.0,0.0,0.0,0.0,0.0,389.08878,1.193444,12.0,40.0,0.0,0.0,0.0,0.0,0.0,0.0,0.0,12.876752,282.89813,0.0,0.0,0.0,0.0,0.0
0.0,0.0,0.0,0.0,0.0,0.0,0.0,2.18768176E8,2.18768176E8,2.18768192E8,2.18768192E8,2.1876824E8,2.18768272E8,63.991837,-22.605427,146.22926,0.094917,4.974184,180.01256,89.86618,3.012257,-0.068074,-1.3E-4,0.0,537.839,149.94366,12.0,40.0,0.0,0.0,150.00014,150.0,146.22926,7.4E-5,-0.015364,12.876752,282.89807,355.4906,-0.006744,-0.578238,3865.9712,0.0
0.0,0.0,0.0,0.0,0.0,0.0,0.0,2.18768176E8,2.18768176E8,2.18768192E8,2.18768192E8,2.1876824E8,2.18768272E8,63.991837,-22.605427,146.22952,0.095411,4.951488,180.01257,83.88284,2.733592,0.079822,2.0E-5,0.0,510.12122,122.225876,12.0,40.0,0.0,0.0,120.000145,120.0,146.22952,6.1E-5,0.002415,12.876752,282.89807,325.8578,-0.012979,-1.33561,2283.6306,0.0
0.0,0.0,0.0,0.0,0.0,0.0,0.0,2.18768176E8,2.18768176E8,2.18768192E8,2.18768192E8,2.1876824E8,2.18768272E8,63.991837,-22.605427,146.22954,0.095459,4.951219,180.01257,83.25425,2.709802,0.073537,1.3E-5,4.90386,508.52057,120.62521,12.0,40.0,0.0,0.0,120.000145,120.0,146.22954,6.0E-5,0.00151,12.876752,282.89807,322.04214,-0.013324,-1.387879,2138.7434,0.0
0.0,0.0,0.0,0.0,0.0,0.0,0.0,2.18768176E8,2.18768176E8,2.18768192E8,2.18768192E8,2.1876824E8,2.18768272E8,63.991837,-22.605427,146.22954,0.095798,4.950933,180.0126,81.78319,2.656962,-0.001154,-0.0,5.312857,503.0254,115.13005,12.0,40.0,0.0,0.0,120.000145,120.0,146.22954,5.7E-5,2.01E-4,12.876752,282.89807,312.8404,-0.013909,-1.498114,1735.2737,0.0
0.0,0.0,0.0,0.0,0.0,0.0,0.0,2.18768176E8,2.18768176E8,2.18768192E8,2.18768192E8,2.1876824E8,2.18768272E8,63.991837,-22.605427,146.22954,0.095965,4.950885,180.01262,81.055916,2.632235,-0.044671,-6.0E-6,6.724502,500.88977,112.99443,12.0,40.0,0.0,0.0,110.000145,110.0,146.22954,5.6E-5,-2.68E-4,12.876752,282.89807,308.18698,-0.014179,-1.547076,1543.8424,0.0
0.0,0.0,0.0,0.0,0.0,0.0,0.0,2.18768176E8,2.18768176E8,2.18768192E8,2.18768192E8,2.1876824E8,2.18768272E8,63.991837,-22.605427,146.22954,0.096126,4.950875,180.01263,80.43933,2.611959,-0.065608,-1.0E-5,7.152948,498.74847,110.853134,12.0,40.0,0.0,0.0,110.000145,110.0,146.22954,5.5E-5,-5.7E-4,12.876752,282.89807,304.20407,-0.014424,-1.586045,1359.3289,0.0
0.0,0.0,0.0,0.0,0.0,0.0,0.0,2.18768176E8,2.18768176E8,2.18768192E8,2.18768192E8,2.1876824E8,2.18768272E8,63.991837,-22.605427,146.2295,0.098412,4.951532,180.01282,74.80209,2.452631,-0.104397,-7.0E-6,6.92E-4,476.3604,88.46506,12.0,40.0,0.0,0.0,90.000145,90.0,146.2295,4.8E-5,-6.37E-4,12.876752,282.89807,267.50693,-0.015806,-1.859099,-488.15097,0.0
0.0,0.0,0.0,0.0,0.0,0.0,0.0,2.18768176E8,2.18768176E8,2.18768192E8,2.18768192E8,2.1876824E8,2.18768272E8,63.991837,-22.605427,146.2295,0.098518,4.951565,180.01282,73.87693,2.430524,-0.149836,-1.3E-5,5.811159,474.95334,87.057976,12.0,40.0,0.0,0.0,90.000145,90.0,146.2295,4.7E-5,-7.38E-4,12.876752,282.89807,261.60596,-0.015935,-1.89296,-549.1796,0.0
0.0,0.0,0.0,0.0,0.0,0.0,0.0,2.18768176E8,2.18768176E8,2.18768192E8,2.18768192E8,2.1876824E8,2.18768272E8,63.991837,-22.605427,146.2295,0.098645,4.951602,180.01283,73.00816,2.410692,-0.145277,-1.5E-5,6.932435,472.64258,84.74724,12.0,40.0,0.0,0.0,90.000145,90.0,146.2295,4.6E-5,-9.73E-4,12.876752,282.89807,256.12857,-0.016052,-1.922626,-682.5572,0.0
0.0,0.0,0.0,0.0,0.0,0.0,0.0,2.18768176E8,2.18768176E8,2.18768192E8,2.18768192E8,2.1876824E8,2.18768272E8,63.991837,-22.605427,146.2295,0.098798,4.95165,180.01285,72.12514,2.39142,-0.141642,-1.8E-5,7.282658,469.99255,82.09722,12.0,40.0,0.0,0.0,80.000145,80.0,146.2295,4.5E-5,-0.001208,12.876752,282.89807,250.63377,-0.016161,-1.950842,-803.55255,0.0
0.0,0.0,0.0,0.0,0.0,0.0,0.0,2.18768176E8,2.18768176E8,2.18768192E8,2.18768192E8,2.1876824E8,2.18768272E8,63.991837,-22.605427,146.22949,0.098971,4.951708,180.01286,71.2279,2.372722,-0.139559,-1.9E-5,7.402795,467.2231,79.32776,12.0,40.0,0.0,0.0,80.000145,80.0,146.22949,4.4E-5,-0.001275,12.876752,282.89807,245.13283,-0.016265,-1.977679,-903.80505,0.0
0.0,0.0,0.0,0.0,0.0,0.0,0.0,2.18768176E8,2.18768176E8,2.18768192E8,2.18768192E8,2.1876824E8,2.18768272E8,63.991837,-22.605427,146.22949,0.099154,4.951774,180.01288,70.31654,2.354612,-0.13832,-2.0E-5,7.44574,464.4116,76.51624,12.0,40.0,0.0,0.0,80.000145,80.0,146.22949,4.3E-5,-0.001442,12.876752,282.89807,239.63673,-0.016363,-2.003205,-986.7387,0.0
0.0,0.0,0.0,0.0,0.0,0.0,0.0,2.18768176E8,2.18768176E8,2.18768192E8,2.18768192E8,2.1876824E8,2.18768272E8,63.991837,-22.605427,146.22949,0.099347,4.951845,180.0129,69.39125,2.337106,-0.133851,-2.0E-5,7.50906,461.4771,73.58176,12.0,40.0,0.0,0.0,80.000145,80.0,146.22949,4.3E-5,-0.001476,12.876752,282.89807,234.1563,-0.016457,-2.027483,-1062.5864,0.0
0.0,0.0,0.0,0.0,0.0,0.0,0.0,2.18768176E8,2.18768176E8,2.18768192E8,2.18768192E8,2.1876824E8,2.18768272E8,63.991837,-22.605427,146.22949,0.099548,4.951921,180.01291,68.45218,2.320217,-0.126861,-1.9E-5,7.290311,458.3798,70.48444,12.0,40.0,0.0,0.0,70.000145,70.0,146.22949,4.2E-5,-0.00161,12.876752,282.89807,228.70206,-0.016545,-2.050575,-1135.2074,0.0
0.0,0.0,0.0,0.0,0.0,0.0,0.0,2.18768176E8,2.18768176E8,2.18768192E8,2.18768192E8,2.1876824E8,2.18768272E8,63.991837,-22.605427,146.22949,0.09976,4.952003,180.01292,67.41946,2.302629,-0.133782,-2.0E-5,7.241854,455.54575,67.65039,12.0,40.0,0.0,0.0,70.000145,70.0,146.22949,4.1E-5,-0.001543,12.876752,282.89807,222.83481,-0.016657,-2.07432,-1175.8151,0.0
0.0,0.0,0.0,0.0,0.0,0.0,0.0,2.18768176E8,2.18768176E8,2.18768192E8,2.18768192E8,2.1876824E8,2.18768272E8,63.991837,-22.605427,146.22949,0.099936,4.952071,180.01294,66.53345,2.288342,-0.133543,-1.9E-5,7.365604,453.01532,65.11999,12.0,40.0,0.0,0.0,70.000145,70.0,146.22949,4.0E-5,-0.001543,12.876752,282.89807,217.9131,-0.016707,-2.093429,-1212.8741,0.0
0.0,0.0,0.0,0.0,0.0,0.0,0.0,2.18768176E8,2.18768176E8,2.18768192E8,2.18768192E8,2.1876824E8,2.18768272E8,63.991837,-22.605427,146.22948,0.100141,4.95215,180.01295,65.47225,2.27217,-0.130492,-1.9E-5,7.440422,449.9717,62.076374,12.0,40.0,0.0,0.0,60.00014,60.0,146.22948,3.9E-5,-0.001677,12.876752,282.89807,212.15802,-0.016805,-2.114909,-1254.3296,0.0
0.0,0.0,0.0,0.0,0.0,0.0,0.0,2.18768176E8,2.18768176E8,2.18768192E8,2.18768192E8,2.1876824E8,2.18768272E8,63.991837,-22.605427,146.22948,0.100311,4.952216,180.01297,64.56267,2.259103,-0.132071,-1.9E-5,7.454504,447.40457,59.50924,12.0,40.0,0.0,0.0,60.00014,60.0,146.22948,3.8E-5,-0.001375,12.876752,282.89807,207.34875,-0.016851,-2.132196,-1285.1869,0.0
0.0,0.0,0.0,0.0,0.0,0.0,0.0,2.18768176E8,2.18768176E8,2.18768192E8,2.18768192E8,2.1876824E8,2.18768272E8,63.991837,-22.605427,146.22948,0.100494,4.952286,180.01299,63.558567,2.245505,-0.12818,-1.8E-5,7.560055,444.51514,56.619793,12.0,40.0,0.0,0.0,60.00014,60.0,146.22948,3.8E-5,-0.001308,12.876752,282.89807,202.17415,-0.016919,-2.15017,-1319.701,0.0
0.0,0.0,0.0,0.0,0.0,0.0,0.0,2.18768176E8,2.18768176E8,2.18768192E8,2.18768192E8,2.1876824E8,2.18768272E8,63.991837,-22.605427,146.22948,0.100674,4.952355,180.013,62.54248,2.232603,-0.128006,-1.7E-5,7.439909,441.7247,53.829365,12.0,40.0,0.0,0.0,60.00014,60.0,146.22948,3.7E-5,-0.001342,12.876752,282.89807,197.08308,-0.016983,-2.167267,-1346.153,0.0
0.0,0.0,0.0,0.0,0.0,0.0,0.0,2.18768176E8,2.18768176E8,2.18768192E8,2.18768192E8,2.1876824E8,2.18768272E8,63.991837,-22.605427,146.22948,0.100849,4.952422,180.013,61.514885,2.220411,-0.124473,-1.6E-5,7.425683,438.86096,50.965607,12.0,40.0,0.0,0.0,50.00014,50.0,146.22948,3.6E-5,-0.001275,12.876752,282.89807,192.08395,-0.017044,-2.183527,-1373.3503,0.0
0.0,0.0,0.0,0.0,0.0,0.0,0.0,2.18768176E8,2.18768176E8,2.18768192E8,2.18768192E8,2.1876824E8,2.18768272E8,63.991837,-22.605427,146.22948,0.10102,4.952487,180.01302,60.476234,2.208941,-0.121005,-1.5E-5,7.359028,435.98453,48.089188,12.0,40.0,0.0,0.0,50.00014,50.0,146.22948,3.6E-5,-0.001241,12.876752,282.89807,187.18488,-0.017103,-2.198993,-1398.4725,0.0
0.0,0.0,0.0,0.0,0.0,0.0,0.0,2.18768176E8,2.18768176E8,2.18768192E8,2.18768192E8,2.1876824E8,2.18768272E8,63.991837,-22.605427,146.22946,0.101186,4.952549,180.01303,59.427036,2.198203,-0.118219,-1.5E-5,7.451716,433.174,45.27867,12.0,40.0,0.0,0.0,50.00014,50.0,146.22946,3.5E-5,-0.001174,12.876752,282.89807,182.39357,-0.017158,-2.213703,-1418.5465,0.0
0.0,0.0,0.0,0.0,0.0,0.0,0.0,2.18768176E8,2.18768176E8,2.18768192E8,2.18768192E8,2.1876824E8,2.18768272E8,63.991837,-22.605427,146.22946,0.101346,4.95261,180.01305,58.36787,2.18821,-0.112941,-1.4E-5,7.617688,430.32214,42.42679,12.0,40.0,0.0,0.0,50.00014,50.0,146.22946,3.4E-5,-0.001073,12.876752,282.89807,177.71739,-0.01721,-2.227695,-1438.7915,0.0
0.0,0.0,0.0,0.0,0.0,0.0,0.0,2.18768176E8,2.18768176E8,2.18768192E8,2.18768192E8,2.1876824E8,2.18768272E8,63.991837,-22.605427,146.22946,0.101503,4.952667,180.01306,57.299297,2.17897,-0.109504,-1.3E-5,7.484275,427.50012,39.604763,12.0,40.0,0.0,0.0,40.00014,40.0,146.22946,3.3E-5,-0.001006,12.876752,282.89807,173.16331,-0.017261,-2.241002,-1455.9675,0.0
0.0,0.0,0.0,0.0,0.0,0.0,0.0,2.18768176E8,2.18768176E8,2.18768192E8,2.18768192E8,2.1876824E8,2.18768272E8,63.991837,-22.605427,146.22946,0.101665,4.952727,180.01308,56.1318,2.169823,-0.102778,-1.1E-5,7.532746,424.48865,36.593292,12.0,40.0,0.0,0.0,40.00014,40.0,146.22946,3.3E-5,-0.001073,12.876752,282.89807,168.3752,-0.017323,-2.254686,-1471.1117,0.0
0.0,0.0,0.0,0.0,0.0,0.0,0.0,2.18768176E8,2.18768176E8,2.18768192E8,2.18768192E8,2.1876824E8,2.18768272E8,63.991837,-22.605427,146.22946,0.101798,4.952776,180.01308,55.136524,2.162792,-0.097985,-1.1E-5,7.570077,421.9084,34.01304,12.0,40.0,0.0,0.0,40.00014,40.0,146.22946,3.2E-5,-0.001006,12.876752,282.89807,164.44754,-0.01735,-2.265698,-1484.2377,0.0
0.0,0.0,0.0,0.0,0.0,0.0,0.0,2.18768176E8,2.18768176E8,2.18768192E8,2.18768192E8,2.1876824E8,2.18768272E8,63.991837,-22.605427,146.22946,0.101951,4.952831,180.01309,53.952316,2.155329,-0.091234,-9.0E-6,7.557865,418.78638,30.891037,12.0,40.0,0.0,0.0,30.000143,30.0,146.22946,3.1E-5,-9.39E-4,12.876752,282.89807,159.95862,-0.017407,-2.278077,-1501.4178,0.0
0.0,0.0,0.0,0.0,0.0,0.0,0.0,2.18768176E8,2.18768176E8,2.18768192E8,2.18768192E8,2.1876824E8,2.18768272E8,63.991837,-22.605427,146.22946,0.102076,4.952875,180.0131,52.944176,2.149738,-0.086836,-9.0E-6,7.576669,416.22412,28.328789,12.0,40.0,0.0,0.0,30.000143,30.0,146.22946,3.1E-5,-8.72E-4,12.876752,282.89807,156.29443,-0.017434,-2.288039,-1511.6393,0.0
0.0,0.0,0.0,0.0,0.0,0.0,0.0,2.18768176E8,2.18768176E8,2.18768192E8,2.18768192E8,2.1876824E8,2.18768272E8,63.991837,-22.605427,146.22946,0.102209,4.952921,180.01312,51.838745,2.144402,-0.078608,-8.0E-6,7.595032,413.34494,25.449596,12.0,40.0,0.0,0.0,30.000143,30.0,146.22946,3.0E-5,-7.38E-4,12.876752,282.89807,152.4422,-0.017473,-2.298398,-1525.3773,0.0
0.0,0.0,0.0,0.0,0.0,0.0,0.0,2.18768176E8,2.18768176E8,2.18768192E8,2.18768192E8,2.1876824E8,2.18768272E8,63.991837,-22.605427,146.22946,0.102337,4.952966,180.01312,50.728172,2.139868,-0.069704,-7.0E-6,7.620138,410.44687,22.551512,12.0,40.0,0.0,0.0,30.000143,30.0,146.22946,3.0E-5,-6.37E-4,12.876752,282.89807,148.74585,-0.017511,-2.30825,-1538.8042,0.0
0.0,0.0,0.0,0.0,0.0,0.0,0.0,2.18768176E8,2.18768176E8,2.18768192E8,2.18768192E8,2.1876824E8,2.18768272E8,63.991837,-22.605427,146.22945,0.102462,4.953008,180.01314,49.61324,2.13614,-0.061861,-6.0E-6,7.499683,407.65326,19.757917,12.0,40.0,0.0,0.0,20.000143,20.0,146.22945,2.9E-5,-6.04E-4,12.876752,282.89807,145.2096,-0.017548,-2.317621,-1547.0056,0.0
0.0,0.0,0.0,0.0,0.0,0.0,0.0,2.18768176E8,2.18768176E8,2.18768192E8,2.18768192E8,2.1876824E8,2.18768272E8,63.991837,-22.605427,146.22945,0.10258,4.953048,180.01315,48.4948,2.133224,-0.052186,-5.0E-6,7.580976,404.87067,16.975307,12.0,40.0,0.0,0.0,20.000143,20.0,146.22945,2.8E-5,-5.37E-4,12.876752,282.89807,141.8373,-0.017583,-2.326534,-1554.2324,0.0
0.0,0.0,0.0,0.0,0.0,0.0,0.0,2.18768176E8,2.18768176E8,2.18768192E8,2.18768192E8,2.1876824E8,2.18768272E8,63.991837,-22.605427,146.22945,0.102695,4.953085,180.01315,47.373688,2.131123,-0.041373,-3.0E-6,7.619879,402.0543,14.158933,12.0,40.0,0.0,0.0,20.000143,20.0,146.22945,2.8E-5,-4.7E-4,12.876752,282.89807,138.63235,-0.017616,-2.335011,-1562.271,0.0
0.0,0.0,0.0,0.0,0.0,0.0,0.0,2.18768176E8,2.18768176E8,2.18768192E8,2.18768192E8,2.1876824E8,2.18768272E8,63.991837,-22.605427,146.22945,0.102806,4.953121,180.01317,46.250755,2.129839,-0.02961,-2.0E-6,7.638014,399.226,11.330663,12.0,40.0,0.0,0.0,10.000142,10.0,146.22945,2.7E-5,-3.69E-4,12.876752,282.89807,135.59784,-0.017649,-2.343074,-1570.1974,0.0
0.0,0.0,0.0,0.0,0.0,0.0,0.0,2.18768176E8,2.18768176E8,2.18768192E8,2.18768192E8,2.1876824E8,2.18768272E8,63.991837,-22.605427,146.22945,0.102913,4.953154,180.01317,45.12686,2.129375,-0.016087,-1.0E-6,7.64142,396.34027,8.444914,12.0,40.0,0.0,0.0,10.000142,10.0,146.22945,2.7E-5,-3.02E-4,12.876752,282.89807,132.73636,-0.017679,-2.350743,-1579.8087,0.0
0.0,0.0,0.0,0.0,0.0,0.0,0.0,2.18768176E8,2.18768176E8,2.18768192E8,2.18768192E8,2.1876824E8,2.18768272E8,63.991837,-22.605427,146.22945,0.103016,4.953186,180.01318,44.002857,2.12973,-0.002505,-0.0,7.625021,393.54083,5.645484,12.0,40.0,0.0,0.0,10.000142,10.0,146.22945,2.6E-5,-3.35E-4,12.876752,282.89807,130.05017,-0.017709,-2.358037,-1585.3665,0.0
0.0,0.0,0.0,0.0,0.0,0.0,0.0,2.18768176E8,2.18768176E8,2.18768192E8,2.18768192E8,2.1876824E8,2.18768272E8,63.991837,-22.605427,146.22945,0.103116,4.953215,180.01318,42.87962,2.130903,0.013124,1.0E-6,7.653305,390.7185,2.823147,12.0,40.0,0.0,0.0,10.000142,10.0,146.22945,2.6E-5,-1.68E-4,12.876752,282.89807,127.541115,-0.017737,-2.364975,-1591.4227,0.0
0.0,0.0,0.0,0.0,0.0,0.0,0.0,2.18768176E8,2.18768176E8,2.18768192E8,2.18768192E8,2.1876824E8,2.18768272E8,63.991837,-22.605427,146.22945,0.103213,4.953243,180.0132,41.758022,2.132896,0.029146,2.0E-6,7.576239,387.7523,-0.143056,12.0,40.0,0.0,0.0,1.42E-4,0.0,146.22945,2.5E-5,-1.34E-4,12.876752,282.89807,125.210655,-0.017764,-2.371573,-1602.8281,0.0
0.0,0.0,0.0,0.0,0.0,0.0,0.0,2.18768176E8,2.18768176E8,2.18768192E8,2.18768192E8,2.1876824E8,2.18768272E8,63.991837,-22.605427,146.22945,0.103306,4.953269,180.0132,40.638874,2.135703,0.047317,3.0E-6,7.591002,385.14,-2.755321,12.0,40.0,0.0,0.0,1.42E-4,0.0,146.22945,2.5E-5,-6.7E-5,12.876752,282.89807,123.059875,-0.017791,-2.37785,-1604.543,0.0
0.0,0.0,0.0,0.0,0.0,0.0,0.0,2.18768176E8,2.18768176E8,2.18768192E8,2.18768192E8,2.1876824E8,2.18768272E8,63.991837,-22.605427,146.22945,0.103396,4.953292,180.01321,39.523064,2.139323,0.065887,4.0E-6,7.624623,382.4417,-5.453621,12.0,40.0,0.0,0.0,1.42E-4,0.0,146.22945,2.4E-5,6.7E-5,12.876752,282.89807,121.08948,-0.017815,-2.383819,-1609.5648,0.0
0.0,0.0,0.0,0.0,0.0,0.0,0.0,2.18768176E8,2.18768176E8,2.18768192E8,2.18768192E8,2.1876824E8,2.18768272E8,63.991837,-22.605427,146.22945,0.103482,4.953314,180.01321,38.4114,2.143753,0.087908,5.0E-6,7.665362,379.76895,-8.126405,12.0,40.0,0.0,0.0,-9.999858,-10.0,146.22945,2.4E-5,1.34E-4,12.876752,282.89807,119.29978,-0.017839,-2.389497,-1613.2534,0.0
0.0,0.0,0.0,0.0,0.0,0.0,0.0,2.18768176E8,2.18768176E8,2.18768192E8,2.18768192E8,2.1876824E8,2.18768272E8,63.991837,-22.605427,146.22945,0.103565,4.953334,180.01323,37.3047,2.148985,0.110762,7.0E-6,7.69151,377.0772,-10.818123,12.0,40.0,0.0,0.0,-9.999858,-10.0,146.22945,2.3E-5,1.34E-4,12.876752,282.89807,117.690765,-0.017862,-2.394897,-1617.4474,0.0
0.0,0.0,0.0,0.0,0.0,0.0,0.0,2.18768176E8,2.18768176E8,2.18768192E8,2.18768192E8,2.1876824E8,2.18768272E8,63.991837,-22.605427,146.22945,0.103645,4.953353,180.01323,36.203735,2.155016,0.135015,8.0E-6,7.705677,374.3788,-13.516516,12.0,40.0,0.0,0.0,-9.999858,-10.0,146.22945,2.3E-5,2.01E-4,12.876752,282.89807,116.26203,-0.017885,-2.400033,-1621.6212,0.0
0.0,0.0,0.0,0.0,0.0,0.0,0.0,2.18768176E8,2.18768176E8,2.18768192E8,2.18768192E8,2.1876824E8,2.18768272E8,63.991837,-22.605427,146.22945,0.103723,4.95337,180.01323,35.109295,2.161839,0.151291,9.0E-6,7.718881,371.50165,-16.393684,12.0,40.0,0.0,0.0,-9.999858,-10.0,146.22945,2.2E-5,4.7E-4,12.876752,282.89807,115.01284,-0.017904,-2.404919,-1632.5892,0.0
0.0,0.0,0.0,0.0,0.0,0.0,0.0,2.18768176E8,2.18768176E8,2.18768192E8,2.18768192E8,2.1876824E8,2.18768272E8,63.991837,-22.605427,146.22945,0.103806,4.953386,180.01324,33.93182,2.170114,0.185626,1.0E-5,7.617153,368.57043,-19.324917,12.0,40.0,0.0,0.0,-19.999857,-20.0,146.22945,2.2E-5,3.69E-4,12.876752,282.89807,113.86089,-0.017931,-2.409942,-1636.2699,0.0
0.0,0.0,0.0,0.0,0.0,0.0,0.0,2.18768176E8,2.18768176E8,2.18768192E8,2.18768192E8,2.1876824E8,2.18768272E8,63.991837,-22.605427,146.22945,0.103878,4.9534,180.01324,32.853226,2.17856,0.218151,1.1E-5,7.568161,365.9499,-21.945461,12.0,40.0,0.0,0.0,-19.999857,-20.0,146.22945,2.1E-5,4.36E-4,12.876752,282.89807,112.98188,-0.017949,-2.414343,-1636.051,0.0
0.0,0.0,0.0,0.0,0.0,0.0,0.0,2.18768176E8,2.18768176E8,2.18768192E8,2.18768192E8,2.1876824E8,2.18768272E8,63.991837,-22.605427,146.22945,0.103941,4.953411,180.01326,31.872122,2.186975,0.246899,1.2E-5,7.65239,363.5224,-24.37296,12.0,40.0,0.0,0.0,-19.999857,-20.0,146.22945,2.1E-5,5.03E-4,12.876752,282.89807,112.33003,-0.017961,-2.418189,-1636.8809,0.0
0.0,0.0,0.0,0.0,0.0,0.0,0.0,2.18768176E8,2.18768176E8,2.18768192E8,2.18768192E8,2.1876824E8,2.18768272E8,63.991837,-22.605427,146.22946,0.104008,4.953421,180.01326,30.810709,2.196882,0.279814,1.3E-5,7.716278,360.85284,-27.04251,12.0,40.0,0.0,0.0,-19.999857,-20.0,146.22946,2.1E-5,6.04E-4,12.876752,282.89807,111.784904,-0.01798,-2.422187,-1638.5997,0.0
0.0,0.0,0.0,0.0,0.0,0.0,0.0,2.18768176E8,2.18768176E8,2.18768192E8,2.18768192E8,2.1876824E8,2.18768272E8,63.991837,-22.605427,146.22946,0.104073,4.95343,180.01326,29.759144,2.207536,0.310772,1.5E-5,7.729846,358.15298,-29.742353,12.0,40.0,0.0,0.0,-29.999857,-30.0,146.22946,2.0E-5,6.37E-4,12.876752,282.89807,111.41068,-0.017998,-2.425989,-1641.3845,0.0
0.0,0.0,0.0,0.0,0.0,0.0,0.0,2.18768176E8,2.18768176E8,2.18768192E8,2.18768192E8,2.1876824E8,2.18768272E8,63.991837,-22.605427,146.22946,0.104136,4.953437,180.01328,28.717989,2.218927,0.346928,1.6E-5,7.754733,355.46088,-32.434483,12.0,40.0,0.0,0.0,-29.999857,-30.0,146.22946,2.0E-5,6.71E-4,12.876752,282.89807,111.20472,-0.018015,-2.429606,-1643.6897,0.0
0.0,0.0,0.0,0.0,0.0,0.0,0.0,2.18768176E8,2.18768176E8,2.18768192E8,2.18768192E8,2.1876824E8,2.18768272E8,63.991837,-22.605427,146.22946,0.104197,4.953443,180.01328,27.687765,2.231043,0.382051,1.7E-5,7.76931,352.76224,-35.133102,12.0,40.0,0.0,0.0,-29.999857,-30.0,146.22946,1.9E-5,7.72E-4,12.876752,282.89807,111.16409,-0.018031,-2.433046,-1646.0944,0.0
0.0,0.0,0.0,0.0,0.0,0.0,0.0,2.18768176E8,2.18768176E8,2.18768192E8,2.18768192E8,2.1876824E8,2.18768272E8,63.991837,-22.605427,146.22946,0.104256,4.953448,180.01328,26.668959,2.243874,0.417346,1.8E-5,7.77985,350.06134,-37.834015,12.0,40.0,0.0,0.0,-39.99986,-40.0,146.22946,1.9E-5,8.72E-4,12.876752,282.89807,111.28561,-0.018047,-2.436318,-1648.4269,0.0
0.0,0.0,0.0,0.0,0.0,0.0,0.0,2.18768176E8,2.18768176E8,2.18768192E8,2.18768192E8,2.1876824E8,2.18768272E8,63.991837,-22.605427,146.22946,0.104313,4.953451,180.01329,25.662012,2.257406,0.453017,1.9E-5,7.789022,347.3596,-40.535744,12.0,40.0,0.0,0.0,-39.99986,-40.0,146.22946,1.9E-5,8.39E-4,12.876752,282.89807,111.565796,-0.018062,-2.43943,-1650.6344,0.0
0.0,0.0,0.0,0.0,0.0,0.0,0.0,2.18768176E8,2.18768176E8,2.18768192E8,2.18768192E8,2.1876824E8,2.18768272E8,63.991837,-22.605427,146.22946,0.104369,4.953453,180.01329,24.667334,2.271627,0.489077,2.1E-5,7.797763,344.65756,-43.237774,12.0,40.0,0.0,0.0,-39.99986,-40.0,146.22946,1.8E-5,9.39E-4,12.876752,282.89807,112.00098,-0.018077,-2.442391,-1652.7048,0.0
0.0,0.0,0.0,0.0,0.0,0.0,0.0,2.18768176E8,2.18768176E8,2.18768192E8,2.18768192E8,2.1876824E8,2.18768272E8,63.991837,-22.605427,146.22946,0.104423,4.953454,180.01329,23.685286,2.286525,0.524506,2.2E-5,7.806406,341.9554,-45.93992,12.0,40.0,0.0,0.0,-39.99986,-40.0,146.22946,1.8E-5,0.00104,12.876752,282.89807,112.587204,-0.018091,-2.445206,-1654.64,0.0
0.0,0.0,0.0,0.0,0.0,0.0,0.0,2.18768176E8,2.18768176E8,2.18768192E8,2.18768192E8,2.1876824E8,2.18768272E8,63.991837,-22.605427,146.22946,0.104476,4.953453,180.01329,22.716198,2.302087,0.559601,2.3E-5,7.815066,339.25323,-48.64211,12.0,40.0,0.0,0.0,-49.99986,-50.0,146.22946,1.8E-5,0.001073,12.876752,282.89807,113.32033,-0.018105,-2.447884,-1656.4464,0.0
0.0,0.0,0.0,0.0,0.0,0.0,0.0,2.18768176E8,2.18768176E8,2.18768192E8,2.18768192E8,2.1876824E8,2.18768272E8,63.991837,-22.605427,146.22948,0.104527,4.953451,180.0133,21.760357,2.318299,0.593906,2.4E-5,7.823782,336.55103,-51.344334,12.0,40.0,0.0,0.0,-49.99986,-50.0,146.22948,1.7E-5,0.001107,12.876752,282.89807,114.195984,-0.018118,-2.450431,-1658.1317,0.0
0.0,0.0,0.0,0.0,0.0,0.0,0.0,2.18768176E8,2.18768176E8,2.18768192E8,2.18768192E8,2.1876824E8,2.18768272E8,63.991837,-22.605427,146.22948,0.104578,4.953447,180.0133,20.818016,2.335147,0.596139,2.4E-5,7.79453,333.7665,-54.128822,12.0,40.0,0.0,0.0,-49.99986,-50.0,146.22948,1.7E-5,0.001677,12.876752,282.89807,115.20962,-0.01813,-2.452853,-1662.8047,0.0
0.0,0.0,0.0,0.0,0.0,0.0,0.0,2.18768176E8,2.18768176E8,2.18768192E8,2.18768192E8,2.1876824E8,2.18768272E8,63.991837,-22.605427,146.22948,0.104627,4.953443,180.0133,19.889383,2.352619,0.630044,2.5E-5,7.745246,331.10806,-56.787292,12.0,40.0,0.0,0.0,-49.99986,-50.0,146.22948,1.7E-5,0.001476,12.876752,282.89807,116.35648,-0.018143,-2.455157,-1662.357,0.0
0.0,0.0,0.0,0.0,0.0,0.0,0.0,2.18768176E8,2.18768176E8,2.18768192E8,2.18768192E8,2.1876824E8,2.18768272E8,63.991837,-22.605427,146.22948,0.104679,4.953439,180.0133,18.974762,2.3707,0.599867,2.8E-5,7.825961,328.4307,-59.464645,12.0,40.0,0.0,0.0,-59.99986,-60.0,146.22948,1.6E-5,0.001275,12.876752,282.89807,117.63167,-0.018153,-2.457349,-1662.6772,0.0
0.0,0.0,0.0,0.0,0.0,0.0,0.0,2.18768176E8,2.18768176E8,2.18768192E8,2.18768192E8,2.1876824E8,2.18768272E8,63.991837,-22.605427,146.22948,0.104741,4.95344,180.01332,18.074186,2.389375,0.549479,2.9E-5,7.850885,325.73718,-62.158165,12.0,40.0,0.0,0.0,-59.99986,-60.0,146.22948,1.6E-5,0.001342,12.876752,282.89807,119.030106,-0.018162,-2.459433,-1663.6002,0.0
0.0,0.0,0.0,0.0,0.0,0.0,0.0,2.18768176E8,2.18768176E8,2.18768192E8,2.18768192E8,2.1876824E8,2.18768272E8,63.991837,-22.605427,146.22948,0.104812,4.953446,180.01332,17.187737,2.408633,0.520144,3.1E-5,7.865505,323.03796,-64.85738,12.0,40.0,0.0,0.0,-59.99986,-60.0,146.22948,1.6E-5,0.001409,12.876752,282.89807,120.54657,-0.018172,-2.461416,-1664.68,0.0
0.0,0.0,0.0,0.0,0.0,0.0,0.0,2.18768176E8,2.18768176E8,2.18768192E8,2.18768192E8,2.1876824E8,2.18768272E8,63.991837,-22.605427,146.22949,0.10489,4.953455,180.01334,16.3155,2.42846,0.505635,3.2E-5,7.876621,320.33673,-67.55862,12.0,40.0,0.0,0.0,-69.999855,-70.0,146.22949,1.5E-5,0.001409,12.876752,282.89807,122.175735,-0.018183,-2.463301,-1665.7632,0.0
0.0,0.0,0.0,0.0,0.0,0.0,0.0,2.18768176E8,2.18768176E8,2.18768192E8,2.18768192E8,2.1876824E8,2.18768272E8,63.991837,-22.605427,146.22949,0.104973,4.953465,180.01334,15.457534,2.448841,0.500316,3.3E-5,7.886558,317.63477,-70.260574,12.0,40.0,0.0,0.0,-69.999855,-70.0,146.22949,1.5E-5,0.00151,12.876752,282.89807,123.91213,-0.018195,-2.465095,-1666.7992,0.0
0.0,0.0,0.0,0.0,0.0,0.0,0.0,2.18768176E8,2.18768176E8,2.18768192E8,2.18768192E8,2.1876824E8,2.18768272E8,63.991837,-22.605427,146.22949,0.105059,4.953476,180.01334,14.613873,2.469764,0.50059,3.4E-5,7.89613,314.93256,-72.96279,12.0,40.0,0.0,0.0,-69.999855,-70.0,146.22949,1.5E-5,0.001543,12.876752,282.89807,125.7502,-0.018207,-2.4668,-1667.7732,0.0
0.0,0.0,0.0,0.0,0.0,0.0,0.0,2.18768176E8,2.18768176E8,2.18768192E8,2.18768192E8,2.1876824E8,2.18768272E8,63.991837,-22.605427,146.22949,0.105149,4.953485,180.01335,13.784524,2.491214,0.504249,3.6E-5,7.905623,312.23022,-75.665115,12.0,40.0,0.0,0.0,-69.999855,-70.0,146.22949,1.4E-5,0.001644,12.876752,282.89807,127.68427,-0.01822,-2.468423,-1668.6831,0.0
0.0,0.0,0.0,0.0,0.0,0.0,0.0,2.18768176E8,2.18768176E8,2.18768192E8,2.18768192E8,2.1876824E8,2.18768272E8,63.991837,-22.605427,146.22949,0.105241,4.953493,180.01335,12.969465,2.513178,0.509821,3.7E-5,7.91514,309.52786,-78.367485,12.0,40.0,0.0,0.0,-79.999855,-80.0,146.22949,1.4E-5,0.001711,12.876752,282.89807,129.70862,-0.018233,-2.469966,-1669.5308,0.0
0.0,0.0,0.0,0.0,0.0,0.0,0.0,2.18768176E8,2.18768176E8,2.18768192E8,2.18768192E8,2.1876824E8,2.18768272E8,63.991837,-22.605427,146.22949,0.105272,4.953495,180.01337,12.700948,2.520611,0.511954,3.8E-5,7.918324,308.62708,-79.26828,12.0,40.0,0.0,0.0,-79.999855,-80.0,146.22949,1.4E-5,0.001711,12.876752,282.89807,130.40247,-0.018238,-2.470464,-1669.7999,0.0
0.0,0.0,0.0,0.0,0.0,0.0,0.0,2.18768176E8,2.18768176E8,2.18768192E8,2.18768192E8,2.1876824E8,2.18768272E8,63.991837,-22.605427,146.22952,0.106186,4.953449,180.01343,7.874872,2.624719,0.395661,1.3E-5,2.696186,288.48718,-99.40816,12.0,40.0,0.0,0.0,-99.999855,-100.0,146.22952,1.2E-5,7.04E-4,12.876752,282.89807,145.7053,-0.018382,-2.478762,-1662.9095,0.0
0.0,0.0,0.0,0.0,0.0,0.0,0.0,2.18768176E8,2.18768176E8,2.18768192E8,2.18768192E8,2.1876824E8,2.18768272E8,63.991837,-22.605427,146.22952,0.106254,4.953445,180.01344,7.127964,2.620273,0.183478,8.0E-6,5.837166,286.49738,-101.39796,12.0,40.0,0.0,0.0,-99.999855,-100.0,146.22952,1.2E-5,4.03E-4,12.876752,282.89807,148.66266,-0.018393,-2.479968,-1617.887,0.0
0.0,0.0,0.0,0.0,0.0,0.0,0.0,2.18768176E8,2.18768176E8,2.18768192E8,2.18768192E8,2.1876824E8,2.18768272E8,63.991837,-22.605427,146.22952,0.106312,4.953443,180.01344,6.539355,2.617093,0.099799,5.0E-6,7.124792,284.75574,-103.139595,12.0,40.0,0.0,0.0,-99.999855,-100.0,146.22952,1.2E-5,2.35E-4,12.876752,282.89807,151.02185,-0.0184,-2.480868,-1591.9135,0.0
0.0,0.0,0.0,0.0,0.0,0.0,0.0,2.18768176E8,2.18768176E8,2.18768192E8,2.18768192E8,2.1876824E8,2.18768272E8,63.991837,-22.605427,146.22952,0.106376,4.953439,180.01344,6.003067,2.614443,0.055047,3.0E-6,7.627512,282.76508,-105.13026,12.0,40.0,0.0,0.0,-99.999855,-100.0,146.22952,1.2E-5,1.68E-4,12.876752,282.89807,153.18958,-0.018413,-2.48165,-1586.1072,0.0
0.0,0.0,0.0,0.0,0.0,0.0,0.0,2.18768176E8,2.18768176E8,2.18768192E8,2.18768192E8,2.1876824E8,2.18768272E8,63.991837,-22.605427,146.22952,0.106479,4.953433,180.01346,5.25047,2.611118,0.023827,2.0E-6,7.826435,279.7195,-108.17583,12.0,40.0,0.0,0.0,-109.999855,-110.0,146.22952,1.1E-5,0.0,12.876752,282.89807,156.25465,-0.018426,-2.482692,-1588.9194,0.0
0.0,0.0,0.0,0.0,0.0,0.0,0.0,2.18768176E8,2.18768176E8,2.18768192E8,2.18768192E8,2.1876824E8,2.18768272E8,63.991837,-22.605427,146.22952,0.106576,4.953425,180.01346,4.603896,2.608628,0.010903,1.0E-6,7.91735,277.06946,-110.825874,12.0,40.0,0.0,0.0,-109.999855,-110.0,146.22952,1.1E-5,-3.4E-5,12.876752,282.89807,158.90376,-0.018441,-2.483538,-1592.8251,0.0
0.0,0.0,0.0,0.0,0.0,0.0,0.0,2.18768176E8,2.18768176E8,2.18768192E8,2.18768192E8,2.1876824E8,2.18768272E8,63.991837,-22.605427,146.22952,0.106679,4.953415,180.01347,3.956125,2.60647,0.004514,0.0,7.950225,274.38538,-113.50997,12.0,40.0,0.0,0.0,-109.999855,-110.0,146.22952,1.1E-5,-3.4E-5,12.876752,282.89807,161.56714,-0.018457,-2.484342,-1597.839,0.0
0.0,0.0,0.0,0.0,0.0,0.0,0.0,2.18768176E8,2.18768176E8,2.18768192E8,2.18768192E8,2.1876824E8,2.18768272E8,63.991837,-22.605427,146.22952,0.106786,4.953403,180.01347,3.307326,2.604646,0.002455,0.0,7.961865,271.68927,-116.20607,12.0,40.0,0.0,0.0,-109.999855,-110.0,146.22952,1.1E-5,-6.7E-5,12.876752,282.89807,164.2392,-0.018473,-2.485107,-1602.9889,0.0
0.0,0.0,0.0,0.0,0.0,0.0,0.0,2.18768176E8,2.18768176E8,2.18768192E8,2.18768192E8,2.1876824E8,2.18768272E8,63.991837,-22.605427,146.22952,0.106897,4.953389,180.01349,2.657665,2.603156,0.003347,0.0,7.966041,268.98895,-118.90641,12.0,40.0,0.0,0.0,-119.999855,-120.0,146.22952,1.0E-5,-0.0,12.876752,282.89807,166.9145,-0.01849,-2.485835,-1607.9521,0.0
0.0,0.0,0.0,0.0,0.0,0.0,0.0,2.18768176E8,2.18768176E8,2.18768192E8,2.18768192E8,2.1876824E8,2.18768272E8,63.991837,-22.605427,146.22952,0.106991,4.953375,180.0135,2.115761,2.602171,0.006195,1.0E-6,8.012181,266.6343,-121.261024,12.0,40.0,0.0,0.0,-119.999855,-120.0,146.22952,1.0E-5,-6.7E-5,12.876752,282.89807,169.14252,-0.018506,-2.486414,-1616.0322,0.0
0.0,0.0,0.0,0.0,0.0,0.0,0.0,2.18768176E8,2.18768176E8,2.18768192E8,2.18768192E8,2.1876824E8,2.18768272E8,63.991837,-22.605427,146.22952,0.107124,4.953353,180.0135,1.356433,2.601182,0.009941,1.0E-6,7.872884,263.5289,-124.36645,12.0,40.0,0.0,0.0,-119.999855,-120.0,146.22952,1.0E-5,-0.0,12.876752,282.89807,172.25346,-0.018524,-2.487186,-1618.885,0.0
0.0,0.0,0.0,0.0,0.0,0.0,0.0,2.18768176E8,2.18768176E8,2.18768192E8,2.18768192E8,2.1876824E8,2.18768272E8,63.991837,-22.605427,146.22952,0.107237,4.953332,180.01352,0.7052,2.600698,0.014516,1.0E-6,7.933762,260.86252,-127.03284,12.0,40.0,0.0,0.0,-119.999855,-120.0,146.22952,1.0E-5,0.0,12.876752,282.89807,174.90672,-0.018542,-2.487812,-1621.4045,0.0
0.0,0.0,0.0,0.0,0.0,0.0,0.0,2.18768176E8,2.18768176E8,2.18768192E8,2.18768192E8,2.1876824E8,2.18768272E8,63.991837,-22.605427,146.22952,0.107351,4.953309,180.01352,0.053785,2.600551,0.020288,2.0E-6,7.956343,258.17258,-129.72276,12.0,40.0,0.0,0.0,-129.99986,-130.0,146.22952,1.0E-5,3.4E-5,12.876752,282.89807,177.54247,-0.01856,-2.488408,-1624.6891,0.0
0.0,0.0,0.0,0.0,0.0,0.0,0.0,2.18768176E8,2.18768176E8,2.18768192E8,2.18768192E8,2.1876824E8,2.18768272E8,63.991837,-22.605427,146.22952,0.107475,4.953283,180.01353,-0.651916,2.600767,0.025966,2.0E-6,8.036032,255.17195,-132.72339,12.0,40.0,0.0,0.0,-129.99986,-130.0,146.22952,9.0E-6,3.4E-5,12.876752,282.89807,180.3724,-0.018584,-2.48902,-1631.4746,0.0
0.0,0.0,0.0,0.0,0.0,0.0,0.0,2.18768176E8,2.18768176E8,2.18768192E8,2.18768192E8,2.1876824E8,2.18768272E8,63.991837,-22.605427,146.22952,0.10759,4.953269,180.01355,-1.303189,2.601315,0.030155,2.0E-6,7.920485,252.52084,-135.37451,12.0,40.0,0.0,0.0,-129.99986,-130.0,146.22952,9.0E-6,0.0,12.876752,282.89807,182.95615,-0.0186,-2.489557,-1632.5441,0.0
0.0,0.0,0.0,0.0,0.0,0.0,0.0,2.18768176E8,2.18768176E8,2.18768192E8,2.18768192E8,2.1876824E8,2.18768272E8,63.991837,-22.605427,146.22952,0.107696,4.953265,180.01355,-1.899882,2.602112,0.03396,3.0E-6,7.948495,250.01428,-137.88107,12.0,40.0,0.0,0.0,-139.99986,-140.0,146.22952,9.0E-6,0.0,12.876752,282.89807,185.29648,-0.018612,-2.490026,-1636.4991,0.0
0.0,0.0,0.0,0.0,0.0,0.0,0.0,2.18768176E8,2.18768176E8,2.18768192E8,2.18768192E8,2.1876824E8,2.18768272E8,63.991837,-22.605427,146.22952,0.107811,4.953269,180.01357,-2.550361,2.603304,0.039396,3.0E-6,7.933624,247.34851,-140.54683,12.0,40.0,0.0,0.0,-139.99986,-140.0,146.22952,9.0E-6,0.0,12.876752,282.89807,187.8148,-0.018632,-2.490513,-1637.8109,0.0
0.0,0.0,0.0,0.0,0.0,0.0,0.0,2.18768176E8,2.18768176E8,2.18768192E8,2.18768192E8,2.1876824E8,2.18768272E8,63.991837,-22.605427,146.22952,0.107926,4.95328,180.01357,-3.200176,2.604833,0.045031,4.0E-6,7.956022,244.65877,-143.23657,12.0,40.0,0.0,0.0,-139.99986,-140.0,146.22952,9.0E-6,0.0,12.876752,282.89807,190.2927,-0.018651,-2.490977,-1639.9788,0.0
0.0,0.0,0.0,0.0,0.0,0.0,0.0,2.18768176E8,2.18768176E8,2.18768192E8,2.18768192E8,2.1876824E8,2.18768272E8,63.991837,-22.605427,146.22952,0.108041,4.953295,180.01358,-3.849167,2.606697,0.051071,4.0E-6,7.964016,241.96057,-145.93477,12.0,40.0,0.0,0.0,-139.99986,-140.0,146.22952,9.0E-6,3.4E-5,12.876752,282.89807,192.72606,-0.01867,-2.491418,-1642.3324,0.0
0.0,0.0,0.0,0.0,0.0,0.0,0.0,2.18768176E8,2.18768176E8,2.18768192E8,2.18768192E8,2.1876824E8,2.18768272E8,63.991837,-22.605427,146.22952,0.108158,4.953311,180.0136,-4.497171,2.608896,0.057768,5.0E-6,7.966754,239.25938,-148.63596,12.0,40.0,0.0,0.0,-149.99986,-150.0,146.22952,8.0E-6,0.0,12.876752,282.89807,195.11096,-0.01869,-2.491837,-1644.6442,0.0
0.0,0.0,0.0,0.0,0.0,0.0,0.0,2.18768176E8,2.18768176E8,2.18768192E8,2.18768192E8,2.1876824E8,2.18768272E8,63.991837,-22.605427,146.22952,0.108256,4.953326,180.0136,-5.036298,2.610984,0.063362,5.0E-6,7.928018,236.96486,-150.93048,12.0,40.0,0.0,0.0,-149.99986,-150.0,146.22952,8.0E-6,3.4E-5,12.876752,282.89807,197.05862,-0.018709,-2.492171,-1648.1377,0.0
0.0,0.0,0.0,0.0,0.0,0.0,0.0,2.18768176E8,2.18768176E8,2.18768192E8,2.18768192E8,2.1876824E8,2.18768272E8,63.991837,-22.605427,146.22952,0.108394,4.953345,180.01361,-5.789552,2.614294,0.070782,6.0E-6,7.949034,233.71341,-154.18193,12.0,40.0,0.0,0.0,-149.99986,-150.0,146.22952,8.0E-6,1.34E-4,12.876752,282.89807,199.72046,-0.018729,-2.492615,-1654.2308,0.0
0.0,0.0,0.0,0.0,0.0,0.0,0.0,2.18768176E8,2.18768176E8,2.18768192E8,2.18768192E8,2.1876824E8,2.18768272E8,63.991837,-22.605427,146.22952,0.108513,4.953361,180.01361,-6.433634,2.617491,0.078268,7.0E-6,7.87434,231.05127,-156.84409,12.0,40.0,0.0,0.0,-149.99986,-150.0,146.22952,8.0E-6,1.01E-4,12.876752,282.89807,201.93806,-0.018748,-2.492976,-1654.2356,0.0
0.0,0.0,0.0,0.0,0.0,0.0,0.0,2.18768176E8,2.18768176E8,2.18768192E8,2.18768192E8,2.1876824E8,2.18768272E8,63.991837,-22.605427,146.22952,0.108632,4.953375,180.01363,-7.076085,2.621018,0.086225,7.0E-6,7.905681,228.41353,-159.48181,12.0,40.0,0.0,0.0,-159.99986,-160.0,146.22952,8.0E-6,1.68E-4,12.876752,282.89807,204.09323,-0.018769,-2.49332,-1653.2693,0.0
0.0,0.0,0.0,0.0,0.0,0.0,0.0,2.18768176E8,2.18768176E8,2.18768192E8,2.18768192E8,2.1876824E8,2.18768272E8,63.991837,-22.605427,146.22952,0.108751,4.953388,180.01364,-7.716742,2.624874,0.093649,8.0E-6,7.945493,225.73358,-162.16176,12.0,40.0,0.0,0.0,-159.99986,-160.0,146.22952,8.0E-6,2.68E-4,12.876752,282.89807,206.18292,-0.018789,-2.493646,-1654.0109,0.0
0.0,0.0,0.0,0.0,0.0,0.0,0.0,2.18768176E8,2.18768176E8,2.18768192E8,2.18768192E8,2.1876824E8,2.18768272E8,63.991837,-22.605427,146.22952,0.108871,4.953398,180.01364,-8.355463,2.629057,0.101061,9.0E-6,7.959492,223.03876,-164.85658,12.0,40.0,0.0,0.0,-159.99986,-160.0,146.22952,7.0E-6,2.35E-4,12.876752,282.89807,208.20428,-0.018809,-2.493957,-1655.2806,0.0
0.0,0.0,0.0,0.0,0.0,0.0,0.0,2.18768176E8,2.18768176E8,2.18768192E8,2.18768192E8,2.1876824E8,2.18768272E8,63.991837,-22.605427,146.22952,0.108992,4.953407,180.01366,-8.9921,2.633566,0.108099,9.0E-6,7.917759,220.30855,-167.58679,12.0,40.0,0.0,0.0,-169.99986,-170.0,146.22952,7.0E-6,3.35E-4,12.876752,282.89807,210.1547,-0.018829,-2.494252,-1657.773,0.0
0.0,0.0,0.0,0.0,0.0,0.0,0.0,2.18768176E8,2.18768176E8,2.18768192E8,2.18768192E8,2.1876824E8,2.18768272E8,63.991837,-22.605427,146.22952,0.109115,4.953413,180.01367,-9.626499,2.638399,0.113786,1.0E-5,7.892114,217.53947,-170.35587,12.0,40.0,0.0,0.0,-169.99986,-170.0,146.22952,7.0E-6,3.35E-4,12.876752,282.89807,212.03166,-0.018848,-2.494533,-1661.6433,0.0
0.0,0.0,0.0,0.0,0.0,0.0,0.0,2.18768176E8,2.18768176E8,2.18768192E8,2.18768192E8,2.1876824E8,2.18768272E8,63.991837,-22.605427,146.22952,0.109239,4.953417,180.01367,-10.258544,2.643555,0.121447,1.1E-5,7.859351,214.8698,-173.02556,12.0,40.0,0.0,0.0,-169.99986,-170.0,146.22952,7.0E-6,3.69E-4,12.876752,282.89807,213.83293,-0.018869,-2.4948,-1661.3552,0.0
0.0,0.0,0.0,0.0,0.0,0.0,0.0,2.18768176E8,2.18768176E8,2.18768192E8,2.18768192E8,2.1876824E8,2.18768272E8,63.991837,-22.605427,146.22954,0.109363,4.953419,180.01369,-10.88805,2.649031,0.126308,1.1E-5,7.971012,212.10553,-175.78981,12.0,40.0,0.0,0.0,-169.99986,-170.0,146.22954,7.0E-6,4.36E-4,12.876752,282.89807,215.55646,-0.01889,-2.495054,-1664.8567,0.0
0.0,0.0,0.0,0.0,0.0,0.0,0.0,2.18768176E8,2.18768176E8,2.18768192E8,2.18768192E8,2.1876824E8,2.18768272E8,63.991837,-22.605427,146.22954,0.109489,4.953418,180.0137,-11.514937,2.654826,0.134067,1.2E-5,7.841896,209.45398,-178.44136,12.0,40.0,0.0,0.0,-179.99986,-180.0,146.22954,7.0E-6,4.36E-4,12.876752,282.89807,217.20035,-0.018912,-2.495296,-1663.6475,0.0
0.0,0.0,0.0,0.0,0.0,0.0,0.0,2.18768176E8,2.18768176E8,2.18768192E8,2.18768192E8,2.1876824E8,2.18768272E8,63.991837,-22.605427,146.22954,0.109615,4.953415,180.0137,-12.139029,2.660938,0.140609,1.3E-5,7.872364,206.7691,-181.12625,12.0,40.0,0.0,0.0,-179.99986,-180.0,146.22954,7.0E-6,4.7E-4,12.876752,282.89807,218.76294,-0.018933,-2.495526,-1663.8054,0.0
0.0,0.0,0.0,0.0,0.0,0.0,0.0,2.18768176E8,2.18768176E8,2.18768192E8,2.18768192E8,2.1876824E8,2.18768272E8,63.991837,-22.605427,146.22954,0.109742,4.95341,180.01372,-12.760205,2.667364,0.146401,1.3E-5,7.881999,204.06674,-183.8286,12.0,40.0,0.0,0.0,-179.99986,-180.0,146.22954,6.0E-6,5.37E-4,12.876752,282.89807,220.24272,-0.018953,-2.495744,-1664.6488,0.0
0.0,0.0,0.0,0.0,0.0,0.0,0.0,2.18768176E8,2.18768176E8,2.18768192E8,2.18768192E8,2.1876824E8,2.18768272E8,63.991837,-22.605427,146.22954,0.109869,4.953402,180.01373,-13.378351,2.674108,0.153128,1.4E-5,7.930027,201.39983,-186.49553,12.0,40.0,0.0,0.0,-179.99986,-180.0,146.22954,6.0E-6,5.37E-4,12.876752,282.89807,221.63843,-0.018974,-2.495952,-1664.1033,0.0
0.0,0.0,0.0,0.0,0.0,0.0,0.0,2.18768176E8,2.18768176E8,2.18768192E8,2.18768192E8,2.1876824E8,2.18768272E8,63.991837,-22.605427,146.22954,0.109977,4.953394,180.01373,-13.891056,2.679965,0.156407,1.5E-5,7.942585,199.10788,-188.78746,12.0,40.0,0.0,0.0,-189.99986,-190.0,146.22954,6.0E-6,6.71E-4,12.876752,282.89807,222.73648,-0.018996,-2.496118,-1666.3848,0.0
0.0,0.0,0.0,0.0,0.0,0.0,0.0,2.18768176E8,2.18768176E8,2.18768192E8,2.18768192E8,2.1876824E8,2.18768272E8,63.991837,-22.605427,146.22954,0.110129,4.95338,180.01375,-14.605054,2.688524,0.16354,1.5E-5,7.891124,195.97055,-191.92479,12.0,40.0,0.0,0.0,-189.99986,-190.0,146.22954,6.0E-6,6.71E-4,12.876752,282.89807,224.17339,-0.019017,-2.496338,-1666.5316,0.0
0.0,0.0,0.0,0.0,0.0,0.0,0.0,2.18768176E8,2.18768176E8,2.18768192E8,2.18768192E8,2.1876824E8,2.18768272E8,63.991837,-22.605427,146.22954,0.11026,4.953365,180.01376,-15.213386,2.696191,0.168757,1.6E-5,7.936622,193.29521,-194.60013,12.0,40.0,0.0,0.0,-189.99986,-190.0,146.22954,6.0E-6,6.71E-4,12.876752,282.89807,225.311,-0.019038,-2.496517,-1666.1758,0.0
0.0,0.0,0.0,0.0,0.0,0.0,0.0,2.18768176E8,2.18768176E8,2.18768192E8,2.18768192E8,2.1876824E8,2.18768272E8,63.991837,-22.605427,146.22954,0.110392,4.953348,180.01376,-15.818223,2.70416,0.174003,1.7E-5,7.953338,190.6019,-197.29346,12.0,40.0,0.0,0.0,-189.99986,-190.0,146.22954,6.0E-6,7.38E-4,12.876752,282.89807,226.36128,-0.019059,-2.496687,-1666.5345,0.0
0.0,0.0,0.0,0.0,0.0,0.0,0.0,2.18768176E8,2.18768176E8,2.18768192E8,2.18768192E8,2.1876824E8,2.18768272E8,63.991837,-22.605427,146.22954,0.110527,4.953328,180.01378,-16.419458,2.712429,0.177678,1.7E-5,7.919297,187.85954,-200.03581,12.0,40.0,0.0,0.0,-199.99986,-200.0,146.22954,6.0E-6,7.72E-4,12.876752,282.89807,227.32388,-0.019081,-2.496849,-1668.7448,0.0
0.0,0.0,0.0,0.0,0.0,0.0,0.0,2.18768176E8,2.18768176E8,2.18768192E8,2.18768192E8,2.1876824E8,2.18768272E8,63.991837,-22.605427,146.22954,0.110662,4.953306,180.0138,-17.017014,2.720995,0.183356,1.8E-5,7.934175,185.1853,-202.71005,12.0,40.0,0.0,0.0,-199.99986,-200.0,146.22954,6.0E-6,8.05E-4,12.876752,282.89807,228.19861,-0.019103,-2.497003,-1668.1876,0.0
0.0,0.0,0.0,0.0,0.0,0.0,0.0,2.18768176E8,2.18768176E8,2.18768192E8,2.18768192E8,2.1876824E8,2.18768272E8,63.991837,-22.605427,146.22954,0.110798,4.953281,180.0138,-17.61077,2.729856,0.187727,1.9E-5,7.951324,182.49232,-205.40302,12.0,40.0,0.0,0.0,-199.99986,-200.0,146.22954,6.0E-6,9.06E-4,12.876752,282.89807,228.9855,-0.019125,-2.49715,-1668.3857,0.0
0.0,0.0,0.0,0.0,0.0,0.0,0.0,2.18768176E8,2.18768176E8,2.18768192E8,2.18768192E8,2.1876824E8,2.18768272E8,63.991837,-22.605427,146.22955,0.110936,4.953255,180.01381,-18.200645,2.739009,0.191768,1.9E-5,7.957047,179.79276,-208.10258,12.0,40.0,0.0,0.0,-209.99986,-210.0,146.22955,5.0E-6,9.06E-4,12.876752,282.89807,229.68471,-0.019148,-2.497289,-1668.8212,0.0
0.0,0.0,0.0,0.0,0.0,0.0,0.0,2.18768176E8,2.18768176E8,2.18768192E8,2.18768192E8,2.1876824E8,2.18768272E8,63.991837,-22.605427,146.22955,0.111088,4.953223,180.01382,-18.8352,2.749249,0.192658,2.0E-5,7.94901,176.83932,-211.05602,12.0,40.0,0.0,0.0,-209.99986,-210.0,146.22955,5.0E-6,0.001107,12.876752,282.89807,230.34367,-0.019176,-2.497432,-1670.3595,0.0
0.0,0.0,0.0,0.0,0.0,0.0,0.0,2.18768176E8,2.18768176E8,2.18768192E8,2.18768192E8,2.1876824E8,2.18768272E8,63.991837,-22.605427,146.22955,0.111217,4.953194,180.01384,-19.36842,2.758177,0.198908,2.1E-5,7.946343,174.38335,-213.51201,12.0,40.0,0.0,0.0,-209.99986,-210.0,146.22955,5.0E-6,0.00104,12.876752,282.89807,230.82172,-0.01919,-2.497548,-1669.9117,0.0
0.0,0.0,0.0,0.0,0.0,0.0,0.0,2.18768176E8,2.18768176E8,2.18768192E8,2.18768192E8,2.1876824E8,2.18768272E8,63.991837,-22.605427,146.22955,0.111372,4.953156,180.01384,-19.994112,2.769033,0.201505,2.1E-5,7.931047,171.43425,-216.46109,12.0,40.0,0.0,0.0,-209.99986,-210.0,146.22955,5.0E-6,0.001107,12.876752,282.89807,231.29344,-0.019218,-2.497677,-1671.1837,0.0
0.0,0.0,0.0,0.0,0.0,0.0,0.0,2.18768176E8,2.18768176E8,2.18768192E8,2.18768192E8,2.1876824E8,2.18768272E8,63.991837,-22.605427,146.22955,0.111503,4.953124,180.01385,-20.519764,2.778476,0.208221,2.1E-5,7.912348,168.94214,-218.9532,12.0,40.0,0.0,0.0,-219.99986,-220.0,146.22955,5.0E-6,0.001141,12.876752,282.89807,231.61443,-0.019234,-2.497781,-1672.0719,0.0
0.0,0.0,0.0,0.0,0.0,0.0,0.0,2.18768176E8,2.18768176E8,2.18768192E8,2.18768192E8,2.1876824E8,2.18768272E8,63.991837,-22.605427,146.22955,0.111637,4.95309,180.01387,-21.089132,2.789042,0.232376,2.2E-5,7.932621,166.26472,-221.63063,12.0,40.0,0.0,0.0,-219.99986,-220.0,146.22955,5.0E-6,0.001107,12.876752,282.89807,231.88387,-0.01926,-2.49789,-1671.3835,0.0
0.0,0.0,0.0,0.0,0.0,0.0,0.0,2.18768176E8,2.18768176E8,2.18768192E8,2.18768192E8,2.1876824E8,2.18768272E8,63.991837,-22.605427,146.22955,0.111744,4.953065,180.01387,-21.560287,2.798055,0.245569,2.3E-5,7.946252,164.02017,-223.87518,12.0,40.0,0.0,0.0,-219.99986,-220.0,146.22955,5.0E-6,0.001073,12.876752,282.89807,232.04482,-0.019285,-2.497976,-1671.3584,0.0
0.0,0.0,0.0,0.0,0.0,0.0,0.0,2.18768176E8,2.18768176E8,2.18768192E8,2.18768192E8,2.1876824E8,2.18768272E8,63.991837,-22.605427,146.22955,0.11189,4.953035,180.01389,-22.214767,2.81099,0.259479,2.3E-5,7.862715,160.8093,-227.08604,12.0,40.0,0.0,0.0,-219.99986,-220.0,146.22955,5.0E-6,0.001141,12.876752,282.89807,232.17456,-0.019308,-2.498091,-1673.8312,0.0
0.0,0.0,0.0,0.0,0.0,0.0,0.0,2.18768176E8,2.18768176E8,2.18768192E8,2.18768192E8,2.1876824E8,2.18768272E8,63.991837,-22.605427,146.22957,0.112011,4.953012,180.0139,-22.77093,2.822367,0.270883,2.4E-5,7.869174,158.11667,-229.77867,12.0,40.0,0.0,0.0,-229.99986,-230.0,146.22957,5.0E-6,0.001141,12.876752,282.89807,232.19852,-0.019332,-2.498184,-1673.531,0.0
0.0,0.0,0.0,0.0,0.0,0.0,0.0,2.18768176E8,2.18768176E8,2.18768192E8,2.18768192E8,2.1876824E8,2.18768272E8,63.991837,-22.605427,146.22957,0.112129,4.95299,180.0139,-23.322582,2.834009,0.280564,2.4E-5,7.921703,155.44728,-232.44807,12.0,40.0,0.0,0.0,-229.99986,-230.0,146.22957,5.0E-6,0.001141,12.876752,282.89807,232.14357,-0.019355,-2.498273,-1672.4144,0.0
0.0,0.0,0.0,0.0,0.0,0.0,0.0,2.18768176E8,2.18768176E8,2.18768192E8,2.18768192E8,2.1876824E8,2.18768272E8,63.991837,-22.605427,146.22957,0.112247,4.952969,180.01392,-23.869686,2.845912,0.287832,2.5E-5,7.941952,152.7559,-235.13945,12.0,40.0,0.0,0.0,-229.99986,-230.0,146.22957,4.0E-6,0.001174,12.876752,282.89807,232.0114,-0.019377,-2.498358,-1672.2122,0.0
0.0,0.0,0.0,0.0,0.0,0.0,0.0,2.18768176E8,2.18768176E8,2.18768192E8,2.18768192E8,2.1876824E8,2.18768272E8,63.991837,-22.605427,146.22957,0.112366,4.952949,180.01393,-24.412191,2.858072,0.290853,2.6E-5,7.941386,150.00597,-237.88937,12.0,40.0,0.0,0.0,-239.99986,-240.0,146.22957,4.0E-6,0.001342,12.876752,282.89807,231.80377,-0.019398,-2.498438,-1674.291,0.0
0.0,0.0,0.0,0.0,0.0,0.0,0.0,2.18768176E8,2.18768176E8,2.18768192E8,2.18768192E8,2.1876824E8,2.18768272E8,63.991837,-22.605427,146.22957,0.112486,4.952928,180.01393,-24.950087,2.870487,0.298252,2.6E-5,7.919221,147.33704,-240.5583,12.0,40.0,0.0,0.0,-239.99986,-240.0,146.22957,4.0E-6,0.001208,12.876752,282.89807,231.52263,-0.019421,-2.498514,-1673.0891,0.0
0.0,0.0,0.0,0.0,0.0,0.0,0.0,2.18768176E8,2.18768176E8,2.18768192E8,2.18768192E8,2.1876824E8,2.18768272E8,63.991837,-22.605427,146.22957,0.112605,4.952908,180.01395,-25.483315,2.8831,0.302372,2.7E-5,7.037704,144.8969,-242.99846,12.0,40.0,0.0,0.0,-239.99986,-240.0,146.22957,4.0E-6,0.001308,12.876752,282.89807,231.16998,-0.019443,-2.498587,-1662.8005,0.0
0.0,0.0,0.0,0.0,0.0,0.0,0.0,2.18768176E8,2.18768176E8,2.18768192E8,2.18768192E8,2.1876824E8,2.18768272E8,63.991837,-22.605427,146.22957,0.112706,4.95289,180.01395,-25.92409,2.893725,0.305053,2.7E-5,5.010767,143.96416,-243.9312,12.0,40.0,0.0,0.0,-239.99986,-240.0,146.22957,4.0E-6,0.001308,12.876752,282.89807,230.82298,-0.019464,-2.498644,-1610.5858,0.0
0.0,0.0,0.0,0.0,0.0,0.0,0.0,2.18768176E8,2.18768176E8,2.18768192E8,2.18768192E8,2.1876824E8,2.18768272E8,63.991837,-22.605427,146.22958,0.112829,4.952868,180.01396,-26.448698,2.906699,0.307125,2.8E-5,3.621403,143.52293,-244.37242,12.0,40.0,0.0,0.0,-239.99986,-240.0,146.22958,4.0E-6,0.001342,12.876752,282.89807,230.34479,-0.019485,-2.498711,-1520.9224,0.0
0.0,0.0,0.0,0.0,0.0,0.0,0.0,2.18768176E8,2.18768176E8,2.18768192E8,2.18768192E8,2.1876824E8,2.18768272E8,63.991837,-22.605427,146.22958,0.112975,4.952843,180.01398,-27.054756,2.92214,0.310459,2.9E-5,2.914783,143.34721,-244.54813,12.0,40.0,0.0,0.0,-239.99986,-240.0,146.22958,4.0E-6,0.001342,12.876752,282.89807,229.70454,-0.019507,-2.498784,-1402.2992,0.0
0.0,0.0,0.0,0.0,0.0,0.0,0.0,2.18768176E8,2.18768176E8,2.18768192E8,2.18768192E8,2.1876824E8,2.18768272E8,63.991837,-22.605427,146.22958,0.11308,4.952824,180.01398,-27.483685,2.933366,0.311047,2.9E-5,2.712013,143.2994,-244.59595,12.0,40.0,0.0,0.0,-239.99986,-240.0,146.22958,4.0E-6,0.001409,12.876752,282.89807,229.19493,-0.019528,-2.498834,-1314.1605,0.0
0.0,0.0,0.0,0.0,0.0,0.0,0.0,2.18768176E8,2.18768176E8,2.18768192E8,2.18768192E8,2.1876824E8,2.18768272E8,63.991837,-22.605427,146.22958,0.113229,4.952796,180.01399,-28.078625,2.949356,0.315062,3.0E-5,2.600387,143.26859,-244.62675,12.0,40.0,0.0,0.0,-239.99986,-240.0,146.22958,4.0E-6,0.001442,12.876752,282.89807,228.41125,-0.019549,-2.4989,-1189.0549,0.0
0.0,0.0,0.0,0.0,0.0,0.0,0.0,2.18768176E8,2.18768176E8,2.18768192E8,2.18768192E8,2.1876824E8,2.18768272E8,63.991837,-22.605427,146.22958,0.113336,4.952776,180.014,-28.49959,2.960969,0.31729,3.1E-5,2.570995,143.25626,-244.6391,12.0,40.0,0.0,0.0,-239.99986,-240.0,146.22958,4.0E-6,0.00151,12.876752,282.89807,227.80334,-0.019571,-2.498945,-1099.2007,0.0
0.0,0.0,0.0,0.0,0.0,0.0,0.0,2.18768176E8,2.18768176E8,2.18768192E8,2.18768192E8,2.1876824E8,2.18768272E8,63.991837,-22.605427,146.2296,0.113489,4.952748,180.014,-29.083338,2.977493,0.318861,3.1E-5,2.55302,143.24327,-244.65207,12.0,40.0,0.0,0.0,-239.99986,-240.0,146.2296,4.0E-6,0.00151,12.876752,282.89807,226.88802,-0.019593,-2.499005,-973.16547,0.0
0.0,0.0,0.0,0.0,0.0,0.0,0.0,2.18768176E8,2.18768176E8,2.18768192E8,2.18768192E8,2.1876824E8,2.18768272E8,63.991837,-22.605427,146.2296,0.113622,4.952722,180.01402,-29.578478,2.991899,0.317274,3.2E-5,2.546916,143.23352,-244.66183,12.0,40.0,0.0,0.0,-239.99986,-240.0,146.2296,4.0E-6,0.00151,12.876752,282.89807,226.04668,-0.019615,-2.499053,-865.0573,0.0
0.0,0.0,0.0,0.0,0.0,0.0,0.0,2.18768176E8,2.18768176E8,2.18768192E8,2.18768192E8,2.1876824E8,2.18768272E8,63.991837,-22.605427,146.2296,0.113757,4.952696,180.01404,-29.962677,3.00331,0.308367,3.0E-5,2.541147,143.22452,-244.67084,12.0,40.0,0.0,0.0,-239.99986,-240.0,146.2296,3.0E-6,0.00161,12.876752,282.89807,225.15578,-0.019638,-2.4991,-756.9012,0.0
0.0,0.0,0.0,0.0,0.0,0.0,0.0,2.18768176E8,2.18768176E8,2.18768192E8,2.18768192E8,2.1876824E8,2.18768272E8,63.991837,-22.605427,146.2296,0.11386,4.952674,180.01404,-29.96285,3.003242,0.290578,2.4E-5,2.539253,143.21735,-244.678,12.0,40.0,0.0,0.0,-239.99986,-240.0,146.2296,3.0E-6,0.001342,12.876752,282.89807,224.3775,-0.019666,-2.499136,-666.749,0.0
