aileron,elevator,rudder,flaps,slats,speedbrake,throttle,engine-pump0,engine-pump1,electric-pump0,electric-pump1,external-power,APU-generator,latitude-deg,longitude-deg,altitude-ft,roll-deg,pitch-deg,heading-deg,side-slip-deg,airspeed-kt,glideslope,vertical-speed-fps,airspeed-indicator_indicated-speed-kt,altimeter_indicated-altitude-ft,altimeter_pressure-alt-ft,attitude-indicator_indicated-pitch-deg,attitude-indicator_indicated-roll-deg,attitude-indicator_internal-pitch-deg,attitude-indicator_internal-roll-deg,encoder_indicated-altitude-ft,encoder_pressure-alt-ft,gps_indicated-altitude-ft,gps_indicated-ground-speed-kt,gps_indicated-vertical-speed,indicated-heading-deg,magnetic-compass_indicated-heading-deg,slip-skid-ball_indicated-slip-skid,turn-indicator_indicated-turn-rate,vertical-speed-indicator_indicated-speed-fpm,engine_rpm
0.0,0.0,0.0,0.0,0.0,0.0,1.0,1.7658672E7,1.7658672E7,1.7658688E7,1.7658688E7,1.7658736E7,1.7658768E7,63.985043,-22.592484,-9999.0,0.0,0.424,270.02136,0.0,0.0,0.0,0.0,0.0,0.0,0.0,0.0,0.0,0.0,0.0,0.0,0.0,0.0,0.0,0.0,0.0,0.0,0.0,0.0,0.0,0.0
0.0,0.0,0.0,0.0,0.0,0.0,1.0,1.7658672E7,1.7658672E7,1.7658688E7,1.7658688E7,1.7658736E7,1.7658768E7,63.985043,-22.592484,-9999.0,0.0,0.424,270.02136,0.0,0.0,0.0,0.0,0.0,389.08878,1.193444,12.0,40.0,0.0,0.0,0.0,0.0,0.0,0.0,0.0,282.89813,0.0,0.0,0.0,0.0,0.0
0.0,0.0,0.0,0.0,0.0,0.0,1.0,1.7658672E7,1.7658672E7,1.7658688E7,1.7658688E7,1.7658736E7,1.7658768E7,63.991837,-22.605425,-9999.0,0.0,0.424,180.01839,0.0,0.0,0.0,0.0,0.0,389.08878,1.193444,12.0,40.0,0.0,0.0,0.0,0.0,0.0,0.0,0.0,282.89813,0.0,0.0,0.0,0.0,0.0
0.0,0.0,0.0,0.0,0.0,0.0,1.0,1.7658672E7,1.7658672E7,1.7658688E7,1.7658688E7,1.7658736E7,1.7658768E7,63.991837,-22.605425,-9999.0,0.0,0.424,180.01839,0.0,0.0,0.0,0.0,0.0,389.08878,1.193444,12.0,40.0,0.0,0.0,0.0,0.0,0.0,0.0,0.0,282.89813,0.0,0.0,0.0,0.0,0.0
0.0,0.0,0.0,0.0,0.0,0.0,1.0,1.7658672E7,1.7658672E7,1.7658688E7,1.7658688E7,1.7658736E7,1.7658768E7,63.991837,-22.605425,-9999.0,0.0,0.424,180.01839,0.0,0.0,0.0,0.0,0.0,389.08878,1.193444,12.0,40.0,0.0,0.0,0.0,0.0,0.0,0.0,0.0,282.89813,0.0,0.0,0.0,0.0,0.0
0.0,0.0,0.0,0.0,0.0,0.0,1.0,1.7658672E7,1.7658672E7,1.7658688E7,1.7658688E7,1.7658736E7,1.7658768E7,63.991837,-22.605425,-9999.0,0.0,0.424,180.01839,0.0,0.0,0.0,0.0,0.0,389.08878,1.193444,12.0,40.0,0.0,0.0,0.0,0.0,0.0,0.0,0.0,282.89813,0.0,0.0,0.0,0.0,0.0
0.0,0.0,0.0,0.0,0.0,0.0,1.0,1.7658672E7,1.7658672E7,1.7658688E7,1.7658688E7,1.7658736E7,1.7658768E7,63.991837,-22.605425,-9999.0,0.0,0.424,180.01839,0.0,0.0,0.0,0.0,0.0,389.08878,1.193444,12.0,40.0,0.0,0.0,0.0,0.0,0.0,0.0,0.0,282.89813,0.0,0.0,0.0,0.0,0.0
0.0,0.0,0.0,0.0,0.0,0.0,1.0,1.7658672E7,1.7658672E7,1.7658688E7,1.7658688E7,1.7658736E7,1.7658768E7,63.991837,-22.605425,-9999.0,0.0,0.424,180.01839,0.0,0.0,0.0,0.0,0.0,389.08878,1.193444,12.0,40.0,0.0,0.0,0.0,0.0,0.0,0.0,0.0,282.89813,0.0,0.0,0.0,0.0,0.0
0.0,0.0,0.0,0.0,0.0,0.0,1.0,1.7658672E7,1.7658672E7,1.7658688E7,1.7658688E7,1.7658736E7,1.7658768E7,63.991837,-22.605425,-9999.0,0.0,0.424,180.01839,0.0,0.0,0.0,0.0,0.0,389.08878,1.193444,12.0,40.0,0.0,0.0,0.0,0.0,0.0,0.0,0.0,282.89813,0.0,0.0,0.0,0.0,0.0
0.0,0.0,0.0,0.0,0.0,0.0,1.0,1.7658672E7,1.7658672E7,1.7658688E7,1.7658688E7,1.7658736E7,1.7658768E7,63.991837,-22.605425,-9999.0,0.0,0.424,180.01839,0.0,0.0,0.0,0.0,0.0,389.08878,1.193444,12.0,40.0,0.0,0.0,0.0,0.0,0.0,0.0,0.0,282.89813,0.0,0.0,0.0,0.0,0.0
0.0,0.0,0.0,0.0,0.0,0.0,1.0,1.7658672E7,1.7658672E7,1.7658688E7,1.7658688E7,1.7658736E7,1.7658768E7,63.991837,-22.605425,-9999.0,0.0,0.424,180.01839,0.0,0.0,0.0,0.0,0.0,389.08878,1.193444,12.0,40.0,0.0,0.0,0.0,0.0,0.0,0.0,0.0,282.89813,0.0,0.0,0.0,0.0,0.0
0.0,0.0,0.0,0.0,0.0,0.0,1.0,1.7658672E7,1.7658672E7,1.7658688E7,1.7658688E7,1.7658736E7,1.7658768E7,63.991837,-22.605425,-9999.0,0.0,0.424,180.01839,0.0,0.0,0.0,0.0,0.0,389.08878,1.193444,12.0,40.0,0.0,0.0,0.0,0.0,0.0,0.0,0.0,282.89813,0.0,0.0,0.0,0.0,0.0
0.0,0.0,0.0,0.0,0.0,0.0,1.0,1.7658672E7,1.7658672E7,1.7658688E7,1.7658688E7,1.7658736E7,1.7658768E7,63.991837,-22.605425,-9999.0,0.0,0.424,180.01839,0.0,0.0,0.0,0.0,0.0,389.08878,1.193444,12.0,40.0,0.0,0.0,0.0,0.0,0.0,0.0,0.0,282.89813,0.0,0.0,0.0,0.0,0.0
0.0,0.0,0.0,0.0,0.0,0.0,1.0,1.7658672E7,1.7658672E7,1.7658688E7,1.7658688E7,1.7658736E7,1.7658768E7,63.991837,-22.605425,-9999.0,0.0,0.424,180.01839,0.0,0.0,0.0,0.0,0.0,389.08878,1.193444,12.0,40.0,0.0,0.0,0.0,0.0,0.0,0.0,0.0,282.89813,0.0,0.0,0.0,0.0,0.0
0.0,0.0,0.0,0.0,0.0,0.0,1.0,1.7658672E7,1.7658672E7,1.7658688E7,1.7658688E7,1.7658736E7,1.7658768E7,63.991837,-22.605425,-9999.0,0.0,0.424,180.01839,0.0,0.0,0.0,0.0,0.0,389.08878,1.193444,12.0,40.0,0.0,0.0,0.0,0.0,0.0,0.0,0.0,282.89813,0.0,0.0,0.0,0.0,0.0
0.0,0.0,0.0,0.0,0.0,0.0,1.0,1.7658672E7,1.7658672E7,1.7658688E7,1.7658688E7,1.7658736E7,1.7658768E7,63.991837,-22.605425,-9999.0,0.0,0.424,180.01839,0.0,0.0,0.0,0.0,0.0,389.08878,1.193444,12.0,40.0,0.0,0.0,0.0,0.0,0.0,0.0,0.0,282.89813,0.0,0.0,0.0,0.0,0.0
0.0,0.0,0.0,0.0,0.0,0.0,1.0,1.7658672E7,1.7658672E7,1.7658688E7,1.7658688E7,1.7658736E7,1.7658768E7,63.991837,-22.605425,-9999.0,0.0,0.424,180.01839,0.0,0.0,0.0,0.0,0.0,389.08878,1.193444,12.0,40.0,0.0,0.0,0.0,0.0,0.0,0.0,0.0,282.89813,0.0,0.0,0.0,0.0,0.0
0.0,0.0,0.0,0.0,0.0,0.0,1.0,1.7658672E7,1.7658672E7,1.7658688E7,1.7658688E7,1.7658736E7,1.7658768E7,63.991837,-22.605425,-9999.0,0.0,0.424,180.01839,0.0,0.0,0.0,0.0,0.0,389.08878,1.193444,12.0,40.0,0.0,0.0,0.0,0.0,0.0,0.0,0.0,282.89813,0.0,0.0,0.0,0.0,0.0
0.0,0.0,0.0,0.0,0.0,0.0,1.0,1.7658672E7,1.7658672E7,1.7658688E7,1.7658688E7,1.7658736E7,1.7658768E7,63.991837,-22.605425,-9999.0,0.0,0.424,180.01839,0.0,0.0,0.0,0.0,0.0,389.08878,1.193444,12.0,40.0,0.0,0.0,0.0,0.0,0.0,0.0,0.0,282.89813,0.0,0.0,0.0,0.0,0.0
0.0,0.0,0.0,0.0,0.0,0.0,1.0,1.7658672E7,1.7658672E7,1.7658688E7,1.7658688E7,1.7658736E7,1.7658768E7,63.991837,-22.605425,-9999.0,0.0,0.424,180.01839,0.0,0.0,0.0,0.0,0.0,389.08878,1.193444,12.0,40.0,0.0,0.0,0.0,0.0,0.0,0.0,0.0,282.89813,0.0,0.0,0.0,0.0,0.0
0.0,0.0,0.0,0.0,0.0,0.0,1.0,1.7658672E7,1.7658672E7,1.7658688E7,1.7658688E7,1.7658736E7,1.7658768E7,63.991837,-22.605425,-9999.0,0.0,0.424,180.01839,0.0,0.0,0.0,0.0,0.0,389.08878,1.193444,12.0,40.0,0.0,0.0,0.0,0.0,0.0,0.0,0.0,282.89813,0.0,0.0,0.0,0.0,0.0
0.0,0.0,0.0,0.0,0.0,0.0,1.0,1.7658672E7,1.7658672E7,1.7658688E7,1.7658688E7,1.7658736E7,1.7658768E7,63.991837,-22.605425,-9999.0,0.0,0.424,180.01839,0.0,0.0,0.0,0.0,0.0,389.08878,1.193444,12.0,40.0,0.0,0.0,0.0,0.0,0.0,0.0,0.0,282.89813,0.0,0.0,0.0,0.0,0.0
0.0,0.0,0.0,0.0,0.0,0.0,1.0,1.7658672E7,1.7658672E7,1.7658688E7,1.7658688E7,1.7658736E7,1.7658768E7,63.991837,-22.605425,-9999.0,0.0,0.424,180.01839,0.0,0.0,0.0,0.0,0.0,389.08878,1.193444,12.0,40.0,0.0,0.0,0.0,0.0,0.0,0.0,0.0,282.89813,0.0,0.0,0.0,0.0,0.0
0.0,0.0,0.0,0.0,0.0,0.0,1.0,1.7658672E7,1.7658672E7,1.7658688E7,1.7658688E7,1.7658736E7,1.7658768E7,63.991837,-22.605425,-9999.0,0.0,0.424,180.01839,0.0,0.0,0.0,0.0,0.0,389.08878,1.193444,12.0,40.0,0.0,0.0,0.0,0.0,0.0,0.0,0.0,282.89813,0.0,0.0,0.0,0.0,0.0
0.0,0.0,0.0,0.0,0.0,0.0,1.0,1.7658672E7,1.7658672E7,1.7658688E7,1.7658688E7,1.7658736E7,1.7658768E7,63.991837,-22.605425,-9999.0,0.0,0.424,180.01839,0.0,0.0,0.0,0.0,0.0,389.08878,1.193444,12.0,40.0,0.0,0.0,0.0,0.0,0.0,0.0,0.0,282.89813,0.0,0.0,0.0,0.0,0.0
0.0,0.0,0.0,0.0,0.0,0.0,1.0,1.7658672E7,1.7658672E7,1.7658688E7,1.7658688E7,1.7658736E7,1.7658768E7,63.991837,-22.605425,-9999.0,0.0,0.424,180.01839,0.0,0.0,0.0,0.0,0.0,389.08878,1.193444,12.0,40.0,0.0,0.0,0.0,0.0,0.0,0.0,0.0,282.89813,0.0,0.0,0.0,0.0,0.0
0.0,0.0,0.0,0.0,0.0,0.0,1.0,1.7658672E7,1.7658672E7,1.7658688E7,1.7658688E7,1.7658736E7,1.7658768E7,63.991837,-22.605425,-9999.0,0.0,0.424,180.01839,0.0,0.0,0.0,0.0,0.0,389.08878,1.193444,12.0,40.0,0.0,0.0,0.0,0.0,0.0,0.0,0.0,282.89813,0.0,0.0,0.0,0.0,0.0
0.0,0.0,0.0,0.0,0.0,0.0,1.0,1.7658672E7,1.7658672E7,1.7658688E7,1.7658688E7,1.7658736E7,1.7658768E7,63.991837,-22.605425,-9999.0,0.0,0.424,180.01839,0.0,0.0,0.0,0.0,0.0,389.08878,1.193444,12.0,40.0,0.0,0.0,0.0,0.0,0.0,0.0,0.0,282.89813,0.0,0.0,0.0,0.0,0.0
0.0,0.0,0.0,0.0,0.0,0.0,1.0,1.7658672E7,1.7658672E7,1.7658688E7,1.7658688E7,1.7658736E7,1.7658768E7,63.991837,-22.605425,-9999.0,0.0,0.424,180.01839,0.0,0.0,0.0,0.0,0.0,389.08878,1.193444,12.0,40.0,0.0,0.0,0.0,0.0,0.0,0.0,0.0,282.89813,0.0,0.0,0.0,0.0,0.0
0.0,0.0,0.0,0.0,0.0,0.0,1.0,1.7658672E7,1.7658672E7,1.7658688E7,1.7658688E7,1.7658736E7,1.7658768E7,63.991837,-22.605425,-9999.0,0.0,0.424,180.01839,0.0,0.0,0.0,0.0,0.0,389.08878,1.193444,12.0,40.0,0.0,0.0,0.0,0.0,0.0,0.0,0.0,282.89813,0.0,0.0,0.0,0.0,0.0
0.0,0.0,0.0,0.0,0.0,0.0,1.0,1.7658672E7,1.7658672E7,1.7658688E7,1.7658688E7,1.7658736E7,1.7658768E7,63.991837,-22.605425,-9999.0,0.0,0.424,180.01839,0.0,0.0,0.0,0.0,0.0,389.08878,1.193444,12.0,40.0,0.0,0.0,0.0,0.0,0.0,0.0,0.0,282.89813,0.0,0.0,0.0,0.0,0.0
0.0,0.0,0.0,0.0,0.0,0.0,1.0,1.7658672E7,1.7658672E7,1.7658688E7,1.7658688E7,1.7658736E7,1.7658768E7,63.991837,-22.605425,-9999.0,0.0,0.424,180.01839,0.0,0.0,0.0,0.0,0.0,389.08878,1.193444,12.0,40.0,0.0,0.0,0.0,0.0,0.0,0.0,0.0,282.89813,0.0,0.0,0.0,0.0,0.0
0.0,0.0,0.0,0.0,0.0,0.0,1.0,1.7658672E7,1.7658672E7,1.7658688E7,1.7658688E7,1.7658736E7,1.7658768E7,63.991837,-22.605425,-9999.0,0.0,0.424,180.01839,0.0,0.0,0.0,0.0,0.0,389.08878,1.193444,12.0,40.0,0.0,0.0,0.0,0.0,0.0,0.0,0.0,282.89813,0.0,0.0,0.0,0.0,0.0
0.0,0.0,0.0,0.0,0.0,0.0,1.0,1.7658672E7,1.7658672E7,1.7658688E7,1.7658688E7,1.7658736E7,1.7658768E7,63.991837,-22.605425,-9999.0,0.0,0.424,180.01839,0.0,0.0,0.0,0.0,0.0,389.08878,1.193444,12.0,40.0,0.0,0.0,0.0,0.0,0.0,0.0,0.0,282.89813,0.0,0.0,0.0,0.0,0.0
0.0,0.0,0.0,0.0,0.0,0.0,1.0,1.7658672E7,1.7658672E7,1.7658688E7,1.7658688E7,1.7658736E7,1.7658768E7,63.991837,-22.605425,-9999.0,0.0,0.424,180.01839,0.0,0.0,0.0,0.0,0.0,389.08878,1.193444,12.0,40.0,0.0,0.0,0.0,0.0,0.0,0.0,0.0,282.89813,0.0,0.0,0.0,0.0,0.0
0.0,0.0,0.0,0.0,0.0,0.0,1.0,1.7658672E7,1.7658672E7,1.7658688E7,1.7658688E7,1.7658736E7,1.7658768E7,63.991837,-22.605425,-9999.0,0.0,0.424,180.01839,0.0,0.0,0.0,0.0,0.0,389.08878,1.193444,12.0,40.0,0.0,0.0,0.0,0.0,0.0,0.0,0.0,282.89813,0.0,0.0,0.0,0.0,0.0
0.0,0.0,0.0,0.0,0.0,0.0,1.0,1.7658672E7,1.7658672E7,1.7658688E7,1.7658688E7,1.7658736E7,1.7658768E7,63.991837,-22.605425,-9999.0,0.0,0.424,180.01839,0.0,0.0,0.0,0.0,0.0,389.08878,1.193444,12.0,40.0,0.0,0.0,0.0,0.0,0.0,0.0,0.0,282.89813,0.0,0.0,0.0,0.0,0.0
0.0,0.0,0.0,0.0,0.0,0.0,1.0,1.7658672E7,1.7658672E7,1.7658688E7,1.7658688E7,1.7658736E7,1.7658768E7,63.991837,-22.605425,-9999.0,0.0,0.424,180.01839,0.0,0.0,0.0,0.0,0.0,389.08878,1.193444,12.0,40.0,0.0,0.0,0.0,0.0,0.0,0.0,0.0,282.89813,0.0,0.0,0.0,0.0,0.0
0.0,0.0,0.0,0.0,0.0,0.0,1.0,1.7658672E7,1.7658672E7,1.7658688E7,1.7658688E7,1.7658736E7,1.7658768E7,63.991837,-22.605425,-9999.0,0.0,0.424,180.01839,0.0,0.0,0.0,0.0,0.0,389.08878,1.193444,12.0,40.0,0.0,0.0,0.0,0.0,0.0,0.0,0.0,282.89813,0.0,0.0,0.0,0.0,0.0
0.0,0.0,0.0,0.0,0.0,0.0,1.0,1.7658672E7,1.7658672E7,1.7658688E7,1.7658688E7,1.7658736E7,1.7658768E7,63.991837,-22.605425,-9999.0,0.0,0.424,180.01839,0.0,0.0,0.0,0.0,0.0,389.08878,1.193444,12.0,40.0,0.0,0.0,0.0,0.0,0.0,0.0,0.0,282.89813,0.0,0.0,0.0,0.0,0.0
0.0,0.0,0.0,0.0,0.0,0.0,1.0,1.7658672E7,1.7658672E7,1.7658688E7,1.7658688E7,1.7658736E7,1.7658768E7,63.991837,-22.605425,-9999.0,0.0,0.424,180.01839,0.0,0.0,0.0,0.0,0.0,389.08878,1.193444,12.0,40.0,0.0,0.0,0.0,0.0,0.0,0.0,0.0,282.89813,0.0,0.0,0.0,0.0,0.0
0.0,0.0,0.0,0.0,0.0,0.0,0.0,1.7658672E7,1.7658672E7,1.7658688E7,1.7658688E7,1.7658736E7,1.7658768E7,63.991837,-22.605427,146.2295,0.104764,4.952322,180.01332,0.0,0.0,0.0,0.0,0.0,389.08878,1.193444,12.0,40.0,0.0,0.0,0.0,0.0,0.0,0.0,0.0,282.89813,0.0,0.0,0.0,0.0,0.0
0.0,0.0,0.0,0.0,0.0,0.0,0.0,1.7658672E7,1.7658672E7,1.7658688E7,1.7658688E7,1.7658736E7,1.7658768E7,63.991837,-22.605427,146.22931,0.096077,4.970921,180.01265,89.86037,3.012101,-0.068849,-1.79E-4,0.0,536.53394,148.63858,12.0,40.0,0.0,0.0,140.00014,140.0,146.22931,7.6E-5,-0.020932,282.89807,357.123,-0.00579,-0.471042,3961.0798,0.0
0.0,0.0,0.0,0.0,0.0,0.0,0.0,1.7658672E7,1.7658672E7,1.7658688E7,1.7658688E7,1.7658736E7,1.7658768E7,63.991837,-22.605427,146.22954,0.095454,4.951421,180.01257,83.88307,2.733585,0.079317,1.8E-5,0.0,510.12122,122.225876,12.0,40.0,0.0,0.0,120.000145,120.0,146.22954,6.2E-5,0.002214,282.89807,330.16708,-0.012546,-1.27066,2418.0908,0.0
0.0,0.0,0.0,0.0,0.0,0.0,0.0,1.7658672E7,1.7658672E7,1.7658688E7,1.7658688E7,1.7658736E7,1.7658768E7,63.991837,-22.605427,146.22954,0.095491,4.951173,180.01257,83.2544,2.709797,0.072915,1.2E-5,4.903854,508.52057,120.62521,12.0,40.0,0.0,0.0,120.000145,120.0,146.22954,6.1E-5,0.001375,282.89807,326.53647,-0.012916,-1.325845,2275.889,0.0
0.0,0.0,0.0,0.0,0.0,0.0,0.0,1.7658672E7,1.7658672E7,1.7658688E7,1.7658688E7,1.7658736E7,1.7658768E7,63.991837,-22.605427,146.22954,0.095868,4.950911,180.0126,81.663,2.652808,-9.88E-4,-0.0,4.961846,502.3279,114.43257,12.0,40.0,0.0,0.0,120.000145,120.0,146.22954,5.8E-5,-2.01E-4,282.89807,316.97714,-0.013696,-1.451025,1844.3209,0.0
0.0,0.0,0.0,0.0,0.0,0.0,0.0,1.7658672E7,1.7658672E7,1.7658688E7,1.7658688E7,1.7658736E7,1.7658768E7,63.991837,-22.605427,146.22954,0.096031,4.950877,180.01262,80.93339,2.628151,-0.052372,-7.0E-6,6.565184,500.33817,112.44283,12.0,40.0,0.0,0.0,110.000145,110.0,146.22954,5.7E-5,-3.02E-4,282.89807,312.4601,-0.01398,-1.502288,1663.7087,0.0
0.0,0.0,0.0,0.0,0.0,0.0,0.0,1.7658672E7,1.7658672E7,1.7658688E7,1.7658688E7,1.7658736E7,1.7658768E7,63.991837,-22.605427,146.22954,0.096221,4.950875,180.01263,80.19,2.60393,-0.074264,-1.1E-5,7.14896,497.80124,109.90591,12.0,40.0,0.0,0.0,110.000145,110.0,146.22954,5.6E-5,-7.04E-4,282.89807,307.79504,-0.014239,-1.551046,1451.3733,0.0
0.0,0.0,0.0,0.0,0.0,0.0,0.0,1.7658672E7,1.7658672E7,1.7658688E7,1.7658688E7,1.7658736E7,1.7658768E7,63.991837,-22.605427,146.22954,0.096399,4.950894,180.01265,79.559875,2.584083,-0.086021,-1.4E-5,7.324473,495.53326,107.63792,12.0,40.0,0.0,0.0,110.000145,110.0,146.22954,5.5E-5,-0.001006,282.89807,303.80316,-0.014401,-1.589853,1253.8771,0.0
0.0,0.0,0.0,0.0,0.0,0.0,0.0,1.7658672E7,1.7658672E7,1.7658688E7,1.7658688E7,1.7658736E7,1.7658768E7,63.991837,-22.605427,146.2295,0.098381,4.951516,180.01282,74.51935,2.445767,-0.11361,-1.0E-5,2.536777,475.9761,88.08077,12.0,40.0,0.0,0.0,90.000145,90.0,146.2295,4.9E-5,-0.001073,282.89807,271.5683,-0.015667,-1.834557,-534.12445,0.0
0.0,0.0,0.0,0.0,0.0,0.0,0.0,1.7658672E7,1.7658672E7,1.7658688E7,1.7658688E7,1.7658736E7,1.7658768E7,63.991837,-22.605427,146.2295,0.098492,4.951553,180.01282,73.73324,2.427185,-0.144819,-1.4E-5,5.991812,474.55908,86.66373,12.0,40.0,0.0,0.0,90.000145,90.0,146.2295,4.8E-5,-8.72E-4,282.89807,266.6057,-0.015805,-1.864429,-597.7739,0.0
0.0,0.0,0.0,0.0,0.0,0.0,0.0,1.7658672E7,1.7658672E7,1.7658688E7,1.7658688E7,1.7658736E7,1.7658768E7,63.991837,-22.605427,146.2295,0.098637,4.951598,180.01283,72.86206,2.407444,-0.142782,-1.7E-5,6.985966,472.1977,84.30236,12.0,40.0,0.0,0.0,90.000145,90.0,146.2295,4.7E-5,-0.001141,282.89807,261.15454,-0.01593,-1.895489,-720.2411,0.0
0.0,0.0,0.0,0.0,0.0,0.0,0.0,1.7658672E7,1.7658672E7,1.7658688E7,1.7658688E7,1.7658736E7,1.7658768E7,63.991837,-22.605427,146.2295,0.098803,4.951652,180.01285,71.97663,2.388266,-0.140404,-1.9E-5,7.300756,469.52985,81.634514,12.0,40.0,0.0,0.0,80.000145,80.0,146.2295,4.6E-5,-0.001241,282.89807,255.67546,-0.016047,-1.925032,-832.843,0.0
0.0,0.0,0.0,0.0,0.0,0.0,0.0,1.7658672E7,1.7658672E7,1.7658688E7,1.7658688E7,1.7658736E7,1.7658768E7,63.991837,-22.605427,146.22949,0.098987,4.951715,180.01286,71.077034,2.369665,-0.134335,-1.9E-5,7.313816,466.61133,78.71597,12.0,40.0,0.0,0.0,80.000145,80.0,146.22949,4.5E-5,-0.001476,282.89807,250.17995,-0.016159,-1.95313,-936.37427,0.0
0.0,0.0,0.0,0.0,0.0,0.0,0.0,1.7658672E7,1.7658672E7,1.7658688E7,1.7658688E7,1.7658736E7,1.7658768E7,63.991837,-22.605427,146.22949,0.099195,4.95179,180.01288,70.08654,2.350179,-0.137076,-2.0E-5,7.348605,463.64413,75.74878,12.0,40.0,0.0,0.0,80.000145,80.0,146.22949,4.4E-5,-0.001476,282.89807,244.2209,-0.016268,-1.982023,-1014.6494,0.0
0.0,0.0,0.0,0.0,0.0,0.0,0.0,1.7658672E7,1.7658672E7,1.7658688E7,1.7658688E7,1.7658736E7,1.7658768E7,63.991837,-22.605427,146.22949,0.099374,4.951857,180.0129,69.235695,2.334248,-0.133842,-2.0E-5,7.474575,460.98566,73.0903,12.0,40.0,0.0,0.0,80.000145,80.0,146.22949,4.3E-5,-0.001476,282.89807,239.1842,-0.016369,-2.005275,-1078.7375,0.0
0.0,0.0,0.0,0.0,0.0,0.0,0.0,1.7658672E7,1.7658672E7,1.7658688E7,1.7658688E7,1.7658736E7,1.7658768E7,63.991837,-22.605427,146.22949,0.099539,4.951919,180.01291,68.45214,2.320215,-0.135675,-2.0E-5,7.324307,458.6625,70.767166,12.0,40.0,0.0,0.0,70.000145,70.0,146.22949,4.3E-5,-0.001577,282.89807,234.61723,-0.016434,-2.025506,-1124.054,0.0
0.0,0.0,0.0,0.0,0.0,0.0,0.0,1.7658672E7,1.7658672E7,1.7658688E7,1.7658688E7,1.7658736E7,1.7658768E7,63.991837,-22.605427,146.22949,0.099735,4.951994,180.01292,67.49946,2.303956,-0.135583,-2.0E-5,7.364765,455.8566,67.961266,12.0,40.0,0.0,0.0,70.000145,70.0,146.22949,4.2E-5,-0.001476,282.89807,229.16063,-0.016522,-2.048695,-1172.79,0.0
0.0,0.0,0.0,0.0,0.0,0.0,0.0,1.7658672E7,1.7658672E7,1.7658688E7,1.7658688E7,1.7658736E7,1.7658768E7,63.991837,-22.605427,146.22949,0.09993,4.952069,180.01294,66.53346,2.288342,-0.134729,-2.0E-5,7.384576,453.03223,65.13688,12.0,40.0,0.0,0.0,70.000145,70.0,146.22949,4.1E-5,-0.001476,282.89807,223.73967,-0.016605,-2.07075,-1216.4604,0.0
0.0,0.0,0.0,0.0,0.0,0.0,0.0,1.7658672E7,1.7658672E7,1.7658688E7,1.7658688E7,1.7658736E7,1.7658768E7,63.991837,-22.605427,146.22948,0.100155,4.952156,180.01295,65.39002,2.27096,-0.131191,-1.9E-5,7.34426,449.64612,61.75078,12.0,40.0,0.0,0.0,60.00014,60.0,146.22948,4.0E-5,-0.00151,282.89807,217.47365,-0.016707,-2.095123,-1265.4259,0.0
0.0,0.0,0.0,0.0,0.0,0.0,0.0,1.7658672E7,1.7658672E7,1.7658688E7,1.7658688E7,1.7658736E7,1.7658768E7,63.991837,-22.605427,146.22948,0.100343,4.952228,180.01297,64.39617,2.256789,-0.131022,-1.8E-5,7.352111,446.85342,58.958065,12.0,40.0,0.0,0.0,60.00014,60.0,146.22948,3.9E-5,-0.001409,282.89807,212.16396,-0.016783,-2.114909,-1297.3555,0.0
0.0,0.0,0.0,0.0,0.0,0.0,0.0,1.7658672E7,1.7658672E7,1.7658688E7,1.7658688E7,1.7658736E7,1.7658768E7,63.991837,-22.605427,146.22948,0.100525,4.952298,180.01299,63.39003,2.243305,-0.130186,-1.8E-5,7.422398,444.0784,56.18306,12.0,40.0,0.0,0.0,60.00014,60.0,146.22948,3.8E-5,-0.001442,282.89807,206.92068,-0.016854,-2.133729,-1325.2742,0.0
0.0,0.0,0.0,0.0,0.0,0.0,0.0,1.7658672E7,1.7658672E7,1.7658688E7,1.7658688E7,1.7658736E7,1.7658768E7,63.991837,-22.605427,146.22948,0.100703,4.952366,180.013,62.372,2.230521,-0.127931,-1.7E-5,7.46136,441.26486,53.369507,12.0,40.0,0.0,0.0,60.00014,60.0,146.22948,3.8E-5,-0.001342,282.89807,201.75291,-0.016921,-2.151628,-1352.2407,0.0
0.0,0.0,0.0,0.0,0.0,0.0,0.0,1.7658672E7,1.7658672E7,1.7658688E7,1.7658688E7,1.7658736E7,1.7658768E7,63.991837,-22.605427,146.22948,0.100876,4.952433,180.01302,61.34252,2.218449,-0.12509,-1.6E-5,7.476125,438.4377,50.542377,12.0,40.0,0.0,0.0,50.00014,50.0,146.22948,3.7E-5,-0.001275,282.89807,196.66937,-0.016985,-2.168653,-1377.2704,0.0
0.0,0.0,0.0,0.0,0.0,0.0,0.0,1.7658672E7,1.7658672E7,1.7658688E7,1.7658688E7,1.7658736E7,1.7658768E7,63.991837,-22.605427,146.22948,0.101045,4.952497,180.01302,60.30208,2.2071,-0.121806,-1.5E-5,7.482311,435.6058,47.71046,12.0,40.0,0.0,0.0,50.00014,50.0,146.22948,3.6E-5,-0.001208,282.89807,191.67847,-0.017045,-2.184846,-1400.2217,0.0
0.0,0.0,0.0,0.0,0.0,0.0,0.0,1.7658672E7,1.7658672E7,1.7658688E7,1.7658688E7,1.7658736E7,1.7658768E7,63.991837,-22.605427,146.22946,0.10121,4.952559,180.01303,59.251186,2.196486,-0.118382,-1.5E-5,7.565302,432.7722,44.876842,12.0,40.0,0.0,0.0,50.00014,50.0,146.22946,3.5E-5,-0.001174,282.89807,186.78825,-0.017102,-2.200248,-1421.2097,0.0
0.0,0.0,0.0,0.0,0.0,0.0,0.0,1.7658672E7,1.7658672E7,1.7658688E7,1.7658688E7,1.7658736E7,1.7658768E7,63.991837,-22.605427,146.22946,0.101369,4.952618,180.01305,58.190407,2.186617,-0.114261,-1.4E-5,7.574579,429.93796,42.042618,12.0,40.0,0.0,0.0,40.00014,40.0,146.22946,3.5E-5,-0.001107,282.89807,182.00644,-0.017157,-2.214896,-1440.4121,0.0
0.0,0.0,0.0,0.0,0.0,0.0,0.0,1.7658672E7,1.7658672E7,1.7658688E7,1.7658688E7,1.7658736E7,1.7658768E7,63.991837,-22.605427,146.22946,0.101524,4.952675,180.01306,57.120335,2.177504,-0.109858,-1.3E-5,7.580765,427.10352,39.208168,12.0,40.0,0.0,0.0,40.00014,40.0,146.22946,3.4E-5,-0.001006,282.89807,177.34033,-0.017209,-2.228829,-1458.0079,0.0
0.0,0.0,0.0,0.0,0.0,0.0,0.0,1.7658672E7,1.7658672E7,1.7658688E7,1.7658688E7,1.7658736E7,1.7658768E7,63.991837,-22.605427,146.22946,0.101674,4.952731,180.01308,56.041607,2.169157,-0.104643,-1.2E-5,7.58689,424.26898,36.37363,12.0,40.0,0.0,0.0,40.00014,40.0,146.22946,3.3E-5,-9.73E-4,282.89807,172.7969,-0.017259,-2.242081,-1474.16,0.0
0.0,0.0,0.0,0.0,0.0,0.0,0.0,1.7658672E7,1.7658672E7,1.7658688E7,1.7658688E7,1.7658736E7,1.7658768E7,63.991837,-22.605427,146.22946,0.10182,4.952784,180.01309,54.95489,2.161584,-0.099104,-1.1E-5,7.593056,421.4344,33.53905,12.0,40.0,0.0,0.0,40.00014,40.0,146.22946,3.3E-5,-9.39E-4,282.89807,168.38272,-0.017306,-2.254686,-1489.0126,0.0
0.0,0.0,0.0,0.0,0.0,0.0,0.0,1.7658672E7,1.7658672E7,1.7658688E7,1.7658688E7,1.7658736E7,1.7658768E7,63.991837,-22.605427,146.22946,0.101961,4.952834,180.01309,53.86089,2.154794,-0.092808,-1.0E-5,7.599292,418.5998,30.704445,12.0,40.0,0.0,0.0,30.000143,30.0,146.22946,3.2E-5,-8.39E-4,282.89807,164.10396,-0.017352,-2.266674,-1502.6917,0.0
0.0,0.0,0.0,0.0,0.0,0.0,0.0,1.7658672E7,1.7658672E7,1.7658688E7,1.7658688E7,1.7658736E7,1.7658768E7,63.991837,-22.605427,146.22946,0.102097,4.952882,180.0131,52.760334,2.148794,-0.085643,-9.0E-6,7.605608,415.76517,27.86982,12.0,40.0,0.0,0.0,30.000143,30.0,146.22946,3.1E-5,-8.05E-4,282.89807,159.96643,-0.017395,-2.278077,-1515.3082,0.0
0.0,0.0,0.0,0.0,0.0,0.0,0.0,1.7658672E7,1.7658672E7,1.7658688E7,1.7658688E7,1.7658736E7,1.7658768E7,63.991837,-22.605427,146.22946,0.102228,4.952929,180.01312,51.653984,2.143591,-0.078327,-8.0E-6,7.61201,412.9305,25.035175,12.0,40.0,0.0,0.0,30.000143,30.0,146.22946,3.1E-5,-7.38E-4,282.89807,155.97552,-0.017436,-2.288922,-1526.96,0.0
0.0,0.0,0.0,0.0,0.0,0.0,0.0,1.7658672E7,1.7658672E7,1.7658688E7,1.7658688E7,1.7658736E7,1.7658768E7,63.991837,-22.605427,146.22946,0.102356,4.952972,180.01312,50.54262,2.13919,-0.07005,-7.0E-6,7.618495,410.09586,22.200516,12.0,40.0,0.0,0.0,20.000143,20.0,146.22946,3.0E-5,-7.04E-4,282.89807,152.13625,-0.017476,-2.299238,-1537.7333,0.0
0.0,0.0,0.0,0.0,0.0,0.0,0.0,1.7658672E7,1.7658672E7,1.7658688E7,1.7658688E7,1.7658736E7,1.7658768E7,63.991837,-22.605427,146.22945,0.102479,4.953014,180.01314,49.42706,2.135598,-0.060737,-5.0E-6,7.625067,407.2612,19.36584,12.0,40.0,0.0,0.0,20.000143,20.0,146.22945,3.0E-5,-6.04E-4,282.89807,148.4532,-0.017514,-2.309049,-1547.7046,0.0
0.0,0.0,0.0,0.0,0.0,0.0,0.0,1.7658672E7,1.7658672E7,1.7658688E7,1.7658688E7,1.7658736E7,1.7658768E7,63.991837,-22.605427,146.22945,0.102608,4.953057,180.01315,48.21476,2.132623,-0.047016,-4.0E-6,7.559551,404.04388,16.148531,12.0,40.0,0.0,0.0,20.000143,20.0,146.22945,2.9E-5,-5.7E-4,282.89807,144.64441,-0.017549,-2.319137,-1563.4567,0.0
0.0,0.0,0.0,0.0,0.0,0.0,0.2,1.7658672E7,1.7658672E7,1.7658688E7,1.7658688E7,1.7658736E7,1.7658768E7,63.991837,-22.605427,146.22945,0.102676,4.953079,180.01315,47.5607,2.131417,-0.042866,-4.0E-6,7.492447,402.4393,14.543956,12.0,40.0,0.0,0.0,20.000143,20.0,146.22945,2.9E-5,-4.03E-4,282.89807,142.6732,-0.017574,-2.324347,-1566.2743,0.0
0.0,0.0,0.0,0.0,0.0,0.0,0.2,1.7658672E7,1.7658672E7,1.7658688E7,1.7658688E7,1.7658736E7,1.7658768E7,63.991837,-22.605427,146.22945,0.103852,4.953439,180.01324,36.386154,2.153945,0.007189,0.0,1.637958,115.704834,-15.432514,12.0,40.0,0.0,0.0,-19.999857,-20.0,146.22945,2.3E-5,-3.4E-5,282.89517,118.08532,-0.01792,-2.393572,-1488.0347,0.0
0.0,0.0,0.0,0.0,0.0,0.0,0.2,1.7658672E7,1.7658672E7,1.7658688E7,1.7658688E7,1.7658736E7,1.7658768E7,63.991837,-22.605427,146.22945,0.103887,4.953446,180.01324,34.83632,2.16366,0.181718,4.0E-6,6.408994,113.32205,-17.815296,12.0,40.0,0.0,0.0,-19.999857,-20.0,146.22945,2.3E-5,1.34E-4,282.89517,116.05068,-0.017942,-2.393855,-1444.9879,30.8596
0.0,0.0,0.0,0.0,0.0,0.0,0.2,1.7658672E7,1.7658672E7,1.7658688E7,1.7658688E7,1.7658736E7,1.7658768E7,63.991837,-22.605427,146.22945,0.103909,4.953435,180.01324,34.02119,2.169459,0.207043,9.0E-6,6.906781,111.7826,-19.354748,12.0,40.0,0.0,0.0,-19.999857,-20.0,146.22945,2.2E-5,5.7E-4,282.89517,115.11942,-0.017955,-2.381221,-1435.9637,57.213924
0.0,0.0,0.0,0.0,0.0,0.0,0.2,1.7658672E7,1.7658672E7,1.7658688E7,1.7658688E7,1.7658736E7,1.7658768E7,63.991837,-22.605427,146.22945,0.103929,4.953261,180.01326,32.761383,2.179384,0.104057,2.0E-5,7.451516,108.91201,-22.225334,12.0,40.0,0.0,0.0,-19.999857,-20.0,146.22945,2.2E-5,0.001879,282.89517,113.870255,-0.017984,-2.345175,-1444.1031,96.65099
0.0,0.0,0.0,0.0,0.0,0.0,0.2,1.7658672E7,1.7658672E7,1.7658688E7,1.7658688E7,1.7658736E7,1.7658768E7,63.991837,-22.605427,146.22946,0.103916,4.95287,180.01324,31.690508,2.188746,0.082683,3.1E-5,7.64262,106.30994,-24.827412,12.0,40.0,0.0,0.0,-19.999857,-20.0,146.22946,2.1E-5,0.003489,282.89517,112.99127,-0.018007,-2.300931,-1456.8438,128.82405
0.0,0.0,0.0,0.0,0.0,0.0,0.2,1.7658672E7,1.7658672E7,1.7658688E7,1.7658688E7,1.7658736E7,1.7658768E7,63.991837,-22.605427,146.22946,0.103861,4.952136,180.01324,30.540867,2.199754,0.072675,4.4E-5,7.705796,103.40253,-27.734821,12.0,40.0,0.0,0.0,-29.999857,-30.0,146.22946,2.1E-5,0.005334,282.89517,112.23662,-0.018028,-2.241775,-1473.3676,161.90982
0.0,0.0,0.0,0.0,0.0,0.0,0.2,1.7658672E7,1.7658672E7,1.7658688E7,1.7658688E7,1.7658736E7,1.7658768E7,63.991837,-22.605427,146.22948,0.103772,4.951158,180.01324,29.490154,2.210694,0.068152,5.5E-5,7.729415,100.671974,-30.465376,11.978354,39.92785,0.0,0.0,-29.999857,-30.0,146.22948,2.1E-5,0.006944,282.89517,111.72017,-0.018048,-2.178919,-1489.3877,190.78082
0.0,0.0,0.0,0.0,0.0,0.0,0.2,1.7658672E7,1.7658672E7,1.7658688E7,1.7658688E7,1.7658736E7,1.7658768E7,63.991837,-22.605427,146.22949,0.103645,4.949899,180.01323,28.4502,2.222363,0.064511,6.4E-5,7.714928,97.94097,-33.196373,11.858949,39.52983,0.0,0.0,-29.999857,-30.0,146.22949,2.0E-5,0.008755,282.89517,111.37419,-0.018062,-2.109967,-1504.0648,218.03824
0.0,0.0,0.0,0.0,0.0,0.0,0.2,1.7658672E7,1.7658672E7,1.7658688E7,1.7658688E7,1.7658736E7,1.7658768E7,63.991837,-22.605427,146.2295,0.103496,4.948521,180.01321,27.506863,2.233688,0.063711,7.3E-5,7.780131,95.4459,-35.691452,11.691816,38.97272,0.0,0.0,-29.999857,-30.0,146.2295,2.0E-5,0.009728,282.89517,111.204506,-0.018072,-2.042763,-1516.2423,241.61452
0.0,0.0,0.0,0.0,0.0,0.0,0.2,1.7658672E7,1.7658672E7,1.7658688E7,1.7658688E7,1.7658736E7,1.7658768E7,63.991837,-22.605427,146.22952,0.103303,4.946804,180.0132,26.489075,2.246714,0.062731,8.1E-5,7.71393,92.814995,-38.322353,11.489586,38.29862,0.0,0.0,-39.99986,-40.0,146.22952,1.9E-5,0.010936,282.89517,111.17751,-0.018076,-1.966408,-1524.6704,265.81915
0.0,0.0,0.0,0.0,0.0,0.0,0.2,1.7658672E7,1.7658672E7,1.7658688E7,1.7658688E7,1.7658736E7,1.7658768E7,63.991837,-22.605427,146.22954,0.103064,4.944734,180.01318,25.4003,2.2616,0.061999,8.8E-5,7.685876,89.83825,-41.2991,11.252086,37.50695,0.0,0.0,-39.99986,-40.0,146.22954,1.9E-5,0.012009,282.89517,111.33081,-0.018076,-1.881522,-1538.346,290.2988
0.0,0.0,0.0,0.0,0.0,0.0,0.2,1.7658672E7,1.7658672E7,1.7658688E7,1.7658688E7,1.7658736E7,1.7658768E7,63.991837,-22.605427,146.22955,0.10284,4.942848,180.01315,24.490582,2.274814,0.060807,9.2E-5,7.700169,87.42451,-43.712837,11.036284,36.787617,0.0,0.0,-39.99986,-40.0,146.22955,1.9E-5,0.012948,282.89517,111.60562,-0.018071,-1.808938,-1544.68,309.64026
0.0,0.0,0.0,0.0,0.0,0.0,0.2,1.7658672E7,1.7658672E7,1.7658688E7,1.7658688E7,1.7658736E7,1.7658768E7,63.991837,-22.605427,146.22958,0.102578,4.940688,180.01314,23.510586,2.289863,0.061884,9.7E-5,7.792016,84.738434,-46.39891,10.788072,35.960236,0.0,0.0,-39.99986,-40.0,146.22958,1.8E-5,0.01315,282.89517,112.05352,-0.018059,-1.729866,-1553.328,329.35764
0.0,0.0,0.0,0.0,0.0,0.0,0.2,1.7658672E7,1.7658672E7,1.7658688E7,1.7658688E7,1.7658736E7,1.7658768E7,63.991837,-22.605427,146.2296,0.102305,4.938454,180.0131,22.54381,2.305562,0.062082,1.0E-4,7.896546,81.98147,-49.15588,10.52851,35.09503,1.0E-6,0.0,-49.99986,-50.0,146.2296,1.8E-5,0.013519,282.89517,112.65214,-0.018043,-1.65169,-1564.3304,347.69104
0.0,0.0,0.0,0.0,0.0,0.0,0.2,1.7658672E7,1.7658672E7,1.7658688E7,1.7658688E7,1.7658736E7,1.7658768E7,63.991837,-22.605427,146.22963,0.102025,4.936182,180.01309,21.59052,2.321896,0.062565,1.02E-4,7.786608,79.32042,-51.81693,10.258486,34.194942,3.0E-6,0.0,-49.99986,-50.0,146.22963,1.8E-5,0.013753,282.89514,113.397285,-0.018022,-1.575074,-1570.5288,364.7142
0.0,0.0,0.0,0.0,0.0,0.0,0.2,1.7658672E7,1.7658672E7,1.7658688E7,1.7658688E7,1.7658736E7,1.7658768E7,63.991837,-22.605427,146.22964,0.101743,4.933901,180.01306,20.650913,2.338855,0.063277,1.03E-4,7.8202,76.63268,-54.504665,9.979916,33.26636,8.0E-6,0.0,-49.99986,-50.0,146.22964,1.7E-5,0.013753,282.89508,114.2846,-0.017997,-1.500556,-1577.3818,380.49753
0.0,0.0,0.0,0.0,0.0,0.0,0.2,1.7658672E7,1.7658672E7,1.7658688E7,1.7658688E7,1.7658736E7,1.7658768E7,63.991837,-22.605427,146.22968,0.101464,4.931637,180.01303,19.725164,2.356425,0.064187,1.03E-4,7.838223,73.93554,-57.201805,9.69424,32.314068,1.9E-5,0.0,-49.99986,-50.0,146.22968,1.7E-5,0.013619,282.8949,115.30949,-0.017968,-1.428548,-1584.1327,395.10727
0.0,0.0,0.0,0.0,0.0,0.0,0.2,1.7658672E7,1.7658672E7,1.7658688E7,1.7658688E7,1.7658736E7,1.7658768E7,63.991837,-22.605427,146.22969,0.101196,4.929414,180.01302,18.813503,2.374595,0.065533,1.02E-4,7.850392,71.23508,-59.902267,9.402803,31.34253,4.5E-5,1.0E-6,-59.99986,-60.0,146.22969,1.7E-5,0.013452,282.8945,116.46721,-0.017934,-1.359346,-1590.542,408.6097
0.0,0.0,0.0,0.0,0.0,0.0,0.2,1.7658672E7,1.7658672E7,1.7658688E7,1.7658688E7,1.7658736E7,1.7658768E7,63.991837,-22.605427,146.22972,0.100945,4.927252,180.01299,17.915941,2.393351,0.067042,1.01E-4,7.813475,68.5033,-62.634045,9.107111,30.356712,9.8E-5,2.0E-6,-59.99986,-60.0,146.22972,1.6E-5,0.013116,282.89368,117.75283,-0.017899,-1.293133,-1597.6915,421.07034
0.0,0.0,0.0,0.0,0.0,0.0,0.2,1.7658672E7,1.7658672E7,1.7658688E7,1.7658688E7,1.7658736E7,1.7658768E7,63.991837,-22.605427,146.22974,0.100712,4.925164,180.01297,17.03254,2.412681,0.068781,1.0E-4,7.851171,65.82076,-65.31659,8.807846,29.358822,2.0E-4,4.0E-6,-59.99986,-60.0,146.22974,1.6E-5,0.012714,282.89212,119.16128,-0.017863,-1.229989,-1602.4303,432.55392
0.0,0.0,0.0,0.0,0.0,0.0,0.2,1.7658672E7,1.7658672E7,1.7658688E7,1.7658688E7,1.7658736E7,1.7658768E7,63.991837,-22.605427,146.22977,0.100496,4.92316,180.01295,16.163366,2.432574,0.070699,9.8E-5,7.872734,63.125404,-68.01194,8.506358,28.353243,3.88E-4,8.0E-6,-69.999855,-70.0,146.22977,1.6E-5,0.012244,282.88928,120.68732,-0.017827,-1.169889,-1607.3573,443.12292
0.0,0.0,0.0,0.0,0.0,0.0,0.2,1.7658672E7,1.7658672E7,1.7658688E7,1.7658688E7,1.7658736E7,1.7658768E7,63.991837,-22.605427,146.22978,0.100297,4.921245,180.01294,15.308463,2.453016,0.072797,9.7E-5,7.886359,60.42553,-70.711815,8.203689,27.34325,7.18E-4,1.5E-5,-69.999855,-70.0,146.22978,1.5E-5,0.011875,282.88425,122.3256,-0.017791,-1.112725,-1612.1259,452.8379
0.0,0.0,0.0,0.0,0.0,0.0,0.2,1.7658672E7,1.7658672E7,1.7658688E7,1.7658688E7,1.7658736E7,1.7658768E7,63.991837,-22.605427,146.2298,0.100114,4.919423,180.01292,14.46785,2.473994,0.075145,9.4E-5,7.897232,57.724052,-73.41329,7.900828,26.331861,0.001277,2.6E-5,-69.999855,-70.0,146.2298,1.5E-5,0.011405,282.8757,124.070656,-0.017755,-1.058353,-1616.6307,461.75702
0.0,0.0,0.0,0.0,0.0,0.0,0.2,1.7658672E7,1.7658672E7,1.7658688E7,1.7658688E7,1.7658736E7,1.7658768E7,63.991837,-22.605427,146.22983,0.099948,4.917698,180.01291,13.64152,2.495496,0.077823,9.2E-5,7.907187,55.022,-76.11535,7.598732,25.321842,0.002192,4.5E-5,-69.999855,-70.0,146.22983,1.5E-5,0.010902,282.86176,125.916916,-0.01772,-1.006638,-1620.8499,469.936
0.0,0.0,0.0,0.0,0.0,0.0,0.2,1.7658672E7,1.7658672E7,1.7658688E7,1.7658688E7,1.7658736E7,1.7658768E7,63.991837,-22.605427,146.22984,0.099798,4.916072,180.0129,12.829441,2.517508,0.080829,9.0E-5,7.916869,52.319733,-78.81761,7.298342,24.31573,0.003646,7.4E-5,-79.999855,-80.0,146.22984,1.4E-5,0.010466,282.8396,127.85872,-0.017686,-0.957449,-1624.7893,477.42776
0.0,0.0,0.0,0.0,0.0,0.0,0.2,1.7658672E7,1.7658672E7,1.7658688E7,1.7658688E7,1.7658736E7,1.7658768E7,63.991837,-22.605427,146.22986,0.099642,4.914465,180.01288,12.029271,2.540225,0.08864,1.27E-4,7.926549,49.617382,-81.519966,6.995766,23.299686,0.005896,1.2E-4,-79.999855,-80.0,146.22986,1.4E-5,0.013552,282.80524,129.89032,-0.017702,-0.910665,-1628.464,522.8349
0.0,0.0,0.0,0.0,0.0,0.0,0.2,1.7658672E7,1.7658672E7,1.7658688E7,1.7658688E7,1.7658736E7,1.7658768E7,63.991837,-22.605427,146.22989,0.099194,4.911504,180.01283,11.237431,2.564153,0.071385,2.18E-4,8.020651,46.854546,-84.2828,6.666462,22.190428,0.009391,1.91E-4,-79.999855,-80.0,146.22989,1.4E-5,0.026635,282.7519,132.00592,-0.01778,-0.86618,-1634.3345,591.1322
0.0,0.0,0.0,0.0,0.0,0.0,0.2,1.7658672E7,1.7658672E7,1.7658688E7,1.7658688E7,1.7658736E7,1.7658768E7,63.991837,-22.605427,146.22995,0.098348,4.90604,180.01277,10.460313,2.588691,0.061828,3.02E-4,7.910187,44.191322,-86.94602,6.311158,20.987822,0.014901,3.01E-4,-79.999855,-80.0,146.22995,3.8E-5,0.04069,282.66763,134.19966,-0.017821,-0.823883,-1635.819,653.0917
0.0,0.0,0.0,0.0,0.0,0.0,0.2,1.7658672E7,1.7658672E7,1.7658688E7,1.7658688E7,1.7658736E7,1.7658768E7,63.991837,-22.605427,146.23003,0.097191,4.89818,180.01266,9.699488,2.613523,0.05711,3.65E-4,7.94345,41.502716,-89.63463,5.939148,19.718798,0.023651,4.76E-4,-89.999855,-90.0,146.23003,1.1E-4,0.052028,282.53366,136.46565,-0.017812,-0.783665,-1638.2043,708.35004
0.0,0.0,0.0,0.0,0.0,0.0,0.2,1.7658672E7,1.7658672E7,1.7658688E7,1.7658688E7,1.7658736E7,1.7658768E7,63.991837,-22.605427,146.23013,0.095823,4.888486,180.01256,8.962134,2.636425,0.054281,4.04E-4,7.96172,38.805176,-92.33217,5.558942,18.405548,0.037502,7.49E-4,-89.999855,-90.0,146.23013,1.97E-4,0.059744,282.32108,138.79799,-0.017756,-0.74542,-1640.7805,756.8495
0.0,0.0,0.0,0.0,0.0,0.0,0.2,1.7658672E7,1.7658672E7,1.7658688E7,1.7658688E7,1.7658736E7,1.7658768E7,63.991837,-22.605427,146.23022,0.094336,4.877661,180.01242,8.323664,2.632704,0.047565,4.09E-4,7.966161,36.10449,-95.03286,5.179405,17.068453,0.05922,0.001171,-89.999855,-90.0,146.23022,2.93E-4,0.062595,281.98688,141.1907,-0.017657,-0.709049,-1643.3065,798.75244
0.0,0.0,0.0,0.0,0.0,0.0,0.2,1.7658672E7,1.7658672E7,1.7658688E7,1.7658688E7,1.7658736E7,1.7658768E7,63.991837,-22.605427,146.23033,0.092815,4.867913,180.01224,7.673466,2.632957,0.02578,4.11E-4,7.968734,33.402683,-97.734665,4.812054,15.732753,0.092772,0.001814,-99.999855,-100.0,146.23033,4.32E-4,0.052867,281.46893,143.6379,-0.017503,-0.674466,-1645.7057,834.369
0.0,0.0,0.0,0.0,0.0,0.0,0.2,1.7658672E7,1.7658672E7,1.7658688E7,1.7658688E7,1.7658736E7,1.7658768E7,63.991837,-22.605427,146.23041,0.091314,4.860937,180.01202,7.019022,2.637674,0.015112,4.57E-4,7.971971,30.700468,-100.43688,4.473449,14.436362,0.143372,0.00277,-99.999855,-100.0,146.23041,6.93E-4,0.042133,280.6854,146.13362,-0.017097,-0.641586,-1647.9591,864.103
0.0,0.0,0.0,0.0,0.0,0.0,0.2,1.7658672E7,1.7658672E7,1.7658688E7,1.7658688E7,1.7658736E7,1.7658768E7,63.991837,-22.605427,146.23047,0.089883,4.8563,180.01178,6.34725,2.646183,0.01139,5.76E-4,7.976136,27.998089,-103.13926,4.172318,13.186629,0.217575,0.004151,-99.999855,-100.0,146.23047,0.001153,0.038845,279.53247,148.67201,-0.016837,-0.610295,-1650.0668,888.41724
0.0,0.0,0.0,0.0,0.0,0.0,0.2,1.7658672E7,1.7658672E7,1.7658688E7,1.7658688E7,1.7658736E7,1.7658768E7,63.991837,-22.605427,146.23055,0.088565,4.853357,180.0115,5.679997,2.658003,0.009241,7.01E-4,7.981198,25.295635,-105.84171,3.917722,11.987174,0.323396,0.00609,-99.999855,-100.0,146.23055,0.001871,0.037906,277.8817,151.24718,-0.016517,-0.580548,-1652.0347,907.8043
0.0,0.0,0.0,0.0,0.0,0.0,0.2,1.7658672E7,1.7658672E7,1.7658688E7,1.7658688E7,1.7658736E7,1.7658768E7,63.991837,-22.605427,146.2306,0.087381,4.851571,180.01118,5.017918,2.672543,0.008452,8.88E-4,7.987033,22.593147,-108.5442,3.719707,10.840812,0.470085,0.008738,-109.999855,-110.0,146.2306,0.002894,0.038241,275.5818,153.8533,-0.015672,-0.552264,-1653.8708,922.7649
0.0,0.0,0.0,0.0,0.0,0.0,0.2,1.7658672E7,1.7658672E7,1.7658688E7,1.7658688E7,1.7658736E7,1.7658768E7,63.991837,-22.605427,146.23068,0.086365,4.850551,180.01079,4.357563,2.689234,0.007895,0.001085,7.993493,19.890636,-111.24671,3.58872,9.749742,0.667474,0.012254,-109.999855,-110.0,146.23068,0.004259,0.044045,272.46582,156.48459,-0.015085,-0.525365,-1655.5833,933.79205
0.0,0.0,0.0,0.0,0.0,0.0,0.2,1.7658672E7,1.7658672E7,1.7658688E7,1.7658688E7,1.7658736E7,1.7658768E7,63.991837,-22.605427,146.23076,0.085515,4.850037,180.01035,3.703585,2.707589,0.007559,0.0013,8.000427,17.188114,-113.949234,3.53441,8.715662,0.924745,0.016781,-109.999855,-110.0,146.23076,0.005991,0.048137,268.36713,159.13535,-0.014444,-0.499786,-1657.1799,941.35986
0.0,0.0,0.0,0.0,0.0,0.0,0.2,1.7658672E7,1.7658672E7,1.7658688E7,1.7658688E7,1.7658736E7,1.7658768E7,63.991837,-22.605427,146.23087,0.084825,4.849828,180.00984,3.057452,2.727155,0.00732,0.001522,8.007695,14.485584,-116.651764,3.563699,7.73984,1.248472,0.022415,-109.999855,-110.0,146.23087,0.008102,0.057496,263.14542,161.79991,-0.013785,-0.475461,-1658.6682,945.91614
0.0,0.0,0.0,0.0,0.0,0.0,0.2,1.7658672E7,1.7658672E7,1.7658688E7,1.7658688E7,1.7658736E7,1.7658768E7,63.991837,-22.605427,146.23096,0.084299,4.849791,180.00931,2.419985,2.74753,0.007184,0.001758,8.015167,11.783047,-119.3543,3.678169,6.823146,1.639975,0.029164,-119.999855,-120.0,146.23096,0.0106,0.067157,256.72488,164.47275,-0.013119,-0.452327,-1660.055,947.8781
0.0,0.0,0.0,0.0,0.0,0.0,0.2,1.7658672E7,1.7658672E7,1.7658688E7,1.7658688E7,1.7658736E7,1.7658768E7,63.991837,-22.605427,146.23108,0.083926,4.849832,180.00873,1.791899,2.768367,0.007066,0.001991,8.022728,9.080506,-122.05684,3.871107,5.966068,2.092356,0.0369,-119.999855,-120.0,146.23108,0.013482,0.074671,249.14114,167.14838,-0.012453,-0.430326,-1661.347,947.6298
0.0,0.0,0.0,0.0,0.0,0.0,0.2,1.7658672E7,1.7658672E7,1.7658688E7,1.7658688E7,1.7658736E7,1.7658768E7,63.991837,-22.605427,146.23122,0.083688,4.849886,180.0081,1.172919,2.789366,0.007061,0.002249,8.030277,6.377962,-124.759384,4.125107,5.168717,2.58809,0.045325,-119.999855,-120.0,146.23122,0.01674,0.079099,240.58768,169.82144,-0.011794,-0.409402,-1662.5503,945.52124
0.0,0.0,0.0,0.0,0.0,0.0,0.2,1.7658672E7,1.7658672E7,1.7658688E7,1.7658688E7,1.7658736E7,1.7658768E7,63.991837,-22.605427,146.23135,0.083585,4.849922,180.00748,0.563206,2.810278,0.006973,0.002472,8.037727,3.675415,-127.46193,4.411602,4.430866,3.098531,0.053963,-119.999855,-120.0,146.23135,0.020361,0.087485,231.44493,172.4867,-0.011165,-0.389501,-1663.6705,941.8689
0.0,0.0,0.0,0.0,0.0,0.0,0.2,1.7658672E7,1.7658672E7,1.7658688E7,1.7658688E7,1.7658736E7,1.7658768E7,63.991837,-22.605427,146.23152,0.083592,4.849916,180.00682,-0.037639,2.830899,0.00694,0.002703,8.045004,0.972866,-130.16447,4.693784,3.752023,3.586842,0.062215,-129.99986,-130.0,146.23152,0.024327,0.09567,222.26826,175.139,-0.010571,-0.370573,-1664.7131,936.9569
0.0,0.0,0.0,0.0,0.0,0.0,0.2,1.7658672E7,1.7658672E7,1.7658688E7,1.7658688E7,1.7658736E7,1.7658768E7,63.991837,-22.605427,146.23169,0.083697,4.849857,180.0061,-0.630038,2.851055,0.006921,0.002929,8.052045,-1.729686,-132.86703,4.933612,3.131576,4.014981,0.069473,-129.99986,-130.0,146.23169,0.028619,0.103654,213.71497,177.77338,-0.010004,-0.352578,-1665.683,931.03827
0.0,0.0,0.0,0.0,0.0,0.0,0.2,1.7658672E7,1.7658672E7,1.7658688E7,1.7658688E7,1.7658736E7,1.7658768E7,63.991837,-22.605427,146.23187,0.083889,4.849749,180.00528,-1.214825,2.870614,0.006882,0.003134,8.058797,-4.43224,-135.56958,5.101588,2.56897,4.35348,0.075278,-129.99986,-130.0,146.23187,0.033213,0.111805,206.4095,180.38492,-0.00949,-0.335476,-1666.585,924.3374
0.0,0.0,0.0,0.0,0.0,0.0,0.2,1.7658672E7,1.7658672E7,1.7658688E7,1.7658688E7,1.7658736E7,1.7658768E7,63.991837,-22.605427,146.23207,0.084138,4.849597,180.00447,-1.798658,2.889492,0.006867,0.003337,8.065222,-7.134798,-138.27214,5.185522,2.063852,4.590201,0.079448,-139.99986,-140.0,146.23207,0.038083,0.118246,200.78098,182.96895,-0.009124,-0.319197,-1667.4233,917.0516
0.0,0.0,0.0,0.0,0.0,0.0,0.2,1.7658672E7,1.7658672E7,1.7658688E7,1.7658688E7,1.7658736E7,1.7658768E7,63.991837,-22.605427,146.23228,0.084462,4.849403,180.00357,-2.3683,2.907603,0.006859,0.00353,8.07129,-9.837358,-140.9747,5.193521,1.616149,4.733318,0.082141,-139.99986,-140.0,146.23228,0.043205,0.125693,196.94093,185.52084,-0.008904,-0.303737,-1668.2023,909.3535
0.0,0.0,0.0,0.0,0.0,0.0,0.2,1.7658672E7,1.7658672E7,1.7658688E7,1.7658688E7,1.7658736E7,1.7658768E7,63.991837,-22.605427,146.2325,0.084837,4.849166,180.00266,-2.933008,2.924917,0.006871,0.003721,8.076982,-12.539924,-143.67728,5.148772,1.225963,4.806104,0.083739,-139.99986,-140.0,146.2325,0.048553,0.132167,194.67062,188.03621,-0.008701,-0.289034,-1668.9254,901.3934
0.0,0.0,0.0,0.0,0.0,0.0,0.2,1.7658672E7,1.7658672E7,1.7658688E7,1.7658688E7,1.7658736E7,1.7658768E7,63.991837,-22.605427,146.23274,0.085247,4.848913,180.0017,-3.492406,2.941413,0.006836,0.003873,8.082284,-15.242495,-146.37984,5.078833,0.893427,4.836211,0.084689,-139.99986,-140.0,146.23274,0.054099,0.136595,193.5363,190.51079,-0.008514,-0.275055,-1669.5966,893.3008
0.0,0.0,0.0,0.0,0.0,0.0,0.2,1.7658672E7,1.7658672E7,1.7658688E7,1.7658688E7,1.7658736E7,1.7658768E7,63.991837,-22.605427,146.23297,0.085689,4.84863,180.00072,-4.046996,2.957087,0.006848,0.004039,8.087191,-17.94507,-149.08241,5.005823,0.618546,4.84586,0.085339,-149.99986,-150.0,146.23297,0.059818,0.141862,193.07095,192.94046,-0.008357,-0.261761,-1670.2189,885.1866
0.0,0.0,0.0,0.0,0.0,0.0,0.2,1.7658672E7,1.7658672E7,1.7658688E7,1.7658688E7,1.7658736E7,1.7658768E7,63.991833,-22.605427,146.23323,0.086154,4.848318,179.99974,-4.59745,2.97195,0.00686,0.004192,8.0917,-20.647652,-151.785,4.942568,0.40116,4.847987,0.085891,-149.99986,-150.0,146.23323,0.065685,0.14639,192.9191,195.32132,-0.00822,-0.249119,-1670.7955,877.14514
0.0,0.0,0.0,0.0,0.0,0.0,0.2,1.7658672E7,1.7658672E7,1.7658688E7,1.7658688E7,1.7658736E7,1.7658768E7,63.991833,-22.605427,146.23349,0.086628,4.847991,179.99873,-5.144534,2.986028,0.006842,0.004314,8.095817,-23.35024,-154.4876,4.894437,0.240973,4.848071,0.086418,-149.99986,-150.0,146.23349,0.071675,0.150181,192.88069,197.6496,-0.008119,-0.237096,-1671.3295,869.25555
0.0,0.0,0.0,0.0,0.0,0.0,0.2,1.7658672E7,1.7658672E7,1.7658688E7,1.7658688E7,1.7658736E7,1.7658768E7,63.991833,-22.605427,146.23375,0.087102,4.847661,179.99773,-5.68819,2.999352,0.006817,0.00442,8.09955,-26.052837,-157.19019,4.862984,0.137611,4.847776,0.086919,-149.99986,-150.0,146.23375,0.077766,0.158265,192.8729,199.92174,-0.008027,-0.225662,-1671.8235,861.5834
0.0,0.0,0.0,0.0,0.0,0.0,0.2,1.7658672E7,1.7658672E7,1.7658688E7,1.7658688E7,1.7658736E7,1.7658768E7,63.991833,-22.605427,146.23402,0.087586,4.847332,179.99672,-6.229035,3.011962,0.006819,0.004531,8.10291,-28.755442,-159.89279,4.848427,0.090733,4.847435,0.087424,-159.99986,-160.0,146.23402,0.083934,0.161016,192.87099,202.13434,-0.007953,-0.214787,-1672.2802,854.18207
0.0,0.0,0.0,0.0,0.0,0.0,0.2,1.7658672E7,1.7658672E7,1.7658688E7,1.7658688E7,1.7658736E7,1.7658768E7,63.991833,-22.605427,146.2343,0.088071,4.847011,179.9957,-6.767547,3.023905,0.006851,0.004652,8.105911,-31.458055,-162.5954,4.847094,0.087935,4.847094,0.087935,-159.99986,-160.0,146.2343,0.09016,0.16229,192.86986,204.28421,-0.007905,-0.204445,-1672.7017,847.0944
0.0,0.0,0.0,0.0,0.0,0.0,0.2,1.7658672E7,1.7658672E7,1.7658688E7,1.7658688E7,1.7658736E7,1.7658768E7,63.991833,-22.605427,146.23459,0.08855,4.846701,179.99466,-7.304062,3.035233,0.006842,0.004735,8.108568,-34.16068,-165.29802,4.846767,0.088438,4.846767,0.088438,-159.99986,-160.0,146.23459,0.096425,0.164035,192.86877,206.36832,-0.007871,-0.19461,-1673.0905,840.35345
0.0,0.0,0.0,0.0,0.0,0.0,0.2,1.7658672E7,1.7658672E7,1.7658688E7,1.7658688E7,1.7658736E7,1.7658768E7,63.991833,-22.605427,146.23488,0.089014,4.8464,179.99364,-7.838546,3.045995,0.006848,0.004818,8.110899,-36.86331,-168.00066,4.846453,0.088921,4.846453,0.088921,-169.99986,-170.0,146.23488,0.102709,0.169469,192.86769,208.38383,-0.007841,-0.185256,-1673.4485,833.98376
0.0,0.0,0.0,0.0,0.0,0.0,0.22,1.7658672E7,1.7658672E7,1.7658688E7,1.7658688E7,1.7658736E7,1.7658768E7,63.991833,-22.605427,146.23517,0.089464,4.846115,179.9926,-8.371552,3.056248,0.006835,0.004879,8.112922,-39.565956,-170.70331,4.846162,0.08938,4.846162,0.08938,-169.99986,-170.0,146.23517,0.108997,0.173897,192.86664,210.32814,-0.007826,-0.17636,-1673.7778,828.0025
0.0,0.0,0.0,0.0,0.0,0.0,0.28,1.7658672E7,1.7658672E7,1.7658688E7,1.7658688E7,1.7658736E7,1.7658768E7,63.991833,-22.605427,146.23544,0.089823,4.845862,179.99165,-8.868233,3.065332,0.006745,0.004871,8.170441,-42.178043,-173.31538,4.845908,0.089776,4.845908,0.089776,-169.99986,-170.0,146.23544,0.114752,0.187785,192.86569,212.04578,-0.007826,-0.168592,-1679.2855,823.05194
0.0,0.0,0.0,0.0,0.0,0.0,0.3,1.7658672E7,1.7658672E7,1.7658688E7,1.7658688E7,1.7658736E7,1.7658768E7,63.991833,-22.605427,146.2358,0.09034,4.845571,179.99046,-9.483633,3.07639,0.006789,0.004967,8.015161,-45.25751,-176.39487,4.84561,0.090273,4.84561,0.090273,-169.99986,-170.0,146.2358,0.122046,0.18547,192.86449,214.1396,-0.007836,-0.159202,-1676.3538,818.4674
0.0,0.0,0.0,0.0,0.0,0.0,0.3,1.7658672E7,1.7658672E7,1.7658688E7,1.7658688E7,1.7658736E7,1.7658768E7,63.991833,-22.605427,146.23608,0.090706,4.845379,179.98947,-9.960761,3.084923,0.006848,0.005056,8.082625,-47.693626,-178.83098,4.845412,0.090633,4.845412,0.090633,-179.99986,-180.0,146.23608,0.127746,0.176815,192.86353,215.71031,-0.007865,-0.152203,-1674.877,816.43787
0.0,0.0,0.0,0.0,0.0,0.0,0.3,1.7658672E7,1.7658672E7,1.7658688E7,1.7658688E7,1.7658736E7,1.7658768E7,63.991833,-22.605427,146.23639,0.091055,4.845215,179.9884,-10.486061,3.094374,0.006837,0.005097,8.099817,-50.434383,-181.57173,4.84524,0.090987,4.84524,0.090987,-179.99986,-180.0,146.23639,0.133927,0.183055,192.86246,217.34727,-0.007888,-0.14493,-1676.5713,815.59705
0.0,0.0,0.0,0.0,0.0,0.0,0.3,1.7658672E7,1.7658672E7,1.7658688E7,1.7658688E7,1.7658736E7,1.7658768E7,63.991833,-22.605427,146.2367,0.091357,4.845109,179.98734,-11.008264,3.104062,0.006861,0.005163,8.085214,-53.099678,-184.23703,4.845123,0.091298,4.845123,0.091298,-179.99986,-180.0,146.2367,0.140068,0.180002,192.86139,218.90276,-0.007897,-0.138015,-1675.2275,815.9916
0.0,0.0,0.0,0.0,0.0,0.0,0.3,1.7658672E7,1.7658672E7,1.7658688E7,1.7658688E7,1.7658736E7,1.7658768E7,63.991833,-22.605427,146.23701,0.091608,4.845063,179.98624,-11.526832,3.114129,0.00688,0.005227,8.108694,-55.789227,-186.92657,4.845068,0.091557,4.845068,0.091557,-179.99986,-180.0,146.23701,0.146171,0.18594,192.8603,220.3753,-0.00791,-0.131443,-1674.8987,817.4316
0.0,0.0,0.0,0.0,0.0,0.0,0.3,1.7658672E7,1.7658672E7,1.7658688E7,1.7658688E7,1.7658736E7,1.7658768E7,63.991833,-22.605427,146.23734,0.091814,4.845076,179.98512,-12.040968,3.124681,0.00685,0.005257,8.117969,-58.48732,-189.62466,4.845071,0.09177,4.845071,0.09177,-189.99986,-190.0,146.23734,0.15224,0.185503,192.85919,221.76363,-0.007911,-0.125198,-1674.9142,819.7422
0.0,0.0,0.0,0.0,0.0,0.0,0.3,1.7658672E7,1.7658672E7,1.7658688E7,1.7658688E7,1.7658736E7,1.7658768E7,63.991833,-22.605427,146.23766,0.091976,4.845153,179.98396,-12.550375,3.135813,0.006876,0.005333,8.12215,-61.18843,-192.32578,4.845138,0.091939,4.845138,0.091939,-189.99986,-190.0,146.23766,0.158282,0.188355,192.85803,223.06665,-0.007908,-0.119264,-1675.0387,822.76337
0.0,0.0,0.0,0.0,0.0,0.0,0.3,1.7658672E7,1.7658672E7,1.7658688E7,1.7658688E7,1.7658736E7,1.7658768E7,63.991833,-22.605427,146.23798,0.092096,4.845275,179.98277,-13.054333,3.147597,0.006892,0.005407,8.110077,-63.899807,-195.03716,4.845252,0.092065,4.845252,0.092065,-189.99986,-190.0,146.23798,0.164304,0.191441,192.85686,224.2835,-0.007898,-0.113627,-1675.5342,826.34937
0.0,0.0,0.0,0.0,0.0,0.0,0.3,1.7658672E7,1.7658672E7,1.7658688E7,1.7658688E7,1.7658736E7,1.7658768E7,63.991833,-22.605427,146.23831,0.092178,4.845446,179.98154,-13.552404,3.160092,0.006899,0.00548,8.121058,-66.59641,-197.73376,4.845415,0.092154,4.845415,0.092154,-199.99986,-200.0,146.23831,0.170317,0.192414,192.85562,225.41344,-0.007877,-0.108273,-1675.4323,830.36884
0.0,0.0,0.0,0.0,0.0,0.0,0.3,1.7658672E7,1.7658672E7,1.7658688E7,1.7658688E7,1.7658736E7,1.7658768E7,63.991833,-22.605427,146.23865,0.092226,4.845656,179.98027,-14.04405,3.17334,0.006882,0.00554,8.126629,-69.29702,-200.43437,4.845619,0.092207,4.845619,0.092207,-199.99986,-200.0,146.23865,0.17633,0.194024,192.85435,226.45596,-0.007836,-0.103189,-1675.4849,834.70416
0.0,0.0,0.0,0.0,0.0,0.0,0.38,1.7658672E7,1.7658672E7,1.7658688E7,1.7658688E7,1.7658736E7,1.7658768E7,63.99183,-22.605427,146.23898,0.092254,4.845904,179.97894,-14.52909,3.187373,0.006909,0.005641,8.16361,-72.03859,-203.17593,4.845862,0.092238,4.845862,0.092238,-199.99986,-200.0,146.23898,0.182354,0.197311,192.85304,227.41075,-0.007771,-0.098362,-1677.1222,839.3512
0.0,0.0,0.0,0.0,0.0,0.0,0.4,1.7658672E7,1.7658672E7,1.7658688E7,1.7658688E7,1.7658736E7,1.7658768E7,63.99183,-22.605427,146.23933,0.092258,4.846182,179.97757,-15.006566,3.202271,0.006903,0.005724,8.075216,-74.740715,-205.87807,4.846136,0.092246,4.846136,0.092246,-199.99986,-200.0,146.23933,0.188402,0.201203,192.85167,228.27765,-0.007708,-0.09378,-1677.0707,845.21936
0.0,0.0,0.0,0.0,0.0,0.0,0.4,1.7658672E7,1.7658672E7,1.7658688E7,1.7658688E7,1.7658736E7,1.7658768E7,63.99183,-22.605427,146.23969,0.092235,4.846498,179.97614,-15.47568,3.218227,0.006906,0.005825,8.111689,-77.41807,-208.55542,4.846445,0.092228,4.846445,0.092228,-209.99986,-210.0,146.23969,0.194486,0.204154,192.85025,229.05666,-0.007641,-0.089433,-1676.1023,852.7099
0.0,0.0,0.0,0.0,0.0,0.0,0.4,1.7658672E7,1.7658672E7,1.7658688E7,1.7658688E7,1.7658736E7,1.7658768E7,63.99183,-22.605427,146.24004,0.092167,4.846877,179.97461,-15.935016,3.235421,0.006935,0.00596,8.130038,-80.11193,-211.24928,4.846814,0.092166,4.846814,0.092166,-209.99986,-210.0,146.24004,0.200627,0.207979,192.84874,229.748,-0.007548,-0.085312,-1675.8253,861.4899
0.0,0.0,0.0,0.0,0.0,0.0,0.4,1.7658672E7,1.7658672E7,1.7658688E7,1.7658688E7,1.7658736E7,1.7658768E7,63.99183,-22.605427,146.2404,0.092047,4.84732,179.973,-16.38326,3.253993,0.006923,0.006075,8.138856,-82.81161,-213.94896,4.847248,0.092054,4.847248,0.092054,-209.99986,-210.0,146.2404,0.206846,0.212138,192.84715,230.35202,-0.007439,-0.081408,-1675.7837,871.24286
0.0,0.0,0.0,0.0,0.0,0.0,0.4,1.7658672E7,1.7658672E7,1.7658688E7,1.7658688E7,1.7658736E7,1.7658768E7,63.99183,-22.605427,146.24078,0.091889,4.847824,179.97131,-16.81957,3.274051,0.006937,0.006228,8.144644,-85.513336,-216.65068,4.847745,0.091901,4.847745,0.091901,-209.99986,-210.0,146.24078,0.213166,0.218579,192.84546,230.86928,-0.007303,-0.077712,-1675.8174,881.6859
0.0,0.0,0.0,0.0,0.0,0.0,0.4,1.7658672E7,1.7658672E7,1.7658688E7,1.7658688E7,1.7658736E7,1.7658768E7,63.99183,-22.605427,146.24117,0.09168,4.848389,179.9695,-17.242807,3.295665,0.006936,0.006384,8.14973,-88.21579,-219.35313,4.848304,0.091697,4.848304,0.091697,-219.99986,-220.0,146.24117,0.219613,0.221732,192.84367,231.30043,-0.007128,-0.074217,-1675.8702,892.5689
0.0,0.0,0.0,0.0,0.0,0.0,0.4,1.7658672E7,1.7658672E7,1.7658688E7,1.7658688E7,1.7658736E7,1.7658768E7,63.99183,-22.605427,146.24155,0.091437,4.849004,179.96751,-17.651495,3.318867,0.006932,0.006555,8.15495,-90.91851,-222.05585,4.848913,0.091458,4.848913,0.091458,-219.99986,-220.0,146.24155,0.226214,0.232466,192.84172,231.64638,-0.006761,-0.070921,-1675.9232,903.6736
0.0,0.0,0.0,0.0,0.0,0.0,0.4,1.7658672E7,1.7658672E7,1.7658688E7,1.7658688E7,1.7658736E7,1.7658768E7,63.99183,-22.605427,146.24188,0.091221,4.849552,179.9657,-17.978333,3.339387,0.006932,0.006714,8.159633,-93.170845,-224.3082,4.849457,0.091239,4.849457,0.091239,-219.99986,-220.0,146.24188,0.231851,0.239712,192.83992,231.87025,-0.006262,-0.068329,-1675.9625,912.9604
0.0,0.0,0.0,0.0,0.0,0.0,0.4,1.7658672E7,1.7658672E7,1.7658688E7,1.7658688E7,1.7658736E7,1.7658768E7,63.99183,-22.605427,146.24237,0.090872,4.85036,179.96289,-18.425558,3.370133,0.006959,0.006986,8.126071,-96.349495,-227.48685,4.850262,0.090893,4.850262,0.090893,-229.99986,-230.0,146.24237,0.239985,0.243536,192.83714,232.0867,-0.0049,-0.064916,-1676.8983,925.8246
0.0,0.0,0.0,0.0,0.0,0.0,0.42,1.7658672E7,1.7658672E7,1.7658688E7,1.7658688E7,1.7658736E7,1.7658768E7,63.99183,-22.605427,146.24281,0.090555,4.851081,179.96033,-18.79239,3.398211,0.006941,0.007197,8.158341,-99.03594,-230.1733,4.850982,0.090576,4.850982,0.090576,-229.99986,-230.0,146.24281,0.247209,0.252895,192.8346,232.18353,-0.003858,-0.06217,-1676.238,936.5797
0.0,0.0,0.0,0.0,0.0,0.0,0.48,1.7658672E7,1.7658672E7,1.7658688E7,1.7658688E7,1.7658736E7,1.7658768E7,63.99183,-22.605427,146.24329,0.090145,4.851885,179.95741,-19.190424,3.430764,0.006852,0.00737,8.202562,-102.012474,-233.14983,4.851785,0.090211,4.851785,0.090211,-229.99986,-230.0,146.24329,0.255329,0.28473,192.8317,232.19778,-0.002845,-0.059374,-1678.118,948.18054
0.0,0.0,0.0,0.0,0.0,0.0,0.5,1.7658672E7,1.7658672E7,1.7658688E7,1.7658688E7,1.7658736E7,1.7658768E7,63.99183,-22.605427,146.24376,0.089803,4.852642,179.95454,-19.52697,3.462224,0.006881,0.007667,8.149435,-104.69025,-235.82759,4.852542,0.089872,4.852542,0.089872,-229.99986,-230.0,146.24376,0.263124,0.2907,192.82883,232.12894,-0.001853,-0.056951,-1677.0326,959.93555
0.0,0.0,0.0,0.0,0.0,0.0,0.5,1.7658672E7,1.7658672E7,1.7658688E7,1.7658688E7,1.7658736E7,1.7658768E7,63.99183,-22.605427,146.24419,0.089538,4.85336,179.95174,-19.803308,3.492273,0.006954,0.008013,8.181732,-107.142685,-238.28003,4.853257,0.089561,4.853257,0.089561,-239.99986,-240.0,146.24419,0.270546,0.2801,192.82607,231.99817,-8.67E-4,-0.05486,-1676.009,971.8466
0.0,0.0,0.0,0.0,0.0,0.0,0.5,1.7658672E7,1.7658672E7,1.7658688E7,1.7658688E7,1.7658736E7,1.7658768E7,63.99183,-22.605427,146.24469,0.089151,4.854186,179.9485,-20.107265,3.527369,0.006965,0.008337,8.203316,-109.84098,-240.97832,4.854079,0.089176,4.854079,0.089176,-239.99986,-240.0,146.24469,0.278974,0.292713,192.82285,231.78336,1.01E-4,-0.052718,-1675.8354,985.76227
0.0,0.0,0.0,0.0,0.0,0.0,0.5,1.7658672E7,1.7658672E7,1.7658688E7,1.7658688E7,1.7658736E7,1.7658768E7,63.991825,-22.605427,146.24521,0.088729,4.85507,179.94505,-20.393093,3.564471,0.006943,0.008646,6.90634,-112.09745,-243.2348,4.854959,0.088756,4.854959,0.088756,-239.99986,-240.0,146.24521,0.287781,0.305292,192.81943,231.49515,0.001068,-0.050717,-1658.0907,1000.2996
0.0,0.0,0.0,0.0,0.0,0.0,0.5,1.7658672E7,1.7658672E7,1.7658688E7,1.7658688E7,1.7658736E7,1.7658768E7,63.991825,-22.605427,146.24574,0.088257,4.856018,179.94138,-20.660503,3.603672,0.006974,0.009048,4.926686,-112.97591,-244.11325,4.855902,0.088289,4.855902,0.088289,-239.99986,-240.0,146.24574,0.297003,0.314517,192.81577,231.13554,0.002036,-0.048854,-1585.833,1015.16235
0.0,0.0,0.0,0.0,0.0,0.0,0.5,1.7658672E7,1.7658672E7,1.7658688E7,1.7658688E7,1.7658736E7,1.7658768E7,63.991825,-22.605427,146.2463,0.087743,4.857018,179.93742,-20.908993,3.645091,0.006962,0.009422,3.995746,-113.290504,-244.42786,4.856898,0.087778,4.856898,0.087778,-239.99986,-240.0,146.2463,0.306677,0.33243,192.81184,230.70667,0.003003,-0.047126,-1490.9872,1030.0876
0.0,0.0,0.0,0.0,0.0,0.0,0.52,1.7658672E7,1.7658672E7,1.7658688E7,1.7658688E7,1.7658736E7,1.7658768E7,63.991825,-22.605427,146.24689,0.087201,4.858053,179.9332,-21.138489,3.688734,0.006965,0.009843,3.630391,-113.406624,-244.54398,4.857933,0.087236,4.857933,0.087236,-239.99986,-240.0,146.24689,0.316839,0.344641,192.80765,230.21074,0.003992,-0.045528,-1387.8186,1044.8529
0.0,0.0,0.0,0.0,0.0,0.0,0.54,1.7658672E7,1.7658672E7,1.7658688E7,1.7658688E7,1.7658736E7,1.7658768E7,63.991825,-22.605427,146.24756,0.086524,4.859214,179.9283,-21.386389,3.739047,0.006886,0.010209,3.511621,-113.45545,-244.5928,4.859092,0.086615,4.859092,0.086615,-239.99986,-240.0,146.24756,0.328442,0.393382,192.80278,229.6005,0.004988,-0.04394,-1272.6119,1060.8947
0.0,0.0,0.0,0.0,0.0,0.0,0.54,1.7658672E7,1.7658672E7,1.7658688E7,1.7658688E7,1.7658736E7,1.7658768E7,63.991825,-22.605427,146.2482,0.08595,4.860317,179.92343,-21.57751,3.787426,0.006899,0.010698,3.499556,-113.475876,-244.61322,4.860195,0.086043,4.860195,0.086043,-239.99986,-240.0,146.2482,0.339738,0.406397,192.79794,228.97238,0.006002,-0.042605,-1165.0762,1076.128
0.0,0.0,0.0,0.0,0.0,0.0,0.54,1.7658672E7,1.7658672E7,1.7658688E7,1.7658688E7,1.7658736E7,1.7658768E7,63.991825,-22.605427,146.24881,0.085485,4.861356,179.91866,-21.714779,3.833277,0.006958,0.011252,3.520071,-113.4875,-244.62485,4.861232,0.08552,4.861232,0.08552,-239.99986,-240.0,146.24881,0.350621,0.400392,192.7932,228.34412,0.007035,-0.04149,-1066.1268,1090.2147
0.0,0.0,0.0,0.0,0.0,0.0,0.54,1.7658672E7,1.7658672E7,1.7658688E7,1.7658688E7,1.7658736E7,1.7658768E7,63.991825,-22.605427,146.24951,0.084859,4.862525,179.91307,-21.870087,3.886197,0.006969,0.011801,3.55615,-113.49741,-244.63477,4.8624,0.084894,4.8624,0.084894,-239.99986,-240.0,146.24951,0.363104,0.413475,192.78766,227.60382,0.008013,-0.040394,-958.02045,1105.4879
0.0,0.0,0.0,0.0,0.0,0.0,0.54,1.7658672E7,1.7658672E7,1.7658688E7,1.7658688E7,1.7658736E7,1.7658768E7,63.991825,-22.605427,146.25026,0.084128,4.863726,179.90665,-22.007904,3.941527,0.006983,0.012388,3.599113,-113.50623,-244.64359,4.863601,0.08415,4.863601,0.08415,-239.99986,-240.0,146.25026,0.376262,0.43273,192.78137,226.80876,0.008393,-0.039494,-849.8438,1120.4651
0.0,0.0,0.0,0.0,0.0,0.0,0.54,1.7658672E7,1.7658672E7,1.7658688E7,1.7658688E7,1.7658736E7,1.7658768E7,63.99182,-22.605427,146.25102,0.083546,4.864933,179.89955,-21.965786,3.994597,0.006968,0.012951,3.646256,-113.51459,-244.65193,4.86481,0.083561,4.86481,0.083561,-239.99986,-240.0,146.25102,0.39013,0.45554,192.77429,225.96158,0.010286,-0.038746,-741.63354,1134.9806
0.0,0.0,0.0,0.0,0.0,0.0,0.54,1.7658672E7,1.7658672E7,1.7658688E7,1.7658688E7,1.7658736E7,1.7658768E7,63.99182,-22.605427,146.25183,0.08288,4.866127,179.89198,-21.689606,4.043625,0.006966,0.013567,3.697524,-113.52238,-244.65973,4.86601,0.082888,4.86601,0.082888,-239.99986,-240.0,146.25183,0.404744,0.47768,192.7668,225.06499,0.011361,-0.038105,-633.37494,1148.9034
0.0,0.0,0.0,0.0,0.0,0.0,0.54,1.7658672E7,1.7658672E7,1.7658688E7,1.7658688E7,1.7658736E7,1.7658768E7,63.99182,-22.605427,146.25267,0.0822,4.867287,179.88388,-21.386194,4.094335,0.00695,0.014181,3.752075,-113.5299,-244.66725,4.867174,0.082247,4.867174,0.082247,-239.99986,-240.0,146.25267,0.420137,0.501329,192.75873,224.1217,0.013493,-0.037598,-525.08704,1162.1343
0.0,0.0,0.0,0.0,0.0,0.0,0.54,1.7658672E7,1.7658672E7,1.7658688E7,1.7658688E7,1.7658736E7,1.7658768E7,63.99182,-22.605427,146.25356,0.081553,4.868402,179.87512,-21.095228,4.147724,0.00695,0.014854,3.809216,-113.53731,-244.67465,4.868295,0.081574,4.868295,0.081574,-239.99986,-240.0,146.25356,0.436338,0.523167,192.75005,223.13454,0.015134,-0.037205,-416.78278,1174.6008
0.0,0.0,0.0,0.0,0.0,0.0,0.54,1.7658672E7,1.7658672E7,1.7658688E7,1.7658688E7,1.7658736E7,1.7658768E7,63.99182,-22.605427,146.25449,0.080696,4.869477,179.86577,-20.802975,4.20327,0.006916,0.015475,3.868633,-113.54464,-244.68199,4.869376,0.080781,4.869376,0.080781,-239.99986,-240.0,146.25449,0.453375,0.563488,192.74078,222.10628,0.015056,-0.03695,-308.46494,1186.2552
0.0,0.0,0.0,0.0,0.0,0.0,0.54,1.7658672E7,1.7658672E7,1.7658688E7,1.7658688E7,1.7658736E7,1.7658768E7,63.99182,-22.605427,146.25546,0.080107,4.870505,179.85527,-20.487396,4.26023,0.006938,0.016245,3.930147,-113.55192,-244.68927,4.870409,0.080131,4.870409,0.080131,-239.99986,-240.0,146.25546,0.471274,0.580327,192.73038,221.03976,0.016934,-0.036882,-200.13141,1197.07
0.0,0.0,0.0,0.0,0.0,0.0,0.54,1.7658672E7,1.7658672E7,1.7658688E7,1.7658688E7,1.7658736E7,1.7658768E7,63.99182,-22.605427,146.25647,0.079514,4.871482,179.84422,-20.202599,4.319941,0.006924,0.016953,3.993559,-113.55916,-244.6965,4.871392,0.079554,4.871392,0.079554,-239.99986,-240.0,146.25647,0.490054,0.597402,192.71938,219.93785,0.017333,-0.036896,-91.767784,1207.0353
