aileron,elevator,rudder,flaps,slats,speedbrake,throttle,engine-pump0,engine-pump1,electric-pump0,electric-pump1,external-power,APU-generator,latitude-deg,longitude-deg,altitude-ft,roll-deg,pitch-deg,heading-deg,side-slip-deg,airspeed-kt,glideslope,vertical-speed-fps,airspeed-indicator_indicated-speed-kt,altimeter_indicated-altitude-ft,altimeter_pressure-alt-ft,attitude-indicator_indicated-pitch-deg,attitude-indicator_indicated-roll-deg,attitude-indicator_internal-pitch-deg,attitude-indicator_internal-roll-deg,encoder_indicated-altitude-ft,encoder_pressure-alt-ft,gps_indicated-altitude-ft,gps_indicated-ground-speed-kt,gps_indicated-vertical-speed,indicated-heading-deg,magnetic-compass_indicated-heading-deg,slip-skid-ball_indicated-slip-skid,turn-indicator_indicated-turn-rate,vertical-speed-indicator_indicated-speed-fpm,engine_rpm
0,0,0,0,0,0,0,4.81E+07,4.81E+07,4.81E+07,4.81E+07,4.81E+07,4.81E+07,63.985043,-22.592484,-9999,0,0.424,270.02136,0,0,0,0,0,0,0,0,0,0,0,0,0,0,0,0,0,0,0,0,0,0
0,0,0,0,0,0,0,4.81E+07,4.81E+07,4.81E+07,4.81E+07,4.81E+07,4.81E+07,63.985043,-22.592484,-9999,0,0.424,270.02136,0,0,0,0,0,177.4758,1.193444,12,40,0,0,0,0,0,0,0,282.91263,0,0,0,0,0
0,0,0,0,0,0,0,4.81E+07,4.81E+07,4.81E+07,4.81E+07,4.81E+07,4.81E+07,63.991837,-22.605425,-9999,0,0.424,180.01839,0,0,0,0,0,177.4758,1.193444,12,40,0,0,0,0,0,0,0,282.91263,0,0,0,0,0
0,0,0,0,0,0,0,4.81E+07,4.81E+07,4.81E+07,4.81E+07,4.81E+07,4.81E+07,63.991837,-22.605425,-9999,0,0.424,180.01839,0,0,0,0,0,177.4758,1.193444,12,40,0,0,0,0,0,0,0,282.91263,0,0,0,0,0
0,0,0,0,0,0,0,4.81E+07,4.81E+07,4.81E+07,4.81E+07,4.81E+07,4.81E+07,63.991837,-22.605425,-9999,0,0.424,180.01839,0,0,0,0,0,177.4758,1.193444,12,40,0,0,0,0,0,0,0,282.91263,0,0,0,0,0
0,0,0,0,0,0,0,4.81E+07,4.81E+07,4.81E+07,4.81E+07,4.81E+07,4.81E+07,63.991837,-22.605425,-9999,0,0.424,180.01839,0,0,0,0,0,177.4758,1.193444,12,40,0,0,0,0,0,0,0,282.91263,0,0,0,0,0
0,0,0,0,0,0,0,4.81E+07,4.81E+07,4.81E+07,4.81E+07,4.81E+07,4.81E+07,63.991837,-22.605425,-9999,0,0.424,180.01839,0,0,0,0,0,177.4758,1.193444,12,40,0,0,0,0,0,0,0,282.91263,0,0,0,0,0
0,0,0,0,0,0,0,4.81E+07,4.81E+07,4.81E+07,4.81E+07,4.81E+07,4.81E+07,63.991837,-22.605425,-9999,0,0.424,180.01839,0,0,0,0,0,177.4758,1.193444,12,40,0,0,0,0,0,0,0,282.91263,0,0,0,0,0
0,0,0,0,0,0,0,4.81E+07,4.81E+07,4.81E+07,4.81E+07,4.81E+07,4.81E+07,63.991837,-22.605425,-9999,0,0.424,180.01839,0,0,0,0,0,177.4758,1.193444,12,40,0,0,0,0,0,0,0,282.91263,0,0,0,0,0
0,0,0,0,0,0,0,4.81E+07,4.81E+07,4.81E+07,4.81E+07,4.81E+07,4.81E+07,63.991837,-22.605425,-9999,0,0.424,180.01839,0,0,0,0,0,177.4758,1.193444,12,40,0,0,0,0,0,0,0,282.91263,0,0,0,0,0
0,0,0,0,0,0,0,4.81E+07,4.81E+07,4.81E+07,4.81E+07,4.81E+07,4.81E+07,63.991837,-22.605425,-9999,0,0.424,180.01839,0,0,0,0,0,177.4758,1.193444,12,40,0,0,0,0,0,0,0,282.91263,0,0,0,0,0
0,0,0,0,0,0,0,4.81E+07,4.81E+07,4.81E+07,4.81E+07,4.81E+07,4.81E+07,63.991837,-22.605425,-9999,0,0.424,180.01839,0,0,0,0,0,177.4758,1.193444,12,40,0,0,0,0,0,0,0,282.91263,0,0,0,0,0
0,0,0,0,0,0,0,4.81E+07,4.81E+07,4.81E+07,4.81E+07,4.81E+07,4.81E+07,63.991837,-22.605425,-9999,0,0.424,180.01839,0,0,0,0,0,177.4758,1.193444,12,40,0,0,0,0,0,0,0,282.91263,0,0,0,0,0
0,0,0,0,0,0,0,4.81E+07,4.81E+07,4.81E+07,4.81E+07,4.81E+07,4.81E+07,63.991837,-22.605425,-9999,0,0.424,180.01839,0,0,0,0,0,177.4758,1.193444,12,40,0,0,0,0,0,0,0,282.91263,0,0,0,0,0
0,0,0,0,0,0,0,4.81E+07,4.81E+07,4.81E+07,4.81E+07,4.81E+07,4.81E+07,63.991837,-22.605425,-9999,0,0.424,180.01839,0,0,0,0,0,177.4758,1.193444,12,40,0,0,0,0,0,0,0,282.91263,0,0,0,0,0
0,0,0,0,0,0,0,4.81E+07,4.81E+07,4.81E+07,4.81E+07,4.81E+07,4.81E+07,63.991837,-22.605425,-9999,0,0.424,180.01839,0,0,0,0,0,177.4758,1.193444,12,40,0,0,0,0,0,0,0,282.91263,0,0,0,0,0
0,0,0,0,0,0,0,4.81E+07,4.81E+07,4.81E+07,4.81E+07,4.81E+07,4.81E+07,63.991837,-22.605425,-9999,0,0.424,180.01839,0,0,0,0,0,177.4758,1.193444,12,40,0,0,0,0,0,0,0,282.91263,0,0,0,0,0
0,0,0,0,0,0,0,4.81E+07,4.81E+07,4.81E+07,4.81E+07,4.81E+07,4.81E+07,63.991837,-22.605425,-9999,0,0.424,180.01839,0,0,0,0,0,177.4758,1.193444,12,40,0,0,0,0,0,0,0,282.91263,0,0,0,0,0
0,0,0,0,0,0,0,4.81E+07,4.81E+07,4.81E+07,4.81E+07,4.81E+07,4.81E+07,63.991837,-22.605425,-9999,0,0.424,180.01839,0,0,0,0,0,177.4758,1.193444,12,40,0,0,0,0,0,0,0,282.91263,0,0,0,0,0
0,0,0,0,0,0,0,4.81E+07,4.81E+07,4.81E+07,4.81E+07,4.81E+07,4.81E+07,63.991837,-22.605425,-9999,0,0.424,180.01839,0,0,0,0,0,177.4758,1.193444,12,40,0,0,0,0,0,0,0,282.91263,0,0,0,0,0
0,0,0,0,0,0,0,4.81E+07,4.81E+07,4.81E+07,4.81E+07,4.81E+07,4.81E+07,63.991837,-22.605425,-9999,0,0.424,180.01839,0,0,0,0,0,177.4758,1.193444,12,40,0,0,0,0,0,0,0,282.91263,0,0,0,0,0
0,0,0,0,0,0,0,4.81E+07,4.81E+07,4.81E+07,4.81E+07,4.81E+07,4.81E+07,63.991837,-22.605425,-9999,0,0.424,180.01839,0,0,0,0,0,177.4758,1.193444,12,40,0,0,0,0,0,0,0,282.91263,0,0,0,0,0
0,0,0,0,0,0,0,4.81E+07,4.81E+07,4.81E+07,4.81E+07,4.81E+07,4.81E+07,63.991837,-22.605425,-9999,0,0.424,180.01839,0,0,0,0,0,177.4758,1.193444,12,40,0,0,0,0,0,0,0,282.91263,0,0,0,0,0
0,0,0,0,0,0,0,4.81E+07,4.81E+07,4.81E+07,4.81E+07,4.81E+07,4.81E+07,63.991837,-22.605425,-9999,0,0.424,180.01839,0,0,0,0,0,177.4758,1.193444,12,40,0,0,0,0,0,0,0,282.91263,0,0,0,0,0
0,0,0,0,0,0,0,4.81E+07,4.81E+07,4.81E+07,4.81E+07,4.81E+07,4.81E+07,63.991837,-22.605425,-9999,0,0.424,180.01839,0,0,0,0,0,177.4758,1.193444,12,40,0,0,0,0,0,0,0,282.91263,0,0,0,0,0
0,0,0,0,0,0,0,4.81E+07,4.81E+07,4.81E+07,4.81E+07,4.81E+07,4.81E+07,63.991837,-22.605425,-9999,0,0.424,180.01839,0,0,0,0,0,177.4758,1.193444,12,40,0,0,0,0,0,0,0,282.91263,0,0,0,0,0
0,0,0,0,0,0,0,4.81E+07,4.81E+07,4.81E+07,4.81E+07,4.81E+07,4.81E+07,63.991837,-22.605425,-9999,0,0.424,180.01839,0,0,0,0,0,177.4758,1.193444,12,40,0,0,0,0,0,0,0,282.91263,0,0,0,0,0
0,0,0,0,0,0,0,4.81E+07,4.81E+07,4.81E+07,4.81E+07,4.81E+07,4.81E+07,63.991837,-22.605425,-9999,0,0.424,180.01839,0,0,0,0,0,177.4758,1.193444,12,40,0,0,0,0,0,0,0,282.91263,0,0,0,0,0
0,0,0,0,0,0,0,4.81E+07,4.81E+07,4.81E+07,4.81E+07,4.81E+07,4.81E+07,63.991837,-22.605425,-9999,0,0.424,180.01839,0,0,0,0,0,177.4758,1.193444,12,40,0,0,0,0,0,0,0,282.91263,0,0,0,0,0
0,0,0,0,0,0,0,4.81E+07,4.81E+07,4.81E+07,4.81E+07,4.81E+07,4.81E+07,63.991837,-22.605425,-9999,0,0.424,180.01839,0,0,0,0,0,177.4758,1.193444,12,40,0,0,0,0,0,0,0,282.91263,0,0,0,0,0
0,0,0,0,0,0,0,4.81E+07,4.81E+07,4.81E+07,4.81E+07,4.81E+07,4.81E+07,63.991837,-22.605425,-9999,0,0.424,180.01839,0,0,0,0,0,177.4758,1.193444,12,40,0,0,0,0,0,0,0,282.91263,0,0,0,0,0
0,0,0,0,0,0,0,4.81E+07,4.81E+07,4.81E+07,4.81E+07,4.81E+07,4.81E+07,63.991837,-22.605425,-9999,0,0.424,180.01839,0,0,0,0,0,177.4758,1.193444,12,40,0,0,0,0,0,0,0,282.91263,0,0,0,0,0
0,0,0,0,0,0,0,4.81E+07,4.81E+07,4.81E+07,4.81E+07,4.81E+07,4.81E+07,63.991837,-22.605425,-9999,0,0.424,180.01839,0,0,0,0,0,177.4758,1.193444,12,40,0,0,0,0,0,0,0,282.91263,0,0,0,0,0
0,0,0,0,0,0,0,4.81E+07,4.81E+07,4.81E+07,4.81E+07,4.81E+07,4.81E+07,63.991837,-22.605425,-9999,0,0.424,180.01839,0,0,0,0,0,177.4758,1.193444,12,40,0,0,0,0,0,0,0,282.91263,0,0,0,0,0
0,0,0,0,0,0,0,4.81E+07,4.81E+07,4.81E+07,4.81E+07,4.81E+07,4.81E+07,63.991837,-22.605425,-9999,0,0.424,180.01839,0,0,0,0,0,177.4758,1.193444,12,40,0,0,0,0,0,0,0,282.91263,0,0,0,0,0
0,0,0,0,0,0,0,4.81E+07,4.81E+07,4.81E+07,4.81E+07,4.81E+07,4.81E+07,63.991837,-22.605425,-9999,0,0.424,180.01839,0,0,0,0,0,177.4758,1.193444,12,40,0,0,0,0,0,0,0,282.91263,0,0,0,0,0
0,0,0,0,0,0,0,4.81E+07,4.81E+07,4.81E+07,4.81E+07,4.81E+07,4.81E+07,63.991837,-22.605425,-9999,0,0.424,180.01839,0,0,0,0,0,177.4758,1.193444,12,40,0,0,0,0,0,0,0,282.91263,0,0,0,0,0
0,0,0,0,0,0,0,4.81E+07,4.81E+07,4.81E+07,4.81E+07,4.81E+07,4.81E+07,63.991837,-22.605425,-9999,0,0.424,180.01839,0,0,0,0,0,177.4758,1.193444,12,40,0,0,0,0,0,0,0,282.91263,0,0,0,0,0
0,0,0,0,0,0,0,4.81E+07,4.81E+07,4.81E+07,4.81E+07,4.81E+07,4.81E+07,63.991837,-22.605425,-9999,0,0.424,180.01839,0,0,0,0,0,177.4758,1.193444,12,40,0,0,0,0,0,0,0,282.91263,0,0,0,0,0
0,0,0,0,0,0,0,4.81E+07,4.81E+07,4.81E+07,4.81E+07,4.81E+07,4.81E+07,63.991837,-22.605425,-9999,0,0.424,180.01839,0,0,0,0,0,177.4758,1.193444,12,40,0,0,0,0,0,0,0,282.91263,0,0,0,0,0
0,0,0,0,0,0,0,4.81E+07,4.81E+07,4.81E+07,4.81E+07,4.81E+07,4.81E+07,63.991837,-22.605425,-9999,0,0.424,180.01839,0,0,0,0,0,177.4758,1.193444,12,40,0,0,0,0,0,0,0,282.91263,0,0,0,0,0
0,0,0,0,0,0,0,4.81E+07,4.81E+07,4.81E+07,4.81E+07,4.81E+07,4.81E+07,63.991837,-22.605425,-9999,0,0.424,180.01839,0,0,0,0,0,177.4758,1.193444,12,40,0,0,0,0,0,0,0,282.91263,0,0,0,0,0
0,0,0,0,0,0,0,4.81E+07,4.81E+07,4.81E+07,4.81E+07,4.81E+07,4.81E+07,63.991837,-22.605425,-9999,0,0.424,180.01839,0,0,0,0,0,177.4758,1.193444,12,40,0,0,0,0,0,0,0,282.91263,0,0,0,0,0
0,0,0,0,0,0,0,4.81E+07,4.81E+07,4.81E+07,4.81E+07,4.81E+07,4.81E+07,63.991837,-22.605425,-9999,0,0.424,180.01839,0,0,0,0,0,177.4758,1.193444,12,40,0,0,0,0,0,0,0,282.91263,0,0,0,0,0
0,0,0,0,0,0,0,4.81E+07,4.81E+07,4.81E+07,4.81E+07,4.81E+07,4.81E+07,63.991837,-22.605425,-9999,0,0.424,180.01839,0,0,0,0,0,177.4758,1.193444,12,40,0,0,0,0,0,0,0,282.91263,0,0,0,0,0
0,0,0,0,0,0,0,4.81E+07,4.81E+07,4.81E+07,4.81E+07,4.81E+07,4.81E+07,63.991837,-22.605425,-9999,0,0.424,180.01839,0,0,0,0,0,177.4758,1.193444,12,40,0,0,0,0,0,0,0,282.91263,0,0,0,0,0
0,0,0,0,0,0,0,4.81E+07,4.81E+07,4.81E+07,4.81E+07,4.81E+07,4.81E+07,63.991837,-22.605425,-9999,0,0.424,180.01839,0,0,0,0,0,177.4758,1.193444,12,40,0,0,0,0,0,0,0,282.91263,0,0,0,0,0
0,0,0,0,0,0,0,4.81E+07,4.81E+07,4.81E+07,4.81E+07,4.81E+07,4.81E+07,63.991837,-22.605425,-9999,0,0.424,180.01839,0,0,0,0,0,177.4758,1.193444,12,40,0,0,0,0,0,0,0,282.91263,0,0,0,0,0
0,0,0,0,0,0,0,4.81E+07,4.81E+07,4.81E+07,4.81E+07,4.81E+07,4.81E+07,63.991837,-22.605425,-9999,0,0.424,180.01839,0,0,0,0,0,177.4758,1.193444,12,40,0,0,0,0,0,0,0,282.91263,0,0,0,0,0
0,0,0,0,0,0,0,4.81E+07,4.81E+07,4.81E+07,4.81E+07,4.81E+07,4.81E+07,63.991837,-22.605425,-9999,0,0.424,180.01839,0,0,0,0,0,177.4758,1.193444,12,40,0,0,0,0,0,0,0,282.91263,0,0,0,0,0
0,0,0,0,0,0,0,4.81E+07,4.81E+07,4.81E+07,4.81E+07,4.81E+07,4.81E+07,63.991837,-22.605425,-9999,0,0.424,180.01839,0,0,0,0,0,177.4758,1.193444,12,40,0,0,0,0,0,0,0,282.91263,0,0,0,0,0
0,0,0,0,0,0,0,4.81E+07,4.81E+07,4.81E+07,4.81E+07,4.81E+07,4.81E+07,63.991837,-22.605425,-9999,0,0.424,180.01839,0,0,0,0,0,177.4758,1.193444,12,40,0,0,0,0,0,0,0,282.91263,0,0,0,0,0
0,0,0,0,0,0,0,4.81E+07,4.81E+07,4.81E+07,4.81E+07,4.81E+07,4.81E+07,63.991837,-22.605425,-9999,0,0.424,180.01839,0,0,0,0,0,177.4758,1.193444,12,40,0,0,0,0,0,0,0,282.91263,0,0,0,0,0
0,0,0,0,0,0,0,4.81E+07,4.81E+07,4.81E+07,4.81E+07,4.81E+07,4.81E+07,63.991837,-22.605425,-9999,0,0.424,180.01839,0,0,0,0,0,177.4758,1.193444,12,40,0,0,0,0,0,0,0,282.91263,0,0,0,0,0
0,0,0,0,0,0,0,4.81E+07,4.81E+07,4.81E+07,4.81E+07,4.81E+07,4.81E+07,63.991837,-22.605425,-9999,0,0.424,180.01839,0,0,0,0,0,177.4758,1.193444,12,40,0,0,0,0,0,0,0,282.91263,0,0,0,0,0
0,0,0,0,0,0,0,4.81E+07,4.81E+07,4.81E+07,4.81E+07,4.81E+07,4.81E+07,63.991837,-22.605425,-9999,0,0.424,180.01839,0,0,0,0,0,177.4758,1.193444,12,40,0,0,0,0,0,0,0,282.91263,0,0,0,0,0
0,0,0,0,0,0,0,4.81E+07,4.81E+07,4.81E+07,4.81E+07,4.81E+07,4.81E+07,63.991837,-22.605425,-9999,0,0.424,180.01839,0,0,0,0,0,177.4758,1.193444,12,40,0,0,0,0,0,0,0,282.91263,0,0,0,0,0
0,0,0,0,0,0,0,4.81E+07,4.81E+07,4.81E+07,4.81E+07,4.81E+07,4.81E+07,63.991837,-22.605425,-9999,0,0.424,180.01839,0,0,0,0,0,177.4758,1.193444,12,40,0,0,0,0,0,0,0,282.91263,0,0,0,0,0
0,0,0,0,0,0,0,4.81E+07,4.81E+07,4.81E+07,4.81E+07,4.81E+07,4.81E+07,63.991837,-22.605425,-9999,0,0.424,180.01839,0,0,0,0,0,177.4758,1.193444,12,40,0,0,0,0,0,0,0,282.91263,0,0,0,0,0
0,0,0,0,0,0,0,4.81E+07,4.81E+07,4.81E+07,4.81E+07,4.81E+07,4.81E+07,63.991837,-22.605425,-9999,0,0.424,180.01839,0,0,0,0,0,177.4758,1.193444,12,40,0,0,0,0,0,0,0,282.91263,0,0,0,0,0
0,0,0,0,0,0,0,4.81E+07,4.81E+07,4.81E+07,4.81E+07,4.81E+07,4.81E+07,63.991837,-22.605425,-9999,0,0.424,180.01839,0,0,0,0,0,177.4758,1.193444,12,40,0,0,0,0,0,0,0,282.91263,0,0,0,0,0
0,0,0,0,0,0,0,4.81E+07,4.81E+07,4.81E+07,4.81E+07,4.81E+07,4.81E+07,63.991837,-22.605425,-9999,0,0.424,180.01839,0,0,0,0,0,177.4758,1.193444,12,40,0,0,0,0,0,0,0,282.91263,0,0,0,0,0
0,0,0,0,0,0,0,4.81E+07,4.81E+07,4.81E+07,4.81E+07,4.81E+07,4.81E+07,63.991837,-22.605425,-9999,0,0.424,180.01839,0,0,0,0,0,177.4758,1.193444,12,40,0,0,0,0,0,0,0,282.91263,0,0,0,0,0
0,0,0,0,0,0,0,4.81E+07,4.81E+07,4.81E+07,4.81E+07,4.81E+07,4.81E+07,63.991837,-22.605425,-9999,0,0.424,180.01839,0,0,0,0,0,177.4758,1.193444,12,40,0,0,0,0,0,0,0,282.91263,0,0,0,0,0
0,0,0,0,0,0,0,4.81E+07,4.81E+07,4.81E+07,4.81E+07,4.81E+07,4.81E+07,63.991837,-22.605425,-9999,0,0.424,180.01839,0,0,0,0,0,177.4758,1.193444,12,40,0,0,0,0,0,0,0,282.91263,0,0,0,0,0
0,0,0,0,0,0,0,4.81E+07,4.81E+07,4.81E+07,4.81E+07,4.81E+07,4.81E+07,63.991837,-22.605425,-9999,0,0.424,180.01839,0,0,0,0,0,177.4758,1.193444,12,40,0,0,0,0,0,0,0,282.91263,0,0,0,0,0
0,0,0,0,0,0,0,4.81E+07,4.81E+07,4.81E+07,4.81E+07,4.81E+07,4.81E+07,63.991837,-22.605425,-9999,0,0.424,180.01839,0,0,0,0,0,177.4758,1.193444,12,40,0,0,0,0,0,0,0,282.91263,0,0,0,0,0
0,0,0,0,0,0,0,4.81E+07,4.81E+07,4.81E+07,4.81E+07,4.81E+07,4.81E+07,63.991837,-22.605425,-9999,0,0.424,180.01839,0,0,0,0,0,177.4758,1.193444,12,40,0,0,0,0,0,0,0,282.91263,0,0,0,0,0
0,0,0,0,0,0,0,4.81E+07,4.81E+07,4.81E+07,4.81E+07,4.81E+07,4.81E+07,63.991837,-22.605425,-9999,0,0.424,180.01839,0,0,0,0,0,177.4758,1.193444,12,40,0,0,0,0,0,0,0,282.91263,0,0,0,0,0
0,0,0,0,0,0,0,4.81E+07,4.81E+07,4.81E+07,4.81E+07,4.81E+07,4.81E+07,63.991837,-22.605425,-9999,0,0.424,180.01839,0,0,0,0,0,177.4758,1.193444,12,40,0,0,0,0,0,0,0,282.91263,0,0,0,0,0
0,0,0,0,0,0,0,4.81E+07,4.81E+07,4.81E+07,4.81E+07,4.81E+07,4.81E+07,63.991837,-22.605425,-9999,0,0.424,180.01839,0,0,0,0,0,177.4758,1.193444,12,40,0,0,0,0,0,0,0,282.91263,0,0,0,0,0
0,0,0,0,0,0,0,4.81E+07,4.81E+07,4.81E+07,4.81E+07,4.81E+07,4.81E+07,63.991837,-22.605425,-9999,0,0.424,180.01839,0,0,0,0,0,177.4758,1.193444,12,40,0,0,0,0,0,0,0,282.91263,0,0,0,0,0
0,0,0,0,0,0,0,4.81E+07,4.81E+07,4.81E+07,4.81E+07,4.81E+07,4.81E+07,63.991837,-22.605427,146.22931,0.104756,4.954411,180.01334,0,0,0,0,0,177.4758,1.193444,12,40,0,0,0,0,0,0,0,282.91263,0,0,0,0,0
0,0,0,0,0,0,0,4.81E+07,4.81E+07,4.81E+07,4.81E+07,4.81E+07,4.81E+07,63.991837,-22.605427,146.22925,0.095842,4.972417,180.01263,89.86134,3.012145,0.004742,1.10E-05,0,325.2285,148.94612,12,40,0,0,140.00014,140,146.22925,7.30E-05,-0.010265,282.91257,356.89484,-0.006122,-0.487915,3948.151,0
0,0,0,0,0,0,0,4.81E+07,4.81E+07,4.81E+07,4.81E+07,4.81E+07,4.81E+07,63.991837,-22.605427,146.22954,0.095397,4.951345,180.01259,83.883064,2.733599,0.147093,3.50E-05,0,298.50818,122.22582,12,40,0,0,120.000145,120,146.22954,6.00E-05,0.002348,282.91257,329.5204,-0.012739,-1.280883,2397.4897,0
0,0,0,0,0,0,0,4.81E+07,4.81E+07,4.81E+07,4.81E+07,4.81E+07,4.81E+07,63.991837,-22.605427,146.22954,0.09544,4.951086,180.01259,83.25438,2.709819,0.136759,2.30E-05,4.903797,296.90753,120.62519,12,40,0,0,120.000145,120,146.22954,5.80E-05,0.00208,282.91257,325.86066,-0.012976,-1.33561,2254.8977,0
0,0,0,0,0,0,0,4.81E+07,4.81E+07,4.81E+07,4.81E+07,4.81E+07,4.81E+07,63.991837,-22.605427,146.22954,0.095854,4.950813,180.01262,81.66306,2.652831,0.065872,9.00E-06,4.145439,290.2368,113.95444,12,40,0,0,120.000145,120,146.22954,5.60E-05,5.03E-04,282.91257,316.23703,-0.013747,-1.459748,1806.1857,0
0,0,0,0,0,0,0,4.81E+07,4.81E+07,4.81E+07,4.81E+07,4.81E+07,4.81E+07,63.991837,-22.605427,146.22954,0.095954,4.950784,180.01262,81.239075,2.638389,0.036932,5.00E-06,5.383894,289.39493,113.11259,12,40,0,0,110.000145,110,146.22954,5.50E-05,6.70E-05,282.91257,313.60577,-0.013941,-1.489712,1712.6547,0
0,0,0,0,0,0,0,4.81E+07,4.81E+07,4.81E+07,4.81E+07,4.81E+07,4.81E+07,63.991837,-22.605427,146.22954,0.096048,4.950769,180.01263,80.81053,2.62409,-0.122228,-1.40E-05,6.418816,288.1907,111.90836,12,40,0,0,110.000145,110,146.22954,5.50E-05,-7.04E-04,282.91257,310.9231,-0.014126,-1.518813,1603.2087,0
0,0,0,0,0,0,0,4.81E+07,4.81E+07,4.81E+07,4.81E+07,4.81E+07,4.81E+07,63.991837,-22.605427,146.22954,0.096131,4.950768,180.01263,80.43945,2.61196,-0.125307,-1.50E-05,6.863899,286.98544,110.7031,12,40,0,0,110.000145,110,146.22954,5.40E-05,-9.39E-04,282.91257,308.5846,-0.01421,-1.543089,1499.4989,0
0,0,0,0,0,0,0,4.81E+07,4.81E+07,4.81E+07,4.81E+07,4.81E+07,4.81E+07,63.991837,-22.605427,146.22954,0.09622,4.950776,180.01265,80.06489,2.599941,-0.123873,-1.70E-05,7.10803,285.69403,109.41169,12,40,0,0,110.000145,110,146.22954,5.30E-05,-0.001073,282.91257,306.21158,-0.014371,-1.566764,1388.2289,0
0,0,0,0,0,0,0,4.81E+07,4.81E+07,4.81E+07,4.81E+07,4.81E+07,4.81E+07,63.991837,-22.605427,146.22954,0.096317,4.950791,180.01265,79.68682,2.588034,-0.122119,-1.80E-05,7.248507,284.3515,108.06916,12,40,0,0,110.000145,110,146.22954,5.30E-05,-0.001241,282.91257,303.80563,-0.014448,-1.589853,1269.4911,0
0,0,0,0,0,0,0,4.81E+07,4.81E+07,4.81E+07,4.81E+07,4.81E+07,4.81E+07,63.991837,-22.605427,146.2295,0.098371,4.951402,180.01282,74.4485,2.444063,-0.259768,-2.00E-05,2.985705,264.2919,88.00956,12,40,0,0,90.000145,90,146.2295,4.60E-05,-0.001141,282.91257,270.22272,-0.015745,-1.84284,-525.3834,0
0,0,0,0,0,0,0,4.81E+07,4.81E+07,4.81E+07,4.81E+07,4.81E+07,4.81E+07,63.991837,-22.605427,146.2295,0.09841,4.951421,180.01282,74.09218,2.435577,-0.245766,-1.90E-05,4.923734,263.73627,87.45393,12,40,0,0,90.000145,90,146.2295,4.60E-05,-0.00161,282.91257,267.96698,-0.01579,-1.856417,-547.15546,0
0,0,0,0,0,0,0,4.81E+07,4.81E+07,4.81E+07,4.81E+07,4.81E+07,4.81E+07,63.991837,-22.605427,146.2295,0.098472,4.95145,180.01283,73.58922,2.423862,-0.2321,-2.10E-05,6.258456,262.60074,86.31839,12,40,0,0,90.000145,90,146.2295,4.60E-05,-0.001476,282.91257,264.79675,-0.015875,-1.874956,-610.54614,0
0,0,0,0,0,0,0,4.81E+07,4.81E+07,4.81E+07,4.81E+07,4.81E+07,4.81E+07,63.991837,-22.605427,146.2295,0.098534,4.951477,180.01283,73.154236,2.413969,-0.211251,-2.20E-05,6.78655,261.42874,85.1464,12,40,0,0,90.000145,90,146.2295,4.50E-05,-0.001409,282.91257,262.06973,-0.015914,-1.89042,-673.90894,0
0,0,0,0,0,0,0,4.81E+07,4.81E+07,4.81E+07,4.81E+07,4.81E+07,4.81E+07,63.991837,-22.605427,146.2295,0.098605,4.951505,180.01283,72.715675,2.404223,-0.0585,-7.00E-06,7.071736,260.15704,83.874695,12,40,0,0,90.000145,90,146.2295,4.50E-05,-0.001744,282.91257,259.33527,-0.015987,-1.905501,-735.8748,0
0,0,0,0,0,0,0,4.81E+07,4.81E+07,4.81E+07,4.81E+07,4.81E+07,4.81E+07,63.991837,-22.605427,146.2295,0.09869,4.951531,180.01285,72.27352,2.394615,-0.072223,-1.00E-05,7.234736,258.82617,82.54383,12,40,0,0,80.000145,80,146.2295,4.40E-05,-8.39E-04,282.91257,256.5948,-0.016023,-1.92021,-793.69696,0
0,0,0,0,0,0,0,4.81E+07,4.81E+07,4.81E+07,4.81E+07,4.81E+07,4.81E+07,63.991837,-22.605427,146.2295,0.098784,4.951558,180.01285,71.82783,2.385146,-0.081613,-1.10E-05,7.329883,257.46024,81.17787,12,40,0,0,80.000145,80,146.2295,4.40E-05,-8.72E-04,282.91257,253.84972,-0.016096,-1.934555,-846.6946,0
0,0,0,0,0,0,0,4.81E+07,4.81E+07,4.81E+07,4.81E+07,4.81E+07,4.81E+07,63.991837,-22.605427,146.2295,0.098881,4.951585,180.01286,71.37859,2.37582,-0.089888,-1.30E-05,7.386069,256.07343,79.791084,12,40,0,0,80.000145,80,146.2295,4.30E-05,-9.73E-04,282.91257,251.10147,-0.016133,-1.948544,-894.99316,0
0,0,0,0,0,0,0,4.81E+07,4.81E+07,4.81E+07,4.81E+07,4.81E+07,4.81E+07,63.991837,-22.605427,146.2295,0.098975,4.951614,180.01286,70.92585,2.366631,-0.206735,-2.80E-05,7.419551,254.67429,78.39193,12,40,0,0,80.000145,80,146.2295,4.30E-05,-0.001375,282.91257,248.35147,-0.016213,-1.962188,-939.00085,0
0,0,0,0,0,0,0,4.81E+07,4.81E+07,4.81E+07,4.81E+07,4.81E+07,4.81E+07,63.991837,-22.605427,146.2295,0.099034,4.951637,180.01288,70.62208,2.360591,-0.202476,-2.80E-05,7.434071,253.73723,77.45488,12,40,0,0,80.000145,80,146.2295,4.30E-05,-0.001946,282.91257,246.51784,-0.016248,-1.971096,-966.19025,0
0,0,0,0,0,0,0,4.81E+07,4.81E+07,4.81E+07,4.81E+07,4.81E+07,4.81E+07,63.991837,-22.605427,146.2295,0.099141,4.951682,180.01288,70.08678,2.350188,-0.180335,-2.60E-05,7.467018,251.8579,75.57554,12,40,0,0,80.000145,80,146.2295,4.20E-05,-0.002214,282.91257,243.3098,-0.01628,-1.98633,-1024.1101,0
0,0,0,0,0,0,0,4.81E+07,4.81E+07,4.81E+07,4.81E+07,4.81E+07,4.81E+07,63.991837,-22.605427,146.22949,0.099248,4.951729,180.0129,69.54666,2.339992,-0.065372,-1.00E-05,7.237964,250.29828,74.01593,12,40,0,0,80.000145,80,146.22949,4.20E-05,-0.001845,282.91257,240.10464,-0.016349,-2.001127,-1057.3313,0
0,0,0,0,0,0,0,4.81E+07,4.81E+07,4.81E+07,4.81E+07,4.81E+07,4.81E+07,63.991837,-22.605427,146.22949,0.099347,4.951767,180.0129,69.07994,2.331424,-0.076536,-1.20E-05,7.311932,248.94241,72.66006,12,40,0,0,80.000145,80,146.22949,4.10E-05,-0.001174,282.91257,237.36128,-0.016404,-2.013469,-1084.6503,0
0,0,0,0,0,0,0,4.81E+07,4.81E+07,4.81E+07,4.81E+07,4.81E+07,4.81E+07,63.991837,-22.605427,146.22949,0.099417,4.95179,180.01291,68.766884,2.325795,-0.081179,-1.30E-05,7.357617,248.02391,71.741554,12,40,0,0,70.000145,70,146.22949,4.10E-05,-0.001006,282.91257,235.5351,-0.016434,-2.021527,-1102.5962,0
0,0,0,0,0,0,0,4.81E+07,4.81E+07,4.81E+07,4.81E+07,4.81E+07,4.81E+07,63.991837,-22.605427,146.22949,0.099556,4.951836,180.01291,68.136246,2.314738,-0.192881,-2.90E-05,7.403287,246.12854,69.8462,12,40,0,0,70.000145,70,146.22949,4.00E-05,-0.001006,282.91257,231.89098,-0.0165,-2.037246,-1139.1373,0
0,0,0,0,0,0,0,4.81E+07,4.81E+07,4.81E+07,4.81E+07,4.81E+07,4.81E+07,63.991837,-22.605427,146.22949,0.09965,4.951873,180.01292,67.659355,2.30663,-0.18926,-2.70E-05,7.397033,244.75339,68.47103,12,40,0,0,70.000145,70,146.22949,4.00E-05,-0.00208,282.91257,229.16661,-0.016532,-2.048695,-1161.9202,0
0,0,0,0,0,0,0,4.81E+07,4.81E+07,4.81E+07,4.81E+07,4.81E+07,4.81E+07,63.991837,-22.605427,146.22949,0.099725,4.951906,180.01292,67.25941,2.299999,-0.183487,-2.60E-05,7.443765,243.56071,67.278366,12,40,0,0,70.000145,70,146.22949,4.00E-05,-0.00208,282.91257,226.90308,-0.016559,-2.058019,-1182.249,0
0,0,0,0,0,0,0,4.81E+07,4.81E+07,4.81E+07,4.81E+07,4.81E+07,4.81E+07,63.991837,-22.605427,146.22949,0.0998,4.95194,180.01294,66.85714,2.293481,-0.177731,-2.50E-05,7.423784,242.40123,66.11887,12,40,0,0,70.000145,70,146.22949,3.90E-05,-0.00208,282.91257,224.64645,-0.016615,-2.067151,-1199.7794,0
0,0,0,0,0,0,0,4.81E+07,4.81E+07,4.81E+07,4.81E+07,4.81E+07,4.81E+07,63.991837,-22.605427,146.22949,0.099927,4.951992,180.01294,66.20879,2.283301,-0.074393,-1.10E-05,7.43185,240.51178,64.22942,12,40,0,0,70.000145,70,146.22949,3.90E-05,-8.39E-04,282.91257,221.05208,-0.016662,-2.08137,-1227.7123,0
0,0,0,0,0,0,0,4.81E+07,4.81E+07,4.81E+07,4.81E+07,4.81E+07,4.81E+07,63.991837,-22.605427,146.22949,0.100012,4.952021,180.01295,65.80061,2.277083,-0.07432,-1.10E-05,7.456051,239.34337,63.061012,12,40,0,0,70.000145,70,146.22949,3.90E-05,-0.001073,282.91257,218.81683,-0.016688,-2.090019,-1243.4559,0
0,0,0,0,0,0,0,4.81E+07,4.81E+07,4.81E+07,4.81E+07,4.81E+07,4.81E+07,63.991837,-22.605427,146.22949,0.100131,4.95206,180.01295,65.22544,2.268571,-0.080973,-1.20E-05,7.473414,237.69853,61.416187,12,40,0,0,60.00014,60,146.22949,3.80E-05,-0.001073,282.91257,215.70357,-0.016739,-2.101829,-1264.6963,0
0,0,0,0,0,0,0,4.81E+07,4.81E+07,4.81E+07,4.81E+07,4.81E+07,4.81E+07,63.991837,-22.605427,146.22949,0.100232,4.952091,180.01297,64.729034,2.261456,-0.087596,-1.30E-05,7.481591,236.27956,59.997208,12,40,0,0,60.00014,60,146.22949,3.80E-05,-0.001073,282.91257,213.0513,-0.016764,-2.11168,-1282.2577,0
0,0,0,0,0,0,0,4.81E+07,4.81E+07,4.81E+07,4.81E+07,4.81E+07,4.81E+07,63.991837,-22.605427,146.22949,0.100331,4.952122,180.01297,64.22952,2.254513,-0.092522,-1.40E-05,7.481405,234.86128,58.578938,12,40,0,0,60.00014,60,146.22949,3.70E-05,-0.001073,282.91257,210.41525,-0.016812,-2.121287,-1298.837,0
0,0,0,0,0,0,0,4.81E+07,4.81E+07,4.81E+07,4.81E+07,4.81E+07,4.81E+07,63.991837,-22.605427,146.22949,0.100426,4.952154,180.01299,63.72694,2.247733,-0.190411,-2.60E-05,7.48118,233.44344,57.161087,12,40,0,0,60.00014,60,146.22949,3.70E-05,-0.002549,282.91257,207.79657,-0.01684,-2.130657,-1314.5244,0
0,0,0,0,0,0,0,4.81E+07,4.81E+07,4.81E+07,4.81E+07,4.81E+07,4.81E+07,63.991837,-22.605427,146.22948,0.100511,4.95219,180.01299,63.221386,2.241132,-0.199437,-2.60E-05,7.464369,232.01218,55.729828,12,40,0,0,60.00014,60,146.22948,3.70E-05,-0.001879,282.91257,205.19641,-0.016888,-2.139795,-1330.0277,0
0,0,0,0,0,0,0,4.81E+07,4.81E+07,4.81E+07,4.81E+07,4.81E+07,4.81E+07,63.991837,-22.605427,146.22948,0.100592,4.952228,180.013,62.712883,2.234709,-0.194617,-2.50E-05,7.467862,230.60028,54.317924,12,40,0,0,60.00014,60,146.22948,3.60E-05,-0.001811,282.91257,202.61584,-0.01691,-2.148707,-1343.8527,0
0,0,0,0,0,0,0,4.81E+07,4.81E+07,4.81E+07,4.81E+07,4.81E+07,4.81E+07,63.991837,-22.605427,146.22948,0.100672,4.952266,180.013,62.20147,2.228465,-0.18485,-2.40E-05,7.473761,229.1862,52.90385,12,40,0,0,60.00014,60,146.22948,3.60E-05,-0.001711,282.91257,200.056,-0.016951,-2.157398,-1357.1007,0
0,0,0,0,0,0,0,4.81E+07,4.81E+07,4.81E+07,4.81E+07,4.81E+07,4.81E+07,63.991837,-22.605427,146.22948,0.100754,4.952304,180.01302,61.68723,2.222406,-0.053443,-7.00E-06,7.477863,227.77083,51.48848,12,40,0,0,50.00014,50,146.22948,3.50E-05,-0.001946,282.91257,197.51791,-0.016964,-2.165874,-1369.7699,0
0,0,0,0,0,0,0,4.81E+07,4.81E+07,4.81E+07,4.81E+07,4.81E+07,4.81E+07,63.991837,-22.605427,146.22948,0.100844,4.952337,180.01302,61.17016,2.216525,-0.061129,-8.00E-06,7.480633,226.35469,50.072342,12,40,0,0,50.00014,50,146.22948,3.50E-05,-8.05E-04,282.91257,195.00266,-0.017,-2.174141,-1381.8744,0
0,0,0,0,0,0,0,4.81E+07,4.81E+07,4.81E+07,4.81E+07,4.81E+07,4.81E+07,63.991837,-22.605427,146.22948,0.100936,4.952367,180.01302,60.650356,2.210821,-0.066196,-9.00E-06,7.48259,224.9381,48.655746,12,40,0,0,50.00014,50,146.22948,3.50E-05,-8.39E-04,282.91257,192.51125,-0.01702,-2.182203,-1393.4359,0
0,0,0,0,0,0,0,4.81E+07,4.81E+07,4.81E+07,4.81E+07,4.81E+07,4.81E+07,63.991837,-22.605427,146.22948,0.101026,4.952396,180.01303,60.12787,2.205292,-0.195585,-2.50E-05,7.48406,223.52122,47.23888,12,40,0,0,50.00014,50,146.22948,3.40E-05,-5.03E-04,282.91257,190.0447,-0.017064,-2.190066,-1404.4799,0
0,0,0,0,0,0,0,4.81E+07,4.81E+07,4.81E+07,4.81E+07,4.81E+07,4.81E+07,63.991837,-22.605427,146.22948,0.101105,4.952427,180.01303,59.60284,2.199948,-0.189805,-2.20E-05,7.551407,222.1042,45.82185,12,40,0,0,50.00014,50,146.22948,3.40E-05,-0.001543,282.91257,187.60396,-0.017084,-2.197734,-1415.0325,0
0,0,0,0,0,0,0,4.81E+07,4.81E+07,4.81E+07,4.81E+07,4.81E+07,4.81E+07,63.991837,-22.605427,146.22948,0.101179,4.95246,180.01305,59.07531,2.194794,-0.181037,-2.10E-05,7.568405,220.68707,44.40472,12,40,0,0,50.00014,50,146.22948,3.40E-05,-0.001543,282.91257,185.19,-0.017121,-2.205212,-1425.12,0
0,0,0,0,0,0,0,4.81E+07,4.81E+07,4.81E+07,4.81E+07,4.81E+07,4.81E+07,63.991837,-22.605427,146.22948,0.101253,4.952494,180.01305,58.545326,2.189829,-0.167884,-1.90E-05,7.555906,219.25623,42.973873,12,40,0,0,50.00014,50,146.22948,3.30E-05,-0.001476,282.91257,182.80379,-0.017138,-2.212506,-1435.3561,0
0,0,0,0,0,0,0,4.81E+07,4.81E+07,4.81E+07,4.81E+07,4.81E+07,4.81E+07,63.991837,-22.605427,146.22948,0.101325,4.952528,180.01306,58.01297,2.185051,-0.161147,-1.80E-05,7.562052,217.84454,41.5622,12,40,0,0,40.00014,40,146.22948,3.30E-05,-0.001442,282.91257,180.4462,-0.017172,-2.219618,-1444.3203,0
0,0,0,0,0,0,0,4.81E+07,4.81E+07,4.81E+07,4.81E+07,4.81E+07,4.81E+07,63.991837,-22.605427,146.22948,0.101398,4.95256,180.01306,57.478306,2.180464,-0.152524,-1.70E-05,7.570361,216.43059,40.148243,12,40,0,0,40.00014,40,146.22948,3.30E-05,-0.001275,282.91257,178.11813,-0.017189,-2.226555,-1453.0012,0
0,0,0,0,0,0,0,4.81E+07,4.81E+07,4.81E+07,4.81E+07,4.81E+07,4.81E+07,63.991837,-22.605427,146.22946,0.101458,4.952587,180.01306,57.03105,2.176786,-0.140429,-1.60E-05,7.628292,215.22606,38.943714,12,40,0,0,40.00014,40,146.22946,3.20E-05,-0.001476,282.91257,176.20125,-0.017205,-2.232205,-1461.0887,0
0,0,0,0,0,0,0,4.81E+07,4.81E+07,4.81E+07,4.81E+07,4.81E+07,4.81E+07,63.991837,-22.605427,146.22946,0.10153,4.952618,180.01308,56.49238,2.172549,-0.135061,-1.50E-05,7.54596,213.80663,37.52428,12,40,0,0,40.00014,40,146.22946,3.20E-05,-0.001208,282.91257,173.92955,-0.017239,-2.23883,-1469.2914,0
0,0,0,0,0,0,0,4.81E+07,4.81E+07,4.81E+07,4.81E+07,4.81E+07,4.81E+07,63.991837,-22.605427,146.22946,0.1016,4.952649,180.01308,55.951637,2.168504,-0.131221,-1.40E-05,7.556787,212.40172,36.119373,12,40,0,0,40.00014,40,146.22946,3.20E-05,-0.001141,282.91257,171.68976,-0.017256,-2.245292,-1476.5448,0
0,0,0,0,0,0,0,4.81E+07,4.81E+07,4.81E+07,4.81E+07,4.81E+07,4.81E+07,63.991837,-22.605427,146.22946,0.101661,4.952672,180.01308,55.499535,2.165288,0.019301,2.00E-06,7.529847,211.23643,34.954082,12,40,0,0,40.00014,40,146.22946,3.20E-05,-0.001577,282.91257,169.84822,-0.017284,-2.250554,-1482.1265,0
0,0,0,0,0,0,0,4.81E+07,4.81E+07,4.81E+07,4.81E+07,4.81E+07,4.81E+07,63.991837,-22.605427,146.22946,0.10174,4.952696,180.01309,54.955235,2.161604,5.92E-04,0,7.569062,209.80858,33.526234,12,40,0,0,40.00014,40,146.22946,3.10E-05,-4.03E-04,282.91257,167.66898,-0.017299,-2.256726,-1489.8116,0
0,0,0,0,0,0,0,4.81E+07,4.81E+07,4.81E+07,4.81E+07,4.81E+07,4.81E+07,63.991837,-22.605427,146.22946,0.101849,4.952724,180.01309,54.22664,2.156991,-0.010361,-1.00E-06,7.57028,207.91563,31.633284,12,40,0,0,30.000143,30,146.22946,3.10E-05,-2.68E-04,282.91257,164.81653,-0.017328,-2.264718,-1499.1256,0
0,0,0,0,0,0,0,4.81E+07,4.81E+07,4.81E+07,4.81E+07,4.81E+07,4.81E+07,63.991837,-22.605427,146.22946,0.101923,4.952744,180.0131,53.678143,2.15375,-0.157969,-1.60E-05,7.583689,206.50485,30.2225,12,40,0,0,30.000143,30,146.22946,3.10E-05,-6.71E-04,282.91257,162.71802,-0.017367,-2.270539,-1505.429,0
0,0,0,0,0,0,0,4.81E+07,4.81E+07,4.81E+07,4.81E+07,4.81E+07,4.81E+07,63.991837,-22.605427,146.22946,0.101989,4.952767,180.0131,53.128113,2.150713,-0.148747,-1.40E-05,7.576917,205.07774,28.795399,12,40,0,0,30.000143,30,146.22946,3.00E-05,-0.001073,282.91257,160.65527,-0.017382,-2.276216,-1512.1547,0
0,0,0,0,0,0,0,4.81E+07,4.81E+07,4.81E+07,4.81E+07,4.81E+07,4.81E+07,63.991837,-22.605427,146.22946,0.102051,4.952792,180.0131,52.57659,2.147877,-0.140628,-1.30E-05,7.587117,203.66829,27.385933,12,40,0,0,30.000143,30,146.22946,3.00E-05,-0.001006,282.91257,158.62898,-0.017409,-2.281753,-1517.8931,0
0,0,0,0,0,0,0,4.81E+07,4.81E+07,4.81E+07,4.81E+07,4.81E+07,4.81E+07,63.991837,-22.605427,146.22946,0.102111,4.952818,180.01312,52.023647,2.145242,-0.129924,-1.20E-05,7.597965,202.25562,25.97327,12,40,0,0,30.000143,30,146.22946,3.00E-05,-0.00104,282.91257,156.63977,-0.017423,-2.287152,-1523.5415,0
0,0,0,0,0,0,0,4.81E+07,4.81E+07,4.81E+07,4.81E+07,4.81E+07,4.81E+07,63.991837,-22.605427,146.22946,0.102172,4.952843,180.01312,51.46938,2.142807,-0.117509,-1.10E-05,7.58938,200.8274,24.54505,12,40,0,0,30.000143,30,146.22946,2.90E-05,-8.72E-04,282.91257,154.68828,-0.017449,-2.292418,-1529.604,0
0,0,0,0,0,0,0,4.81E+07,4.81E+07,4.81E+07,4.81E+07,4.81E+07,4.81E+07,63.991837,-22.605427,146.22946,0.102231,4.952868,180.01312,50.91389,2.140574,-0.109298,-1.00E-05,7.598481,199.41727,23.134914,12,40,0,0,30.000143,30,146.22946,2.90E-05,-8.72E-04,282.91257,152.77509,-0.017461,-2.297554,-1534.6995,0
0,0,0,0,0,0,0,4.81E+07,4.81E+07,4.81E+07,4.81E+07,4.81E+07,4.81E+07,63.991837,-22.605427,146.22946,0.102281,4.952888,180.01314,50.45012,2.138867,-0.100252,-9.00E-06,7.611923,198.2187,21.936356,12,40,0,0,20.000143,20,146.22946,2.90E-05,-8.72E-04,282.91257,151.21043,-0.017473,-2.301737,-1539.7465,0
0,0,0,0,0,0,0,4.81E+07,4.81E+07,4.81E+07,4.81E+07,4.81E+07,4.81E+07,63.991837,-22.605427,146.22946,0.102349,4.952915,180.01314,49.799644,2.136713,-0.090912,-8.00E-06,7.599518,196.58453,20.302189,12,40,0,0,20.000143,20,146.22946,2.80E-05,-7.72E-04,282.91257,149.06587,-0.017498,-2.307448,-1544.7845,0
0,0,0,0,0,0,0,4.81E+07,4.81E+07,4.81E+07,4.81E+07,4.81E+07,4.81E+07,63.991837,-22.605427,146.22946,0.102388,4.95293,180.01314,49.427376,2.135605,-0.085476,-8.00E-06,7.612896,195.64215,19.359808,12,40,0,0,20.000143,20,146.22946,2.80E-05,-6.71E-04,282.91257,147.86478,-0.01751,-2.310637,-1547.9128,0
0,0,0,0,0,0,0,4.81E+07,4.81E+07,4.81E+07,4.81E+07,4.81E+07,4.81E+07,63.991837,-22.605427,146.22946,0.102466,4.952959,180.01315,48.681812,2.133668,0.091082,9.00E-06,7.608627,193.74574,17.463398,12,40,0,0,20.000143,20,146.22946,2.80E-05,-9.73E-04,282.91257,145.51643,-0.017526,-2.316858,-1554.3857,0
0,0,0,0,0,0,0,4.81E+07,4.81E+07,4.81E+07,4.81E+07,4.81E+07,4.81E+07,63.991837,-22.605427,146.22946,0.102533,4.952976,180.01315,48.121765,2.132452,0.070526,7.00E-06,7.619785,192.33354,16.051193,12,40,0,0,20.000143,20,146.22946,2.80E-05,1.01E-04,282.91257,143.80284,-0.017545,-2.321389,-1558.636,0
0,0,0,0,0,0,0,4.81E+07,4.81E+07,4.81E+07,4.81E+07,4.81E+07,4.81E+07,63.991837,-22.605427,146.22946,0.102602,4.952989,180.01315,47.56109,2.131437,0.061996,6.00E-06,7.628412,190.91925,14.636893,12,40,0,0,20.000143,20,146.22946,2.70E-05,1.34E-04,282.91257,142.1306,-0.017557,-2.325808,-1562.8138,0
0,0,0,0,0,0,0,4.81E+07,4.81E+07,4.81E+07,4.81E+07,4.81E+07,4.81E+07,63.991837,-22.605427,146.22946,0.102668,4.953001,180.01317,46.99986,2.13062,-0.03715,-3.00E-06,7.634969,189.5037,13.221347,12,40,0,0,20.000143,20,146.22946,2.70E-05,-0.001744,282.91257,140.50014,-0.017585,-2.330117,-1566.8881,0
0,0,0,0,0,0,0,4.81E+07,4.81E+07,4.81E+07,4.81E+07,4.81E+07,4.81E+07,63.991837,-22.605427,146.22946,0.102723,4.953016,180.01317,46.438274,2.130005,-0.102291,-8.00E-06,7.640262,188.08742,11.80506,12,40,0,0,10.000142,10,146.22946,2.70E-05,-8.05E-04,282.91257,138.91187,-0.017599,-2.334321,-1570.8425,0
0,0,0,0,0,0,0,4.81E+07,4.81E+07,4.81E+07,4.81E+07,4.81E+07,4.81E+07,63.991837,-22.605427,146.22946,0.10274,4.953022,180.01317,46.251026,2.129846,-0.101674,-8.00E-06,7.641842,187.6152,11.332856,12,40,0,0,10.000142,10,146.22946,2.70E-05,-7.38E-04,282.91257,138.39188,-0.01761,-2.335698,-1572.1328,0
0,0,0,0,0,0,0,4.81E+07,4.81E+07,4.81E+07,4.81E+07,4.81E+07,4.81E+07,63.991837,-22.605427,146.22946,0.102815,4.953049,180.01317,45.408176,2.129419,-0.08204,-6.00E-06,7.482073,185.36836,9.086012,12,40,0,0,10.000142,10,146.22946,2.60E-05,-6.04E-04,282.91257,136.11076,-0.017632,-2.341758,-1582.3961,0
0,0,0,0,0,0,0,4.81E+07,4.81E+07,4.81E+07,4.81E+07,4.81E+07,4.81E+07,63.991837,-22.605427,146.22946,0.102871,4.953071,180.01318,44.752472,2.129407,-0.065152,-5.00E-06,7.540105,183.7771,7.494756,12,40,0,0,10.000142,10,146.22946,2.60E-05,-5.37E-04,282.91257,134.40364,-0.017653,-2.346316,-1583.9299,0
0,0,0,0,0,0,0,4.81E+07,4.81E+07,4.81E+07,4.81E+07,4.81E+07,4.81E+07,63.991837,-22.605427,146.22946,0.102919,4.953089,180.01318,44.190548,2.129622,0.06226,5.00E-06,7.593999,182.38403,6.101683,12,40,0,0,10.000142,10,146.22946,2.60E-05,0.001342,282.91257,132.98752,-0.017663,-2.350118,-1586.3469,0
0,0,0,0,0,0,0,4.81E+07,4.81E+07,4.81E+07,4.81E+07,4.81E+07,4.81E+07,63.991837,-22.605427,146.22946,0.102965,4.953101,180.01318,43.72237,2.129961,0.123739,1.00E-05,7.58012,181.22481,4.942454,12,40,0,0,10.000142,10,146.22946,2.60E-05,2.01E-04,282.91257,131.84085,-0.017669,-2.353215,-1588.2253,0
0,0,0,0,0,0,0,4.81E+07,4.81E+07,4.81E+07,4.81E+07,4.81E+07,4.81E+07,63.991837,-22.605427,146.22946,0.103034,4.953114,180.01318,43.067165,2.130668,0.112164,9.00E-06,7.637622,179.58527,3.302921,12,40,0,0,10.000142,10,146.22946,2.50E-05,4.03E-04,282.91257,130.28687,-0.017688,-2.357443,-1591.4226,0
0,0,0,0,0,0,0,4.81E+07,4.81E+07,4.81E+07,4.81E+07,4.81E+07,4.81E+07,63.991837,-22.605427,146.22946,0.103092,4.953123,180.0132,42.50594,2.131494,0.108897,9.00E-06,7.665802,178.16766,1.885306,12,40,0,0,1.42E-04,0,146.22946,2.50E-05,3.35E-04,282.91257,129.0028,-0.017708,-2.36097,-1594.544,0
0,0,0,0,0,0,0,4.81E+07,4.81E+07,4.81E+07,4.81E+07,4.81E+07,4.81E+07,63.991837,-22.605427,146.22946,0.103144,4.953133,180.0132,41.945087,2.132515,-0.086032,-6.00E-06,7.671201,176.75012,0.467779,12,40,0,0,1.42E-04,0,146.22946,2.50E-05,-6.70E-05,282.91257,127.76319,-0.017722,-2.36441,-1597.5508,0
0,0,0,0,0,0,0,4.81E+07,4.81E+07,4.81E+07,4.81E+07,4.81E+07,4.81E+07,63.991837,-22.605427,146.22946,0.103186,4.953146,180.0132,41.384926,2.133745,-0.064824,-4.00E-06,7.674832,175.37717,-0.90519,12,40,0,0,1.42E-04,0,146.22946,2.50E-05,-4.36E-04,282.91257,126.5682,-0.017743,-2.367764,-1600.4491,0
0,0,0,0,0,0,0,4.81E+07,4.81E+07,4.81E+07,4.81E+07,4.81E+07,4.81E+07,63.991837,-22.605427,146.22946,0.103226,4.95316,180.0132,40.825485,2.135182,-0.043021,-3.00E-06,7.678385,174.02614,-2.256209,12,40,0,0,1.42E-04,0,146.22946,2.40E-05,-4.36E-04,282.91257,125.417984,-0.017752,-2.371036,-1603.2437,0
0,0,0,0,0,0,0,4.81E+07,4.81E+07,4.81E+07,4.81E+07,4.81E+07,4.81E+07,63.991837,-22.605427,146.22946,0.103259,4.953173,180.01321,40.35989,2.136535,-0.02983,-2.00E-06,7.733193,172.87631,-3.40604,12,40,0,0,1.42E-04,0,146.22946,2.40E-05,-2.68E-04,282.91257,124.493774,-0.01776,-2.373701,-1606.4873,0
0,0,0,0,0,0,0,4.81E+07,4.81E+07,4.81E+07,4.81E+07,4.81E+07,4.81E+07,63.991837,-22.605427,146.22946,0.103299,4.953189,180.01321,39.801994,2.138346,-0.004289,0,7.753589,171.47462,-4.80772,12,40,0,0,1.42E-04,0,146.22946,2.40E-05,-2.68E-04,282.91257,123.425964,-0.017777,-2.376825,-1611.1465,0
0,0,0,0,0,0,0,4.81E+07,4.81E+07,4.81E+07,4.81E+07,4.81E+07,4.81E+07,63.991837,-22.605427,146.22946,0.103338,4.953204,180.01321,39.245075,2.140359,0.0151,1.00E-06,7.711638,170.09357,-6.188784,12,40,0,0,1.42E-04,0,146.22946,2.40E-05,-2.68E-04,282.91257,122.40322,-0.017786,-2.379873,-1614.7948,0
0,0,0,0,0,0,0,4.81E+07,4.81E+07,4.81E+07,4.81E+07,4.81E+07,4.81E+07,63.991837,-22.605427,146.22946,0.103352,4.953209,180.01321,39.059666,2.141074,0.021343,1.00E-06,7.621657,169.65996,-6.622386,12,40,0,0,1.42E-04,0,146.22946,2.30E-05,-2.01E-04,282.91257,122.072334,-0.017795,-2.380872,-1614.8754,0
0,0,0,0,0,0,0,4.81E+07,4.81E+07,4.81E+07,4.81E+07,4.81E+07,4.81E+07,63.991837,-22.605427,146.22946,0.103412,4.95323,180.01321,38.226948,2.144573,0.046003,3.00E-06,7.461866,167.49347,-8.788876,12,40,0,0,-9.999858,-10,146.22946,2.30E-05,0,282.91257,120.645454,-0.017811,-2.385265,-1623.7445,0
0,0,0,0,0,0,0,4.81E+07,4.81E+07,4.81E+07,4.81E+07,4.81E+07,4.81E+07,63.991837,-22.605427,146.22946,0.103451,4.953243,180.01323,37.673355,2.147156,0.064404,4.00E-06,7.457099,166.18442,-10.097928,12,40,0,0,-9.999858,-10,146.22946,2.30E-05,0,282.91257,119.75068,-0.017826,-2.388104,-1623.9908,0
0,0,0,0,0,0,0,4.81E+07,4.81E+07,4.81E+07,4.81E+07,4.81E+07,4.81E+07,63.991837,-22.605427,146.22946,0.103503,4.953259,180.01323,36.937397,2.150912,0.08593,5.00E-06,7.444275,164.34026,-11.942097,12,40,0,0,-9.999858,-10,146.22946,2.30E-05,6.70E-05,282.91257,118.627914,-0.017841,-2.39178,-1628.2205,0
0,0,0,0,0,0,0,4.81E+07,4.81E+07,4.81E+07,4.81E+07,4.81E+07,4.81E+07,63.991837,-22.605427,146.22946,0.103535,4.953268,180.01323,36.478745,2.153439,0.090621,5.00E-06,7.413296,163.30414,-12.978213,12,40,0,0,-9.999858,-10,146.22946,2.20E-05,2.01E-04,282.91257,117.96695,-0.017848,-2.394016,-1626.0945,0
0,0,0,0,0,0,0,4.81E+07,4.81E+07,4.81E+07,4.81E+07,4.81E+07,4.81E+07,63.991837,-22.605427,146.22946,0.103578,4.95328,180.01323,35.838505,2.157207,0.110075,6.00E-06,7.531198,161.80042,-14.481935,12,40,0,0,-9.999858,-10,146.22946,2.20E-05,2.35E-04,282.91257,117.0942,-0.017863,-2.397069,-1625.3679,0
0,0,0,0,0,0,0,4.81E+07,4.81E+07,4.81E+07,4.81E+07,4.81E+07,4.81E+07,63.991837,-22.605427,146.22946,0.103609,4.953288,180.01323,35.3826,2.160064,0.126237,7.00E-06,7.680895,160.67412,-15.608237,12,40,0,0,-9.999858,-10,146.22946,2.20E-05,3.69E-04,282.91257,116.508316,-0.01787,-2.399195,-1626.9958,0
0,0,0,0,0,0,0,4.81E+07,4.81E+07,4.81E+07,4.81E+07,4.81E+07,4.81E+07,63.991837,-22.605427,146.22946,0.103651,4.953299,180.01324,34.74639,2.164292,0.152442,8.00E-06,7.658647,159.1349,-17.147446,12,40,0,0,-9.999858,-10,146.22946,2.20E-05,2.68E-04,282.91257,115.74048,-0.017884,-2.402099,-1627.6775,0
0,0,0,0,0,0,0,4.81E+07,4.81E+07,4.81E+07,4.81E+07,4.81E+07,4.81E+07,63.991837,-22.605427,146.22946,0.103687,4.953307,180.01324,34.203094,2.168128,0.170729,9.00E-06,7.690253,157.79616,-18.486187,12,40,0,0,-19.999857,-20,146.22946,2.20E-05,2.35E-04,282.91257,115.13086,-0.017891,-2.404521,-1629.0234,0
0,0,0,0,0,0,0,4.81E+07,4.81E+07,4.81E+07,4.81E+07,4.81E+07,4.81E+07,63.991837,-22.605427,146.22946,0.103711,4.953312,180.01324,33.841976,2.170793,0.181749,9.00E-06,7.702837,156.90074,-19.381605,12,40,0,0,-19.999857,-20,146.22946,2.10E-05,2.68E-04,282.91257,114.74925,-0.017897,-2.406102,-1630.0139,0
0,0,0,0,0,0,0,4.81E+07,4.81E+07,4.81E+07,4.81E+07,4.81E+07,4.81E+07,63.991837,-22.605427,146.22946,0.103757,4.953322,180.01324,33.12245,2.176381,0.197821,1.00E-05,7.692929,155.09773,-21.184622,12,40,0,0,-19.999857,-20,146.22946,2.10E-05,4.70E-04,282.91257,114.04537,-0.017911,-2.409187,-1632.3958,0
0,0,0,0,0,0,0,4.81E+07,4.81E+07,4.81E+07,4.81E+07,4.81E+07,4.81E+07,63.991837,-22.605427,146.22946,0.103792,4.953329,180.01324,32.585278,2.180797,0.205767,1.00E-05,7.673261,153.743,-22.539347,12,40,0,0,-19.999857,-20,146.22946,2.10E-05,5.37E-04,282.91257,113.56917,-0.017923,-2.411434,-1634.2076,0
0,0,0,0,0,0,0,4.81E+07,4.81E+07,4.81E+07,4.81E+07,4.81E+07,4.81E+07,63.991837,-22.605427,146.22946,0.103826,4.953335,180.01326,32.050316,2.185403,0.235075,1.20E-05,7.717265,152.39928,-23.883068,12,40,0,0,-19.999857,-20,146.22946,2.10E-05,4.03E-04,282.91257,113.137054,-0.01793,-2.413625,-1635.5314,0
0,0,0,0,0,0,0,4.81E+07,4.81E+07,4.81E+07,4.81E+07,4.81E+07,4.81E+07,63.991837,-22.605427,146.22946,0.103854,4.95334,180.01326,31.60625,2.189387,0.242134,1.20E-05,7.719207,151.28471,-24.99763,12,40,0,0,-19.999857,-20,146.22946,2.00E-05,6.04E-04,282.91257,112.81048,-0.017936,-2.41541,-1636.3899,0
0,0,0,0,0,0,0,4.81E+07,4.81E+07,4.81E+07,4.81E+07,4.81E+07,4.81E+07,63.991837,-22.605427,146.22946,0.103893,4.953346,180.01326,30.98732,2.195184,0.266975,1.30E-05,7.747373,149.71455,-26.5678,12,40,0,0,-19.999857,-20,146.22946,2.00E-05,6.04E-04,282.91257,112.404175,-0.017948,-2.417846,-1637.946,0
0,0,0,0,0,0,0,4.81E+07,4.81E+07,4.81E+07,4.81E+07,4.81E+07,4.81E+07,63.991837,-22.605427,146.22946,0.103925,4.953351,180.01326,30.459442,2.200356,0.286586,1.40E-05,7.757219,148.36078,-27.921566,12,40,0,0,-29.999857,-30,146.22946,2.00E-05,5.37E-04,282.91257,112.10291,-0.01796,-2.419879,-1639.5459,0
0,0,0,0,0,0,0,4.81E+07,4.81E+07,4.81E+07,4.81E+07,4.81E+07,4.81E+07,63.991837,-22.605427,146.22946,0.103963,4.953353,180.01326,29.93423,2.205722,0.416968,2.70E-05,7.759217,147.00812,-29.274231,12,40,0,0,-29.999857,-30,146.22946,2.00E-05,0.001677,282.91257,111.84473,-0.017963,-2.421861,-1641.0465,0
0,0,0,0,0,0,0,4.81E+07,4.81E+07,4.81E+07,4.81E+07,4.81E+07,4.81E+07,63.991837,-22.605427,146.22946,0.104007,4.953352,180.01328,29.411451,2.211267,0.403495,2.70E-05,7.761613,145.65611,-30.626244,12,40,0,0,-29.999857,-30,146.22946,2.00E-05,0.001375,282.91257,111.62932,-0.017973,-2.423794,-1642.4695,0
0,0,0,0,0,0,0,4.81E+07,4.81E+07,4.81E+07,4.81E+07,4.81E+07,4.81E+07,63.991837,-22.605427,146.22946,0.104051,4.953348,180.01328,28.89129,2.216993,0.401054,2.60E-05,7.764667,144.30447,-31.97787,12,40,0,0,-29.999857,-30,146.22946,1.90E-05,0.001275,282.91257,111.45637,-0.017979,-2.42568,-1643.8281,0
0,0,0,0,0,0,0,4.81E+07,4.81E+07,4.81E+07,4.81E+07,4.81E+07,4.81E+07,63.991837,-22.605427,146.22946,0.104065,4.953347,180.01328,28.718502,2.218942,0.402018,2.50E-05,7.765791,143.85399,-32.428356,12,40,0,0,-29.999857,-30,146.22946,1.90E-05,0.001342,282.91257,111.4081,-0.017986,-2.426298,-1644.2683,0
0,0,0,0,0,0,0,4.81E+07,4.81E+07,4.81E+07,4.81E+07,4.81E+07,4.81E+07,63.991837,-22.605427,146.22946,0.10412,4.953346,180.01328,27.858997,2.228978,0.306886,1.20E-05,7.631744,141.48741,-34.794937,12,40,0,0,-29.999857,-30,146.22946,1.90E-05,4.36E-04,282.91257,111.23649,-0.018003,-2.429312,-1650.752,0
0,0,0,0,0,0,0,4.81E+07,4.81E+07,4.81E+07,4.81E+07,4.81E+07,4.81E+07,63.991837,-22.605427,146.22946,0.104141,4.953348,180.01328,27.432276,2.234187,0.331102,1.20E-05,7.638485,140.40932,-35.873035,12,40,0,0,-29.999857,-30,146.22946,1.90E-05,7.38E-04,282.91257,111.19392,-0.018009,-2.430772,-1649.7185,0
0,0,0,0,0,0,0,4.81E+07,4.81E+07,4.81E+07,4.81E+07,4.81E+07,4.81E+07,63.991837,-22.605427,146.22946,0.10417,4.953352,180.01328,26.838257,2.241687,0.349887,1.30E-05,7.674556,138.87228,-37.41007,12,40,0,0,-29.999857,-30,146.22946,1.90E-05,8.72E-04,282.91257,111.18219,-0.01802,-2.432766,-1649.4169,0
0,0,0,0,0,0,0,4.81E+07,4.81E+07,4.81E+07,4.81E+07,4.81E+07,4.81E+07,63.991837,-22.605427,146.22946,0.104195,4.953357,180.01329,26.332296,2.248308,0.39114,1.50E-05,7.733992,137.5192,-38.76315,12,40,0,0,-39.99986,-40,146.22946,1.90E-05,6.71E-04,282.91257,111.21614,-0.01803,-2.43443,-1650.5895,0
0,0,0,0,0,0,0,4.81E+07,4.81E+07,4.81E+07,4.81E+07,4.81E+07,4.81E+07,63.991837,-22.605427,146.22946,0.104211,4.95336,180.01329,25.99665,2.252819,0.405869,1.50E-05,7.733834,136.61401,-39.668343,12,40,0,0,-39.99986,-40,146.22946,1.80E-05,6.04E-04,282.91257,111.26113,-0.018036,-2.435516,-1651.4695,0
0,0,0,0,0,0,0,4.81E+07,4.81E+07,4.81E+07,4.81E+07,4.81E+07,4.81E+07,63.991837,-22.605427,146.22946,0.104236,4.953363,180.01329,25.49571,2.25973,0.418753,1.60E-05,7.710379,135.26706,-41.015285,12,40,0,0,-39.99986,-40,146.22946,1.80E-05,9.06E-04,282.91257,111.36182,-0.018041,-2.437111,-1652.3153,0
0,0,0,0,0,0,0,4.81E+07,4.81E+07,4.81E+07,4.81E+07,4.81E+07,4.81E+07,63.991837,-22.605427,146.22946,0.10427,4.953368,180.01329,24.832596,2.269211,0.471088,1.80E-05,7.753851,133.47118,-42.81118,12,40,0,0,-39.99986,-40,146.22946,1.80E-05,8.39E-04,282.91257,111.55734,-0.01805,-2.439177,-1653.4043,0
0,0,0,0,0,0,0,4.81E+07,4.81E+07,4.81E+07,4.81E+07,4.81E+07,4.81E+07,63.991837,-22.605427,146.22946,0.104287,4.95337,180.01329,24.503124,2.274065,0.473534,1.80E-05,7.752853,132.56444,-43.71792,12,40,0,0,-39.99986,-40,146.22946,1.80E-05,8.39E-04,282.91257,111.68106,-0.018054,-2.440185,-1654.2812,0
0,0,0,0,0,0,0,4.81E+07,4.81E+07,4.81E+07,4.81E+07,4.81E+07,4.81E+07,63.991837,-22.605427,146.22946,0.10432,4.953372,180.01329,23.848425,2.283998,0.497229,1.90E-05,7.747079,130.75574,-45.52662,12,40,0,0,-39.99986,-40,146.22946,1.80E-05,9.39E-04,282.91257,111.97969,-0.018063,-2.44215,-1655.7852,0
0,0,0,0,0,0,0,4.81E+07,4.81E+07,4.81E+07,4.81E+07,4.81E+07,4.81E+07,63.991837,-22.605427,146.22948,0.104345,4.953374,180.01329,23.36116,2.291641,0.533246,2.10E-05,7.770409,129.41972,-46.862633,12,40,0,0,-39.99986,-40,146.22948,1.70E-05,9.06E-04,282.91257,112.24789,-0.018072,-2.443581,-1656.0656,0
0,0,0,0,0,0,0,4.81E+07,4.81E+07,4.81E+07,4.81E+07,4.81E+07,4.81E+07,63.991837,-22.605427,146.22948,0.10437,4.953375,180.01329,22.877161,2.29945,0.553598,2.20E-05,7.790211,128.07756,-48.20479,12,40,0,0,-49.99986,-50,146.22948,1.70E-05,0.001006,282.91257,112.55342,-0.018076,-2.444977,-1656.5802,0
0,0,0,0,0,0,0,4.81E+07,4.81E+07,4.81E+07,4.81E+07,4.81E+07,4.81E+07,63.991837,-22.605427,146.22948,0.104386,4.953375,180.0133,22.556326,2.304746,0.566117,2.20E-05,7.799968,127.180664,-49.10169,12,40,0,0,-49.99986,-50,146.22948,1.70E-05,0.001006,282.91257,112.77759,-0.018081,-2.445888,-1656.9985,0
0,0,0,0,0,0,0,4.81E+07,4.81E+07,4.81E+07,4.81E+07,4.81E+07,4.81E+07,63.991837,-22.605427,146.22948,0.104419,4.953375,180.0133,21.919096,2.315554,0.586621,2.30E-05,7.798936,125.3746,-50.90774,12,40,0,0,-49.99986,-50,146.22948,1.70E-05,0.001174,282.91257,113.27438,-0.018089,-2.447666,-1658.275,0
0,0,0,0,0,0,0,4.81E+07,4.81E+07,4.81E+07,4.81E+07,4.81E+07,4.81E+07,63.991837,-22.605427,146.22948,0.10444,4.953374,180.0133,21.52386,2.322454,0.590443,2.30E-05,7.814819,124.233376,-52.048973,12,40,0,0,-49.99986,-50,146.22948,1.70E-05,0.001342,282.91257,113.61721,-0.018093,-2.448747,-1659.54,0
0,0,0,0,0,0,0,4.81E+07,4.81E+07,4.81E+07,4.81E+07,4.81E+07,4.81E+07,63.991837,-22.605427,146.22948,0.104464,4.953373,180.0133,21.052687,2.330878,0.619195,2.40E-05,7.80276,122.89409,-53.388264,12,40,0,0,-49.99986,-50,146.22948,1.70E-05,0.001174,282.91257,114.060905,-0.018102,-2.450015,-1659.8223,0
0,0,0,0,0,0,0,4.81E+07,4.81E+07,4.81E+07,4.81E+07,4.81E+07,4.81E+07,63.991837,-22.605427,146.22948,0.104494,4.95337,180.0133,20.585104,2.339466,0.645795,3.80E-05,7.816699,121.54998,-54.732372,12,40,0,0,-49.99986,-50,146.22948,1.60E-05,0.002281,282.91257,114.539276,-0.018102,-2.451252,-1660.2854,0
0,0,0,0,0,0,0,4.81E+07,4.81E+07,4.81E+07,4.81E+07,4.81E+07,4.81E+07,63.991837,-22.605427,146.22948,0.104524,4.953364,180.0133,20.197947,2.346737,0.598816,3.60E-05,7.788214,120.43662,-55.845726,12,40,0,0,-49.99986,-50,146.22948,1.60E-05,0.002281,282.91257,114.964,-0.018109,-2.452259,-1660.3865,0
0,0,0,0,0,0,0,4.81E+07,4.81E+07,4.81E+07,4.81E+07,4.81E+07,4.81E+07,63.991837,-22.605427,146.22948,0.104567,4.953353,180.0133,19.659958,2.357094,0.582952,3.50E-05,7.866185,118.78867,-57.493675,12,40,0,0,-49.99986,-50,146.22948,1.60E-05,0.002348,282.91257,115.59774,-0.018114,-2.453634,-1664.031,0
0,0,0,0,0,0,0,4.81E+07,4.81E+07,4.81E+07,4.81E+07,4.81E+07,4.81E+07,63.991837,-22.605427,146.22948,0.10461,4.953343,180.01332,19.126734,2.367655,0.57925,3.60E-05,7.790238,117.25029,-59.032063,12,40,0,0,-59.99986,-60,146.22948,1.60E-05,0.002013,282.91257,116.27627,-0.018122,-2.45497,-1663.2323,0
0,0,0,0,0,0,0,4.81E+07,4.81E+07,4.81E+07,4.81E+07,4.81E+07,4.81E+07,63.991837,-22.605427,146.22948,0.104648,4.953335,180.01332,18.67349,2.376869,0.566265,3.50E-05,7.819883,115.91189,-60.37046,12,40,0,0,-59.99986,-60,146.22948,1.60E-05,0.001778,282.91257,116.89277,-0.018129,-2.456084,-1663.3518,0
0,0,0,0,0,0,0,4.81E+07,4.81E+07,4.81E+07,4.81E+07,4.81E+07,4.81E+07,63.991837,-22.605427,146.22949,0.104687,4.95333,180.01332,18.22377,2.386231,0.552196,3.50E-05,7.838149,114.568306,-61.714043,12,40,0,0,-59.99986,-60,146.22949,1.60E-05,0.001711,282.91257,117.54082,-0.018133,-2.45717,-1663.672,0
0,0,0,0,0,0,0,4.81E+07,4.81E+07,4.81E+07,4.81E+07,4.81E+07,4.81E+07,63.991837,-22.605427,146.22949,0.104716,4.953328,180.01332,17.851522,2.394138,0.407274,1.80E-05,7.810592,113.455215,-62.827133,12,40,0,0,-59.99986,-60,146.22949,1.50E-05,0.001778,282.91257,118.104515,-0.018141,-2.458055,-1663.6649,0
0,0,0,0,0,0,0,4.81E+07,4.81E+07,4.81E+07,4.81E+07,4.81E+07,4.81E+07,63.991837,-22.605427,146.22949,0.104741,4.95333,180.01332,17.481878,2.402149,0.462655,2.10E-05,7.822569,112.337585,-63.944767,12,40,0,0,-59.99986,-60,146.22949,1.50E-05,0.001308,282.91257,118.6893,-0.018152,-2.458922,-1663.8378,0
0,0,0,0,0,0,0,4.81E+07,4.81E+07,4.81E+07,4.81E+07,4.81E+07,4.81E+07,63.991837,-22.605427,146.22949,0.104781,4.953339,180.01334,16.89566,2.415177,0.490488,2.40E-05,7.838474,110.488266,-65.79408,12,40,0,0,-59.99986,-60,146.22949,1.50E-05,0.001073,282.91257,119.66791,-0.018158,-2.460271,-1666.4716,0
0,0,0,0,0,0,0,4.81E+07,4.81E+07,4.81E+07,4.81E+07,4.81E+07,4.81E+07,63.991837,-22.605427,146.22949,0.104813,4.953348,180.01334,16.460146,2.425113,0.489507,2.60E-05,7.839088,109.1524,-67.12995,12,40,0,0,-59.99986,-60,146.22949,1.50E-05,0.001073,282.91257,120.43572,-0.018162,-2.461254,-1666.3789,0
0,0,0,0,0,0,0,4.81E+07,4.81E+07,4.81E+07,4.81E+07,4.81E+07,4.81E+07,63.991837,-22.605427,146.22949,0.104841,4.953355,180.01334,16.09994,2.433501,0.47443,2.60E-05,7.84441,108.04184,-68.24051,12,40,0,0,-69.999855,-70,146.22949,1.50E-05,0.001476,282.91257,121.09721,-0.018165,-2.462054,-1666.1976,0
0,0,0,0,0,0,0,4.81E+07,4.81E+07,4.81E+07,4.81E+07,4.81E+07,4.81E+07,63.991837,-22.605427,146.22949,0.104883,4.953366,180.01334,15.599824,2.445404,0.483359,2.80E-05,7.878481,106.47496,-69.80739,12,40,0,0,-69.999855,-70,146.22949,1.50E-05,0.001409,282.91257,122.05554,-0.018172,-2.463148,-1666.4309,0
0,0,0,0,0,0,0,4.81E+07,4.81E+07,4.81E+07,4.81E+07,4.81E+07,4.81E+07,63.991837,-22.605427,146.22949,0.104921,4.953376,180.01334,15.175023,2.455754,0.488781,3.00E-05,7.89181,105.12274,-71.159615,12,40,0,0,-69.999855,-70,146.22949,1.50E-05,0.001275,282.91257,122.90618,-0.018178,-2.464059,-1666.9833,0
0,0,0,0,0,0,0,4.81E+07,4.81E+07,4.81E+07,4.81E+07,4.81E+07,4.81E+07,63.991837,-22.605427,146.22949,0.104961,4.953384,180.01335,14.753798,2.466238,0.491448,3.10E-05,7.896236,103.770935,-72.51141,12,40,0,0,-69.999855,-70,146.22949,1.40E-05,0.001375,282.91257,123.78305,-0.018181,-2.464949,-1667.4995,0
0,0,0,0,0,0,0,4.81E+07,4.81E+07,4.81E+07,4.81E+07,4.81E+07,4.81E+07,63.991837,-22.605427,146.22949,0.105002,4.953393,180.01335,14.336148,2.476854,0.494498,3.20E-05,7.900339,102.41939,-73.86297,12,40,0,0,-69.999855,-70,146.22949,1.40E-05,0.001476,282.91257,124.68545,-0.018189,-2.465816,-1667.9875,0
0,0,0,0,0,0,0,4.81E+07,4.81E+07,4.81E+07,4.81E+07,4.81E+07,4.81E+07,63.991837,-22.605427,146.22949,0.105044,4.9534,180.01335,13.922075,2.487601,0.498026,3.30E-05,7.904662,101.06798,-75.21437,12,40,0,0,-69.999855,-70,146.22949,1.40E-05,0.001476,282.91257,125.61268,-0.018192,-2.466661,-1668.4524,0
0,0,0,0,0,0,0,4.81E+07,4.81E+07,4.81E+07,4.81E+07,4.81E+07,4.81E+07,63.991837,-22.605427,146.22949,0.10508,4.953405,180.01335,13.579745,2.496656,0.489157,3.30E-05,7.913046,99.921715,-76.36064,12,40,0,0,-69.999855,-70,146.22949,1.40E-05,0.001946,282.91257,126.403824,-0.018195,-2.46735,-1669.6144,0
0,0,0,0,0,0,0,4.81E+07,4.81E+07,4.81E+07,4.81E+07,4.81E+07,4.81E+07,63.991837,-22.605427,146.2295,0.105124,4.953411,180.01335,13.172218,2.507638,0.503661,3.50E-05,7.895076,98.578636,-77.70371,12,40,0,0,-79.999855,-80,146.2295,1.40E-05,0.001577,282.91257,127.37473,-0.018205,-2.468158,-1669.6942,0
0,0,0,0,0,0,0,4.81E+07,4.81E+07,4.81E+07,4.81E+07,4.81E+07,4.81E+07,63.991837,-22.605427,146.2295,0.105161,4.953414,180.01337,12.835337,2.516887,0.482242,3.40E-05,7.95409,97.432816,-78.84953,12,40,0,0,-79.999855,-80,146.2295,1.40E-05,0.002281,282.91257,128.20128,-0.01821,-2.468816,-1670.8135,0
0,0,0,0,0,0,0,4.81E+07,4.81E+07,4.81E+07,4.81E+07,4.81E+07,4.81E+07,63.991837,-22.605427,146.2295,0.105215,4.953419,180.01337,12.367856,2.52998,0.507963,3.70E-05,7.884313,95.85392,-80.42844,12,40,0,0,-79.999855,-80,146.2295,1.40E-05,0.001778,282.91257,129.38425,-0.018218,-2.469714,-1671.3143,0
0,0,0,0,0,0,0,4.81E+07,4.81E+07,4.81E+07,4.81E+07,4.81E+07,4.81E+07,63.991837,-22.605427,146.2295,0.105275,4.95342,180.01337,11.905382,2.543245,0.54229,4.90E-05,7.886092,94.30064,-81.98171,12,40,0,0,-79.999855,-80,146.2295,1.30E-05,0.003287,282.91257,130.5963,-0.018221,-2.470587,-1670.7999,0
0,0,0,0,0,0,0,4.81E+07,4.81E+07,4.81E+07,4.81E+07,4.81E+07,4.81E+07,63.991837,-22.605427,146.2295,0.105314,4.953418,180.01337,11.643199,2.550898,0.536044,5.00E-05,7.913131,93.403076,-82.87927,12,40,0,0,-79.999855,-80,146.2295,1.30E-05,0.002617,282.91257,131.3015,-0.018225,-2.471074,-1670.9102,0
0,0,0,0,0,0,0,4.81E+07,4.81E+07,4.81E+07,4.81E+07,4.81E+07,4.81E+07,63.991837,-22.605427,146.2295,0.105395,4.953411,180.01338,11.123477,2.56636,0.524434,4.90E-05,7.890945,91.56268,-84.719666,12,40,0,0,-79.999855,-80,146.2295,1.30E-05,0.002482,282.91257,132.7384,-0.018235,-2.472024,-1672.8538,0
0,0,0,0,0,0,0,4.81E+07,4.81E+07,4.81E+07,4.81E+07,4.81E+07,4.81E+07,63.991837,-22.605427,146.2295,0.105445,4.953404,180.01338,10.801804,2.576129,0.503059,4.60E-05,7.854583,90.462074,-85.820274,12,40,0,0,-79.999855,-80,146.2295,1.30E-05,0.003019,282.91257,133.65376,-0.01824,-2.472602,-1672.0844,0
0,0,0,0,0,0,0,4.81E+07,4.81E+07,4.81E+07,4.81E+07,4.81E+07,4.81E+07,63.991837,-22.605427,146.2295,0.105492,4.953398,180.01338,10.482441,2.585975,0.408737,3.10E-05,7.877328,89.3525,-86.92985,12,40,0,0,-79.999855,-80,146.2295,1.30E-05,0.003287,282.91257,134.58192,-0.018253,-2.473168,-1671.6896,0
0,0,0,0,0,0,0,4.81E+07,4.81E+07,4.81E+07,4.81E+07,4.81E+07,4.81E+07,63.991837,-22.605427,146.22952,0.105555,4.953393,180.0134,9.976663,2.601897,0.5062,3.50E-05,7.919943,87.54525,-88.73711,12,40,0,0,-89.999855,-90,146.22952,1.30E-05,0.00208,282.91257,136.09253,-0.018267,-2.47405,-1672.3175,0
0,0,0,0,0,0,0,4.81E+07,4.81E+07,4.81E+07,4.81E+07,4.81E+07,4.81E+07,63.991837,-22.605427,146.22952,0.105599,4.953392,180.0134,9.601453,2.613971,0.534797,3.70E-05,7.945167,86.19823,-90.08412,12,40,0,0,-89.999855,-90,146.22952,1.30E-05,0.001711,282.91257,137.24521,-0.018276,-2.474692,-1672.4519,0
0,0,0,0,0,0,0,4.81E+07,4.81E+07,4.81E+07,4.81E+07,4.81E+07,4.81E+07,63.991837,-22.605427,146.22952,0.105629,4.953392,180.0134,9.353244,2.622084,0.540724,3.80E-05,7.952577,85.29921,-90.98314,12,40,0,0,-89.999855,-90,146.22952,1.30E-05,0.001778,282.91257,138.02264,-0.018281,-2.475111,-1672.5779,0
0,0,0,0,0,0,0,4.81E+07,4.81E+07,4.81E+07,4.81E+07,4.81E+07,4.81E+07,63.991837,-22.605427,146.22952,0.10569,4.95339,180.0134,8.885158,2.631469,0.494108,3.60E-05,7.922289,83.457054,-92.8253,12,40,0,0,-89.999855,-90,146.22952,1.20E-05,0.001879,282.91257,139.59808,-0.01829,-2.475928,-1674.5054,0
0,0,0,0,0,0,0,4.81E+07,4.81E+07,4.81E+07,4.81E+07,4.81E+07,4.81E+07,63.991837,-22.605427,146.22952,0.10574,4.953388,180.01341,8.567105,2.629255,0.507239,4.50E-05,7.914994,82.07325,-94.2091,12,40,0,0,-89.999855,-90,146.22952,1.20E-05,0.001342,282.91257,140.7968,-0.018287,-2.476524,-1675.9844,0
0,0,0,0,0,0,0,4.81E+07,4.81E+07,4.81E+07,4.81E+07,4.81E+07,4.81E+07,63.991837,-22.605427,146.22952,0.105779,4.953384,180.01341,8.354733,2.627824,0.425506,4.00E-05,7.885695,81.195175,-95.08717,12,40,0,0,-89.999855,-90,146.22952,1.20E-05,0.002113,282.91257,141.60368,-0.018289,-2.476913,-1675.2006,0
0,0,0,0,0,0,0,4.81E+07,4.81E+07,4.81E+07,4.81E+07,4.81E+07,4.81E+07,63.991837,-22.605427,146.22952,0.105864,4.953373,180.01341,7.9291,2.625065,0.273972,2.30E-05,7.81385,79.34738,-96.93497,12,40,0,0,-89.999855,-90,146.22952,1.20E-05,-3.40E-05,282.91257,143.23505,-0.018297,-2.477671,-1677.1903,0
0,0,0,0,0,0,0,4.81E+07,4.81E+07,4.81E+07,4.81E+07,4.81E+07,4.81E+07,63.991837,-22.605427,146.22952,0.105919,4.953367,180.01343,7.609228,2.623087,0.18589,1.40E-05,7.862773,78.03712,-98.24523,12,40,0,0,-99.999855,-100,146.22952,1.20E-05,7.04E-04,282.91257,144.47311,-0.018312,-2.478224,-1675.7104,0
0,0,0,0,0,0,0,4.81E+07,4.81E+07,4.81E+07,4.81E+07,4.81E+07,4.81E+07,63.991837,-22.605427,146.22952,0.105971,4.953364,180.01343,7.28897,2.621193,0.148524,1.10E-05,7.9042,76.71018,-99.572174,12,40,0,0,-99.999855,-100,146.22952,1.20E-05,6.04E-04,282.91257,145.72281,-0.018317,-2.478762,-1674.9326,0
0,0,0,0,0,0,0,4.81E+07,4.81E+07,4.81E+07,4.81E+07,4.81E+07,4.81E+07,63.991837,-22.605427,146.22952,0.106013,4.953362,180.01343,7.021747,2.619678,0.129789,9.00E-06,7.88851,75.60562,-100.676735,12,40,0,0,-99.999855,-100,146.22952,1.20E-05,4.03E-04,282.91257,146.77258,-0.018322,-2.479201,-1674.25,0
0,0,0,0,0,0,0,4.81E+07,4.81E+07,4.81E+07,4.81E+07,4.81E+07,4.81E+07,63.991837,-22.605427,146.22952,0.106082,4.953358,180.01343,6.64734,2.617659,0.223373,2.10E-05,7.912991,74.044495,-102.237854,12,40,0,0,-99.999855,-100,146.22952,1.20E-05,8.72E-04,282.91257,148.25417,-0.018324,-2.4798,-1673.9025,0
0,0,0,0,0,0,0,4.81E+07,4.81E+07,4.81E+07,4.81E+07,4.81E+07,4.81E+07,63.991837,-22.605427,146.22954,0.106148,4.953351,180.01344,6.325819,2.616015,0.176927,1.70E-05,7.963956,72.69267,-103.58968,12,40,0,0,-99.999855,-100,146.22954,1.10E-05,9.39E-04,282.91257,149.53435,-0.018335,-2.4803,-1674.1592,0
0,0,0,0,0,0,0,4.81E+07,4.81E+07,4.81E+07,4.81E+07,4.81E+07,4.81E+07,63.991837,-22.605427,146.22954,0.106215,4.953343,180.01344,6.003851,2.614452,0.148223,1.40E-05,7.967751,71.341064,-104.941284,12,40,0,0,-99.999855,-100,146.22954,1.10E-05,8.05E-04,282.91257,150.82323,-0.01834,-2.480788,-1674.3972,0
0,0,0,0,0,0,0,4.81E+07,4.81E+07,4.81E+07,4.81E+07,4.81E+07,4.81E+07,63.991837,-22.605427,146.22954,0.106281,4.953334,180.01344,5.681489,2.612972,0.126995,1.20E-05,7.952087,69.97657,-106.30578,12,40,0,0,-99.999855,-100,146.22954,1.10E-05,6.37E-04,282.91257,152.12009,-0.018354,-2.481263,-1675.1277,0
0,0,0,0,0,0,0,4.81E+07,4.81E+07,4.81E+07,4.81E+07,4.81E+07,4.81E+07,63.991837,-22.605427,146.22954,0.106347,4.953325,180.01346,5.358768,2.611573,0.105796,1.00E-05,7.95478,68.63047,-107.65188,12,40,0,0,-109.999855,-110,146.22954,1.10E-05,4.70E-04,282.91257,153.42418,-0.01836,-2.481726,-1675.1144,0
0,0,0,0,0,0,0,4.81E+07,4.81E+07,4.81E+07,4.81E+07,4.81E+07,4.81E+07,63.991837,-22.605427,146.22954,0.106406,4.953318,180.01346,5.035514,2.610254,-0.056239,-4.00E-06,7.959767,67.28226,-109.00009,12,40,0,0,-109.999855,-110,146.22954,1.10E-05,-6.04E-04,282.91257,154.7348,-0.018379,-2.482178,-1675.1831,0
0,0,0,0,0,0,0,4.81E+07,4.81E+07,4.81E+07,4.81E+07,4.81E+07,4.81E+07,63.991837,-22.605427,146.22954,0.106457,4.953315,180.01346,4.712102,2.60902,-0.067073,-5.00E-06,7.963037,65.93279,-110.349556,12,40,0,0,-109.999855,-110,146.22954,1.10E-05,-3.35E-04,282.91257,156.05122,-0.018386,-2.48262,-1675.2974,0
