aileron,elevator,rudder,flaps,slats,speedbrake,throttle,engine-pump0,engine-pump1,electric-pump0,electric-pump1,external-power,APU-generator,latitude-deg,longitude-deg,altitude-ft,roll-deg,pitch-deg,heading-deg,side-slip-deg,airspeed-kt,glideslope,vertical-speed-fps,airspeed-indicator_indicated-speed-kt,altimeter_indicated-altitude-ft,altimeter_pressure-alt-ft,attitude-indicator_indicated-pitch-deg,attitude-indicator_indicated-roll-deg,attitude-indicator_internal-pitch-deg,attitude-indicator_internal-roll-deg,encoder_indicated-altitude-ft,encoder_pressure-alt-ft,gps_indicated-altitude-ft,gps_indicated-ground-speed-kt,gps_indicated-vertical-speed,indicated-heading-deg,magnetic-compass_indicated-heading-deg,slip-skid-ball_indicated-slip-skid,turn-indicator_indicated-turn-rate,vertical-speed-indicator_indicated-speed-fpm,engine_rpm
0.0,0.0,0.0,0.0,0.0,0.0,1.0,4.5634352E7,4.5634352E7,4.5634368E7,4.5634368E7,4.5634416E7,4.5634448E7,63.985043,-22.592484,-9999.0,0.0,0.424,270.02136,0.0,0.0,0.0,0.0,0.0,0.0,0.0,0.0,0.0,0.0,0.0,0.0,0.0,0.0,0.0,0.0,0.0,0.0,0.0,0.0,0.0,0.0
0.0,0.0,0.0,0.0,0.0,0.0,1.0,4.5634352E7,4.5634352E7,4.5634368E7,4.5634368E7,4.5634416E7,4.5634448E7,63.985043,-22.592484,-9999.0,0.0,0.424,270.02136,0.0,0.0,0.0,0.0,0.0,389.08878,1.193444,12.0,40.0,0.0,0.0,0.0,0.0,0.0,0.0,0.0,282.89813,0.0,0.0,0.0,0.0,0.0
0.0,0.0,0.0,0.0,0.0,0.0,1.0,4.5634352E7,4.5634352E7,4.5634368E7,4.5634368E7,4.5634416E7,4.5634448E7,63.991837,-22.605425,-9999.0,0.0,0.424,180.01839,0.0,0.0,0.0,0.0,0.0,389.08878,1.193444,12.0,40.0,0.0,0.0,0.0,0.0,0.0,0.0,0.0,282.89813,0.0,0.0,0.0,0.0,0.0
-0.571429,0.0,0.0,0.0,0.0,0.0,1.0,4.5634352E7,4.5634352E7,4.5634368E7,4.5634368E7,4.5634416E7,4.5634448E7,63.991837,-22.605425,-9999.0,0.0,0.424,180.01839,0.0,0.0,0.0,0.0,0.0,389.08878,1.193444,12.0,40.0,0.0,0.0,0.0,0.0,0.0,0.0,0.0,282.89813,0.0,0.0,0.0,0.0,0.0
0.0,0.0,0.0,0.0,0.0,0.0,1.0,4.5634352E7,4.5634352E7,4.5634368E7,4.5634368E7,4.5634416E7,4.5634448E7,63.991837,-22.605425,-9999.0,0.0,0.424,180.01839,0.0,0.0,0.0,0.0,0.0,389.08878,1.193444,12.0,40.0,0.0,0.0,0.0,0.0,0.0,0.0,0.0,282.89813,0.0,0.0,0.0,0.0,0.0
-0.571429,0.0,0.0,0.0,0.0,0.0,1.0,4.5634352E7,4.5634352E7,4.5634368E7,4.5634368E7,4.5634416E7,4.5634448E7,63.991837,-22.605425,-9999.0,0.0,0.424,180.01839,0.0,0.0,0.0,0.0,0.0,389.08878,1.193444,12.0,40.0,0.0,0.0,0.0,0.0,0.0,0.0,0.0,282.89813,0.0,0.0,0.0,0.0,0.0
-0.571429,0.0,0.0,0.0,0.0,0.0,1.0,4.5634352E7,4.5634352E7,4.5634368E7,4.5634368E7,4.5634416E7,4.5634448E7,63.991837,-22.605425,-9999.0,0.0,0.424,180.01839,0.0,0.0,0.0,0.0,0.0,389.08878,1.193444,12.0,40.0,0.0,0.0,0.0,0.0,0.0,0.0,0.0,282.89813,0.0,0.0,0.0,0.0,0.0
-0.571429,0.0,0.0,0.0,0.0,0.0,1.0,4.5634352E7,4.5634352E7,4.5634368E7,4.5634368E7,4.5634416E7,4.5634448E7,63.991837,-22.605425,-9999.0,0.0,0.424,180.01839,0.0,0.0,0.0,0.0,0.0,389.08878,1.193444,12.0,40.0,0.0,0.0,0.0,0.0,0.0,0.0,0.0,282.89813,0.0,0.0,0.0,0.0,0.0
-0.571429,0.0,0.0,0.0,0.0,0.0,1.0,4.5634352E7,4.5634352E7,4.5634368E7,4.5634368E7,4.5634416E7,4.5634448E7,63.991837,-22.605425,-9999.0,0.0,0.424,180.01839,0.0,0.0,0.0,0.0,0.0,389.08878,1.193444,12.0,40.0,0.0,0.0,0.0,0.0,0.0,0.0,0.0,282.89813,0.0,0.0,0.0,0.0,0.0
-0.571429,0.0,0.0,0.0,0.0,0.0,1.0,4.5634352E7,4.5634352E7,4.5634368E7,4.5634368E7,4.5634416E7,4.5634448E7,63.991837,-22.605425,-9999.0,0.0,0.424,180.01839,0.0,0.0,0.0,0.0,0.0,389.08878,1.193444,12.0,40.0,0.0,0.0,0.0,0.0,0.0,0.0,0.0,282.89813,0.0,0.0,0.0,0.0,0.0
-0.571429,0.0,0.0,0.0,0.0,0.0,1.0,4.5634352E7,4.5634352E7,4.5634368E7,4.5634368E7,4.5634416E7,4.5634448E7,63.991837,-22.605425,-9999.0,0.0,0.424,180.01839,0.0,0.0,0.0,0.0,0.0,389.08878,1.193444,12.0,40.0,0.0,0.0,0.0,0.0,0.0,0.0,0.0,282.89813,0.0,0.0,0.0,0.0,0.0
-0.571429,0.0,0.0,0.0,0.0,0.0,1.0,4.5634352E7,4.5634352E7,4.5634368E7,4.5634368E7,4.5634416E7,4.5634448E7,63.991837,-22.605425,-9999.0,0.0,0.424,180.01839,0.0,0.0,0.0,0.0,0.0,389.08878,1.193444,12.0,40.0,0.0,0.0,0.0,0.0,0.0,0.0,0.0,282.89813,0.0,0.0,0.0,0.0,0.0
-0.571429,0.0,0.0,0.0,0.0,0.0,1.0,4.5634352E7,4.5634352E7,4.5634368E7,4.5634368E7,4.5634416E7,4.5634448E7,63.991837,-22.605425,-9999.0,0.0,0.424,180.01839,0.0,0.0,0.0,0.0,0.0,389.08878,1.193444,12.0,40.0,0.0,0.0,0.0,0.0,0.0,0.0,0.0,282.89813,0.0,0.0,0.0,0.0,0.0
-0.571429,0.0,0.0,0.0,0.0,0.0,1.0,4.5634352E7,4.5634352E7,4.5634368E7,4.5634368E7,4.5634416E7,4.5634448E7,63.991837,-22.605425,-9999.0,0.0,0.424,180.01839,0.0,0.0,0.0,0.0,0.0,389.08878,1.193444,12.0,40.0,0.0,0.0,0.0,0.0,0.0,0.0,0.0,282.89813,0.0,0.0,0.0,0.0,0.0
-0.571429,0.0,0.0,0.0,0.0,0.0,1.0,4.5634352E7,4.5634352E7,4.5634368E7,4.5634368E7,4.5634416E7,4.5634448E7,63.991837,-22.605425,-9999.0,0.0,0.424,180.01839,0.0,0.0,0.0,0.0,0.0,389.08878,1.193444,12.0,40.0,0.0,0.0,0.0,0.0,0.0,0.0,0.0,282.89813,0.0,0.0,0.0,0.0,0.0
-0.571429,0.0,0.0,0.0,0.0,0.0,1.0,4.5634352E7,4.5634352E7,4.5634368E7,4.5634368E7,4.5634416E7,4.5634448E7,63.991837,-22.605425,-9999.0,0.0,0.424,180.01839,0.0,0.0,0.0,0.0,0.0,389.08878,1.193444,12.0,40.0,0.0,0.0,0.0,0.0,0.0,0.0,0.0,282.89813,0.0,0.0,0.0,0.0,0.0
-0.571429,0.0,0.0,0.0,0.0,0.0,1.0,4.5634352E7,4.5634352E7,4.5634368E7,4.5634368E7,4.5634416E7,4.5634448E7,63.991837,-22.605425,-9999.0,0.0,0.424,180.01839,0.0,0.0,0.0,0.0,0.0,389.08878,1.193444,12.0,40.0,0.0,0.0,0.0,0.0,0.0,0.0,0.0,282.89813,0.0,0.0,0.0,0.0,0.0
-0.571429,0.0,0.0,0.0,0.0,0.0,1.0,4.5634352E7,4.5634352E7,4.5634368E7,4.5634368E7,4.5634416E7,4.5634448E7,63.991837,-22.605425,-9999.0,0.0,0.424,180.01839,0.0,0.0,0.0,0.0,0.0,389.08878,1.193444,12.0,40.0,0.0,0.0,0.0,0.0,0.0,0.0,0.0,282.89813,0.0,0.0,0.0,0.0,0.0
-0.571429,0.0,0.0,0.0,0.0,0.0,1.0,4.5634352E7,4.5634352E7,4.5634368E7,4.5634368E7,4.5634416E7,4.5634448E7,63.991837,-22.605425,-9999.0,0.0,0.424,180.01839,0.0,0.0,0.0,0.0,0.0,389.08878,1.193444,12.0,40.0,0.0,0.0,0.0,0.0,0.0,0.0,0.0,282.89813,0.0,0.0,0.0,0.0,0.0
-0.571429,0.0,0.0,0.0,0.0,0.0,1.0,4.5634352E7,4.5634352E7,4.5634368E7,4.5634368E7,4.5634416E7,4.5634448E7,63.991837,-22.605425,-9999.0,0.0,0.424,180.01839,0.0,0.0,0.0,0.0,0.0,389.08878,1.193444,12.0,40.0,0.0,0.0,0.0,0.0,0.0,0.0,0.0,282.89813,0.0,0.0,0.0,0.0,0.0
-0.571429,0.0,0.0,0.0,0.0,0.0,1.0,4.5634352E7,4.5634352E7,4.5634368E7,4.5634368E7,4.5634416E7,4.5634448E7,63.991837,-22.605425,-9999.0,0.0,0.424,180.01839,0.0,0.0,0.0,0.0,0.0,389.08878,1.193444,12.0,40.0,0.0,0.0,0.0,0.0,0.0,0.0,0.0,282.89813,0.0,0.0,0.0,0.0,0.0
-0.571429,0.0,0.0,0.0,0.0,0.0,1.0,4.5634352E7,4.5634352E7,4.5634368E7,4.5634368E7,4.5634416E7,4.5634448E7,63.991837,-22.605425,-9999.0,0.0,0.424,180.01839,0.0,0.0,0.0,0.0,0.0,389.08878,1.193444,12.0,40.0,0.0,0.0,0.0,0.0,0.0,0.0,0.0,282.89813,0.0,0.0,0.0,0.0,0.0
-0.571429,0.0,0.0,0.0,0.0,0.0,1.0,4.5634352E7,4.5634352E7,4.5634368E7,4.5634368E7,4.5634416E7,4.5634448E7,63.991837,-22.605425,-9999.0,0.0,0.424,180.01839,0.0,0.0,0.0,0.0,0.0,389.08878,1.193444,12.0,40.0,0.0,0.0,0.0,0.0,0.0,0.0,0.0,282.89813,0.0,0.0,0.0,0.0,0.0
-0.571429,0.0,0.0,0.0,0.0,0.0,1.0,4.5634352E7,4.5634352E7,4.5634368E7,4.5634368E7,4.5634416E7,4.5634448E7,63.991837,-22.605425,-9999.0,0.0,0.424,180.01839,0.0,0.0,0.0,0.0,0.0,389.08878,1.193444,12.0,40.0,0.0,0.0,0.0,0.0,0.0,0.0,0.0,282.89813,0.0,0.0,0.0,0.0,0.0
-0.571429,0.0,0.0,0.0,0.0,0.0,1.0,4.5634352E7,4.5634352E7,4.5634368E7,4.5634368E7,4.5634416E7,4.5634448E7,63.991837,-22.605425,-9999.0,0.0,0.424,180.01839,0.0,0.0,0.0,0.0,0.0,389.08878,1.193444,12.0,40.0,0.0,0.0,0.0,0.0,0.0,0.0,0.0,282.89813,0.0,0.0,0.0,0.0,0.0
-0.571429,0.0,0.0,0.0,0.0,0.0,1.0,4.5634352E7,4.5634352E7,4.5634368E7,4.5634368E7,4.5634416E7,4.5634448E7,63.991837,-22.605425,-9999.0,0.0,0.424,180.01839,0.0,0.0,0.0,0.0,0.0,389.08878,1.193444,12.0,40.0,0.0,0.0,0.0,0.0,0.0,0.0,0.0,282.89813,0.0,0.0,0.0,0.0,0.0
-0.571429,0.0,0.0,0.0,0.0,0.0,1.0,4.5634352E7,4.5634352E7,4.5634368E7,4.5634368E7,4.5634416E7,4.5634448E7,63.991837,-22.605425,-9999.0,0.0,0.424,180.01839,0.0,0.0,0.0,0.0,0.0,389.08878,1.193444,12.0,40.0,0.0,0.0,0.0,0.0,0.0,0.0,0.0,282.89813,0.0,0.0,0.0,0.0,0.0
-0.571429,0.0,0.0,0.0,0.0,0.0,1.0,4.5634352E7,4.5634352E7,4.5634368E7,4.5634368E7,4.5634416E7,4.5634448E7,63.991837,-22.605425,-9999.0,0.0,0.424,180.01839,0.0,0.0,0.0,0.0,0.0,389.08878,1.193444,12.0,40.0,0.0,0.0,0.0,0.0,0.0,0.0,0.0,282.89813,0.0,0.0,0.0,0.0,0.0
-0.571429,0.0,0.0,0.0,0.0,0.0,1.0,4.5634352E7,4.5634352E7,4.5634368E7,4.5634368E7,4.5634416E7,4.5634448E7,63.991837,-22.605425,-9999.0,0.0,0.424,180.01839,0.0,0.0,0.0,0.0,0.0,389.08878,1.193444,12.0,40.0,0.0,0.0,0.0,0.0,0.0,0.0,0.0,282.89813,0.0,0.0,0.0,0.0,0.0
-0.571429,0.0,0.0,0.0,0.0,0.0,1.0,4.5634352E7,4.5634352E7,4.5634368E7,4.5634368E7,4.5634416E7,4.5634448E7,63.991837,-22.605425,-9999.0,0.0,0.424,180.01839,0.0,0.0,0.0,0.0,0.0,389.08878,1.193444,12.0,40.0,0.0,0.0,0.0,0.0,0.0,0.0,0.0,282.89813,0.0,0.0,0.0,0.0,0.0
-0.571429,0.0,0.0,0.0,0.0,0.0,1.0,4.5634352E7,4.5634352E7,4.5634368E7,4.5634368E7,4.5634416E7,4.5634448E7,63.991837,-22.605425,-9999.0,0.0,0.424,180.01839,0.0,0.0,0.0,0.0,0.0,389.08878,1.193444,12.0,40.0,0.0,0.0,0.0,0.0,0.0,0.0,0.0,282.89813,0.0,0.0,0.0,0.0,0.0
-0.571429,0.0,0.0,0.0,0.0,0.0,1.0,4.5634352E7,4.5634352E7,4.5634368E7,4.5634368E7,4.5634416E7,4.5634448E7,63.991837,-22.605425,-9999.0,0.0,0.424,180.01839,0.0,0.0,0.0,0.0,0.0,389.08878,1.193444,12.0,40.0,0.0,0.0,0.0,0.0,0.0,0.0,0.0,282.89813,0.0,0.0,0.0,0.0,0.0
-0.571429,0.0,0.0,0.0,0.0,0.0,1.0,4.5634352E7,4.5634352E7,4.5634368E7,4.5634368E7,4.5634416E7,4.5634448E7,63.991837,-22.605425,-9999.0,0.0,0.424,180.01839,0.0,0.0,0.0,0.0,0.0,389.08878,1.193444,12.0,40.0,0.0,0.0,0.0,0.0,0.0,0.0,0.0,282.89813,0.0,0.0,0.0,0.0,0.0
-0.571429,0.0,0.0,0.0,0.0,0.0,1.0,4.5634352E7,4.5634352E7,4.5634368E7,4.5634368E7,4.5634416E7,4.5634448E7,63.991837,-22.605425,-9999.0,0.0,0.424,180.01839,0.0,0.0,0.0,0.0,0.0,389.08878,1.193444,12.0,40.0,0.0,0.0,0.0,0.0,0.0,0.0,0.0,282.89813,0.0,0.0,0.0,0.0,0.0
-0.571429,0.0,0.0,0.0,0.0,0.0,0.0,4.5634352E7,4.5634352E7,4.5634368E7,4.5634368E7,4.5634416E7,4.5634448E7,63.991837,-22.605427,146.2295,0.104764,4.952322,180.01332,0.0,0.0,0.0,0.0,0.0,389.08878,1.193444,12.0,40.0,0.0,0.0,0.0,0.0,0.0,0.0,0.0,282.89813,0.0,0.0,0.0,0.0,0.0
-0.571429,0.0,0.0,0.0,0.0,0.0,0.0,4.5634352E7,4.5634352E7,4.5634368E7,4.5634368E7,4.5634416E7,4.5634448E7,63.991837,-22.605427,146.2293,0.093179,4.972201,180.01242,89.86467,3.012049,-0.068969,-1.63E-4,0.0,537.2136,149.3183,12.0,40.0,0.0,0.0,140.00014,140.0,146.2293,1.24E-4,-0.018383,282.89807,356.53656,-0.006013,-0.512962,3927.3389,0.0
-0.571429,0.0,0.0,0.0,0.0,0.0,0.0,4.5634352E7,4.5634352E7,4.5634368E7,4.5634368E7,4.5634416E7,4.5634448E7,63.991837,-22.605427,146.22954,0.092754,4.951423,180.01236,83.88301,2.733587,0.080142,1.9E-5,0.0,510.12122,122.22588,12.0,40.0,0.0,0.0,120.000145,120.0,146.22954,1.01E-4,0.002281,282.89807,328.53552,-0.012378,-1.296059,2366.533,0.0
-0.571429,0.0,0.0,0.0,0.0,0.0,0.0,4.5634352E7,4.5634352E7,4.5634368E7,4.5634368E7,4.5634416E7,4.5634448E7,63.991837,-22.605427,146.22954,0.092782,4.951206,180.01236,83.369514,2.714102,0.075026,1.3E-5,4.743381,508.9667,121.07137,12.0,40.0,0.0,0.0,120.000145,120.0,146.22954,1.0E-4,0.00151,282.89807,325.51712,-0.012736,-1.340461,2253.8728,0.0
-0.571429,0.0,0.0,0.0,0.0,0.0,0.0,4.5634352E7,4.5634352E7,4.5634368E7,4.5634368E7,4.5634416E7,4.5634448E7,63.991837,-22.605427,146.22954,0.093273,4.950896,180.0124,81.602745,2.650746,-0.008835,-1.0E-6,4.905557,502.16306,114.26771,12.0,40.0,0.0,0.0,120.000145,120.0,146.22954,9.5E-5,6.7E-5,282.89807,314.7358,-0.013452,-1.476978,1772.6339,0.0
-0.571429,0.0,0.0,0.0,0.0,0.0,0.0,4.5634352E7,4.5634352E7,4.5634368E7,4.5634368E7,4.5634416E7,4.5634448E7,63.991837,-22.605427,146.22954,0.093461,4.950863,180.01242,80.87201,2.626127,-0.045151,-7.0E-6,6.614186,500.1271,112.23176,12.0,40.0,0.0,0.0,110.000145,110.0,146.22954,9.3E-5,-3.35E-4,282.89807,310.14297,-0.013715,-1.526973,1587.013,0.0
-0.571429,0.0,0.0,0.0,0.0,0.0,0.0,4.5634352E7,4.5634352E7,4.5634368E7,4.5634368E7,4.5634416E7,4.5634448E7,63.991837,-22.605427,146.22954,0.093684,4.950863,180.01244,80.12749,2.601944,-0.063472,-1.1E-5,7.154171,497.5739,109.67856,12.0,40.0,0.0,0.0,110.000145,110.0,146.22954,9.1E-5,-7.38E-4,282.89807,305.40817,-0.013953,-1.574525,1368.2688,0.0
-0.571429,0.0,0.0,0.0,0.0,0.0,0.0,4.5634352E7,4.5634352E7,4.5634368E7,4.5634368E7,4.5634416E7,4.5634448E7,63.991837,-22.605427,146.22954,0.093765,4.95087,180.01244,79.87621,2.593981,-0.067886,-1.2E-5,7.145678,496.67404,108.7787,12.0,40.0,0.0,0.0,110.000145,110.0,146.22954,9.1E-5,-8.05E-4,282.89807,303.80048,-0.014029,-1.589853,1288.8772,0.0
-0.571429,0.0,0.0,0.0,0.0,0.0,0.0,4.5634352E7,4.5634352E7,4.5634368E7,4.5634368E7,4.5634416E7,4.5634448E7,63.991837,-22.605427,146.2295,0.096091,4.951484,180.01263,74.51943,2.445779,-0.115818,-1.3E-5,5.115688,476.69116,88.795815,12.0,40.0,0.0,0.0,90.000145,90.0,146.2295,7.9E-5,-8.39E-4,282.89807,269.31265,-0.015315,-1.848305,-534.3102,0.0
-0.571429,0.0,0.0,0.0,0.0,0.0,0.0,4.5634352E7,4.5634352E7,4.5634368E7,4.5634368E7,4.5634416E7,4.5634448E7,63.991837,-22.605427,146.2295,0.09625,4.951527,180.01263,73.66134,2.425534,-0.119832,-1.5E-5,6.668336,474.57852,86.68317,12.0,40.0,0.0,0.0,90.000145,90.0,146.2295,7.8E-5,-0.001073,282.89807,263.87943,-0.015446,-1.880153,-655.3372,0.0
-0.571429,0.0,0.0,0.0,0.0,0.0,0.0,4.5634352E7,4.5634352E7,4.5634368E7,4.5634368E7,4.5634416E7,4.5634448E7,63.991837,-22.605427,146.2295,0.096436,4.951578,180.01265,72.78898,2.405839,-0.120423,-1.8E-5,7.147477,472.05148,84.15614,12.0,40.0,0.0,0.0,90.000145,90.0,146.2295,7.6E-5,-0.001241,282.89807,258.41254,-0.015568,-1.910445,-774.4589,0.0
-0.571429,0.0,0.0,0.0,0.0,0.0,0.0,4.5634352E7,4.5634352E7,4.5634368E7,4.5634368E7,4.5634416E7,4.5634448E7,63.991837,-22.605427,146.2295,0.096641,4.951638,180.01266,71.90236,2.386707,-0.119519,-1.9E-5,7.358711,469.32535,81.42999,12.0,40.0,0.0,0.0,80.000145,80.0,146.2295,7.5E-5,-0.001375,282.89807,252.92354,-0.015683,-1.939257,-878.2633,0.0
-0.571429,0.0,0.0,0.0,0.0,0.0,0.0,4.5634352E7,4.5634352E7,4.5634368E7,4.5634368E7,4.5634416E7,4.5634448E7,63.991837,-22.605427,146.22949,0.096858,4.951705,180.0127,71.00156,2.368154,-0.11903,-2.0E-5,7.424855,466.52908,78.63373,12.0,40.0,0.0,0.0,80.000145,80.0,146.22949,7.3E-5,-0.001442,282.89807,247.42372,-0.015793,-1.96666,-965.03516,0.0
-0.571429,0.0,0.0,0.0,0.0,0.0,0.0,4.5634352E7,4.5634352E7,4.5634368E7,4.5634368E7,4.5634416E7,4.5634448E7,63.991837,-22.605427,146.22949,0.097083,4.951777,180.01271,70.08668,2.350192,-0.118662,-2.0E-5,7.453481,463.70813,75.81278,12.0,40.0,0.0,0.0,80.000145,80.0,146.22949,7.2E-5,-0.001543,282.89807,241.92418,-0.015897,-1.992725,-1037.8757,0.0
-0.571429,0.0,0.0,0.0,0.0,0.0,0.0,4.5634352E7,4.5634352E7,4.5634368E7,4.5634368E7,4.5634416E7,4.5634448E7,63.991837,-22.605427,146.22949,0.097312,4.951852,180.01273,69.15789,2.332837,-0.118435,-2.0E-5,7.464948,460.87848,72.98313,12.0,40.0,0.0,0.0,80.000145,80.0,146.22949,7.0E-5,-0.00151,282.89807,236.43584,-0.015995,-2.017515,-1099.8453,0.0
-0.571429,0.0,0.0,0.0,0.0,0.0,0.0,4.5634352E7,4.5634352E7,4.5634368E7,4.5634368E7,4.5634416E7,4.5634448E7,63.991837,-22.605427,146.22949,0.097541,4.951928,180.01274,68.21537,2.316103,-0.118087,-2.0E-5,7.470034,458.04575,70.15041,12.0,40.0,0.0,0.0,70.000145,70.0,146.22949,6.9E-5,-0.001543,282.89807,230.96935,-0.016089,-2.041094,-1153.2928,0.0
-0.571429,0.0,0.0,0.0,0.0,0.0,0.0,4.5634352E7,4.5634352E7,4.5634368E7,4.5634368E7,4.5634416E7,4.5634448E7,63.991837,-22.605427,146.22949,0.097768,4.952004,180.01276,67.25934,2.300004,-0.117442,-2.0E-5,7.472953,455.21194,67.3166,12.0,40.0,0.0,0.0,70.000145,70.0,146.22949,6.8E-5,-0.00161,282.89807,225.53508,-0.016178,-2.063521,-1199.9404,0.0
-0.571429,0.0,0.0,0.0,0.0,0.0,0.0,4.5634352E7,4.5634352E7,4.5634368E7,4.5634368E7,4.5634416E7,4.5634448E7,63.991837,-22.605427,146.22949,0.097992,4.95208,180.01279,66.29005,2.284553,-0.116716,-1.9E-5,7.475068,452.37772,64.48238,12.0,40.0,0.0,0.0,70.000145,70.0,146.22949,6.6E-5,-0.001442,282.89807,220.1432,-0.016263,-2.084852,-1241.0544,0.0
-0.571429,0.0,0.0,0.0,0.0,0.0,0.0,4.5634352E7,4.5634352E7,4.5634368E7,4.5634368E7,4.5634416E7,4.5634448E7,63.991837,-22.605427,146.22948,0.098211,4.952154,180.0128,65.3078,2.269763,-0.115681,-1.9E-5,7.476882,449.54337,61.648026,12.0,40.0,0.0,0.0,60.00014,60.0,146.22948,6.5E-5,-0.00151,282.89807,214.80353,-0.016344,-2.10514,-1277.5837,0.0
-0.571429,0.0,0.0,0.0,0.0,0.0,0.0,4.5634352E7,4.5634352E7,4.5634368E7,4.5634368E7,4.5634416E7,4.5634448E7,63.991837,-22.605427,146.22948,0.098426,4.952227,180.01282,64.31292,2.255649,-0.114411,-1.8E-5,7.478576,446.70895,58.813602,12.0,40.0,0.0,0.0,60.00014,60.0,146.22948,6.4E-5,-0.001409,282.89807,209.52563,-0.01642,-2.124437,-1310.2546,0.0
-0.571429,0.0,0.0,0.0,0.0,0.0,0.0,4.5634352E7,4.5634352E7,4.5634368E7,4.5634368E7,4.5634416E7,4.5634448E7,63.991837,-22.605427,146.22948,0.098636,4.952298,180.01283,63.305775,2.242223,-0.113096,-1.8E-5,7.480212,443.87448,55.979145,12.0,40.0,0.0,0.0,60.00014,60.0,146.22948,6.2E-5,-0.001375,282.89807,204.31874,-0.016494,-2.14279,-1339.6351,0.0
-0.571429,0.0,0.0,0.0,0.0,0.0,0.0,4.5634352E7,4.5634352E7,4.5634368E7,4.5634368E7,4.5634416E7,4.5634448E7,63.991837,-22.605427,146.22948,0.09884,4.952367,180.01285,62.28677,2.229497,-0.111478,-1.7E-5,7.481824,441.04,53.14467,12.0,40.0,0.0,0.0,60.00014,60.0,146.22948,6.1E-5,-0.001342,282.89807,199.19174,-0.016563,-2.160247,-1366.1786,0.0
-0.571429,0.0,0.0,0.0,0.0,0.0,0.0,4.5634352E7,4.5634352E7,4.5634368E7,4.5634368E7,4.5634416E7,4.5634448E7,63.991837,-22.605427,146.22948,0.099038,4.952434,180.01286,61.256355,2.217484,-0.109123,-1.6E-5,7.483397,438.2055,50.31017,12.0,40.0,0.0,0.0,50.00014,50.0,146.22948,6.0E-5,-0.001241,282.89807,194.15324,-0.01663,-2.176851,-1390.2528,0.0
-0.571429,0.0,0.0,0.0,0.0,0.0,0.0,4.5634352E7,4.5634352E7,4.5634368E7,4.5634368E7,4.5634416E7,4.5634448E7,63.991837,-22.605427,146.22948,0.099229,4.952498,180.01288,60.215015,2.206195,-0.106453,-1.5E-5,7.484944,435.371,47.47566,12.0,40.0,0.0,0.0,50.00014,50.0,146.22948,5.9E-5,-0.001241,282.89807,189.21147,-0.016693,-2.192643,-1412.1605,0.0
-0.571429,0.0,0.0,0.0,0.0,0.0,0.0,4.5634352E7,4.5634352E7,4.5634368E7,4.5634368E7,4.5634416E7,4.5634448E7,63.991837,-22.605427,146.22946,0.099415,4.95256,180.0129,59.163273,2.195642,-0.103698,-1.4E-5,7.568279,432.53647,44.64113,12.0,40.0,0.0,0.0,50.00014,50.0,146.22946,5.8E-5,-0.001141,282.89807,184.37428,-0.016754,-2.207664,-1432.1545,0.0
-0.571429,0.0,0.0,0.0,0.0,0.0,0.0,4.5634352E7,4.5634352E7,4.5634368E7,4.5634368E7,4.5634416E7,4.5634448E7,63.991837,-22.605427,146.22946,0.099594,4.95262,180.01291,58.10169,2.185836,-0.10044,-1.3E-5,7.574819,429.70193,41.80658,12.0,40.0,0.0,0.0,40.00014,40.0,146.22946,5.6E-5,-0.001073,282.89807,179.64922,-0.016812,-2.22195,-1450.4479,0.0
-0.571429,0.0,0.0,0.0,0.0,0.0,0.0,4.5634352E7,4.5634352E7,4.5634368E7,4.5634368E7,4.5634416E7,4.5634448E7,63.991837,-22.605427,146.22946,0.099768,4.952677,180.01292,57.03087,2.176786,-0.09681,-1.2E-5,7.581326,426.86737,38.972015,12.0,40.0,0.0,0.0,40.00014,40.0,146.22946,5.5E-5,-0.00104,282.89807,175.0434,-0.016867,-2.235538,-1467.2223,0.0
-0.571429,0.0,0.0,0.0,0.0,0.0,0.0,4.5634352E7,4.5634352E7,4.5634368E7,4.5634368E7,4.5634416E7,4.5634448E7,63.991837,-22.605427,146.22946,0.099936,4.952733,180.01294,55.95145,2.168502,-0.091656,-1.1E-5,7.579799,423.9795,36.08416,12.0,40.0,0.0,0.0,40.00014,40.0,146.22946,5.4E-5,-0.001006,282.89807,170.56358,-0.016921,-2.248463,-1484.8512,0.0
-0.571429,0.0,0.0,0.0,0.0,0.0,0.0,4.5634352E7,4.5634352E7,4.5634368E7,4.5634368E7,4.5634416E7,4.5634448E7,63.991837,-22.605427,146.22946,0.100097,4.952785,180.01295,54.864086,2.160993,-0.088094,-1.0E-5,7.561075,421.17944,33.28409,12.0,40.0,0.0,0.0,40.00014,40.0,146.22946,5.3E-5,-9.06E-4,282.89807,166.21619,-0.016972,-2.260755,-1497.4436,0.0
-0.571429,0.0,0.0,0.0,0.0,0.0,0.0,4.5634352E7,4.5634352E7,4.5634368E7,4.5634368E7,4.5634416E7,4.5634448E7,63.991837,-22.605427,146.22946,0.100252,4.952836,180.01295,53.769497,2.154268,-0.081532,-9.0E-6,7.583704,418.37,30.474659,12.0,40.0,0.0,0.0,30.000143,30.0,146.22946,5.2E-5,-9.73E-4,282.89807,162.00716,-0.017023,-2.272447,-1509.4419,0.0
-0.571429,0.0,0.0,0.0,0.0,0.0,0.0,4.5634352E7,4.5634352E7,4.5634368E7,4.5634368E7,4.5634416E7,4.5634448E7,63.991837,-22.605427,146.22946,0.100401,4.952884,180.01297,52.66843,2.148334,-0.077072,-8.0E-6,7.609906,415.53122,27.635864,12.0,40.0,0.0,0.0,30.000143,30.0,146.22946,5.1E-5,-8.05E-4,282.89807,157.94212,-0.017069,-2.283568,-1521.7117,0.0
-0.571429,0.0,0.0,0.0,0.0,0.0,0.0,4.5634352E7,4.5634352E7,4.5634368E7,4.5634368E7,4.5634416E7,4.5634448E7,63.991837,-22.605427,146.22946,0.100545,4.95293,180.01299,51.561623,2.143197,-0.070257,-7.0E-6,7.613615,412.6951,24.799751,12.0,40.0,0.0,0.0,30.000143,30.0,146.22946,5.0E-5,-7.38E-4,282.89807,154.02628,-0.017113,-2.294145,-1532.9408,0.0
-0.571429,0.0,0.0,0.0,0.0,0.0,0.0,4.5634352E7,4.5634352E7,4.5634368E7,4.5634368E7,4.5634416E7,4.5634448E7,63.991837,-22.605427,146.22946,0.100684,4.952974,180.013,50.449883,2.138864,-0.060327,-6.0E-6,7.589416,409.76633,21.870996,12.0,40.0,0.0,0.0,20.000143,20.0,146.22946,4.9E-5,-6.71E-4,282.89807,150.26442,-0.017156,-2.304205,-1547.0377,0.0
-0.571429,0.0,0.0,0.0,0.0,0.0,0.0,4.5634352E7,4.5634352E7,4.5634368E7,4.5634368E7,4.5634416E7,4.5634448E7,63.991837,-22.605427,146.22945,0.100816,4.953016,180.013,49.33399,2.135338,-0.054677,-5.0E-6,7.568869,406.99213,19.096775,12.0,40.0,0.0,0.0,20.000143,20.0,146.22945,4.8E-5,-6.04E-4,282.89807,146.66096,-0.017197,-2.313773,-1553.9348,0.0
-0.571429,0.0,0.0,0.0,0.0,0.0,0.0,4.5634352E7,4.5634352E7,4.5634368E7,4.5634368E7,4.5634416E7,4.5634448E7,63.991837,-22.605427,146.22945,0.100943,4.953055,180.01302,48.214794,2.132625,-0.045819,-4.0E-6,7.612143,404.1787,16.283363,12.0,40.0,0.0,0.0,20.000143,20.0,146.22945,4.7E-5,-5.37E-4,282.89807,143.2199,-0.017236,-2.322874,-1561.8828,0.0
-0.571429,0.0,0.0,0.0,0.0,0.0,0.0,4.5634352E7,4.5634352E7,4.5634368E7,4.5634368E7,4.5634416E7,4.5634448E7,63.991837,-22.605427,146.22945,0.101064,4.953093,180.01303,47.09314,2.130728,-0.035773,-3.0E-6,7.631613,401.3515,13.456143,12.0,40.0,0.0,0.0,20.000143,20.0,146.22945,4.6E-5,-4.36E-4,282.89807,139.94484,-0.017273,-2.33153,-1569.8007,0.0
-0.571429,0.0,0.0,0.0,0.0,0.0,0.0,4.5634352E7,4.5634352E7,4.5634368E7,4.5634368E7,4.5634416E7,4.5634448E7,63.991837,-22.605427,146.22945,0.10118,4.953127,180.01303,45.969875,2.129648,-0.024371,-2.0E-6,7.643226,398.5194,10.624053,12.0,40.0,0.0,0.0,10.000142,10.0,146.22945,4.5E-5,-3.35E-4,282.89807,136.83896,-0.017309,-2.339763,-1577.3416,0.0
-0.571429,0.0,0.0,0.0,0.0,0.0,0.0,4.5634352E7,4.5634352E7,4.5634368E7,4.5634368E7,4.5634416E7,4.5634448E7,63.991837,-22.605427,146.22945,0.101291,4.95316,180.01305,44.84586,2.129388,-0.012226,-1.0E-6,7.651901,395.68558,7.790238,12.0,40.0,0.0,0.0,10.000142,10.0,146.22945,4.4E-5,-3.02E-4,282.89807,133.9051,-0.017343,-2.347594,-1584.4132,0.0
-0.571429,0.0,0.0,0.0,0.0,0.0,0.0,4.5634352E7,4.5634352E7,4.5634368E7,4.5634368E7,4.5634416E7,4.5634448E7,63.991837,-22.605427,146.22945,0.101398,4.953192,180.01305,43.721962,2.129947,0.00167,0.0,7.611088,392.81955,4.924193,12.0,40.0,0.0,0.0,10.000142,10.0,146.22945,4.4E-5,-2.68E-4,282.89807,131.14563,-0.017375,-2.355042,-1592.1552,0.0
-0.571429,0.0,0.0,0.0,0.0,0.0,0.0,4.5634352E7,4.5634352E7,4.5634368E7,4.5634368E7,4.5634416E7,4.5634448E7,63.991837,-22.605427,146.22945,0.101499,4.953221,180.01306,42.599037,2.131325,0.016673,1.0E-6,7.647652,390.00537,2.110017,12.0,40.0,0.0,0.0,1.42E-4,0.0,146.22945,4.3E-5,-1.68E-4,282.89807,128.56259,-0.017407,-2.362126,-1597.4277,0.0
-0.571429,0.0,0.0,0.0,0.0,0.0,0.0,4.5634352E7,4.5634352E7,4.5634368E7,4.5634368E7,4.5634416E7,4.5634448E7,63.991837,-22.605427,146.22945,0.10158,4.953243,180.01306,41.66464,2.133098,0.030691,2.0E-6,7.664108,387.66107,-0.234287,12.0,40.0,0.0,0.0,1.42E-4,0.0,146.22945,4.2E-5,-6.7E-5,282.89807,126.546005,-0.017437,-2.367764,-1601.9539,0.0
-0.571429,0.0,0.0,0.0,0.0,0.0,0.0,4.5634352E7,4.5634352E7,4.5634368E7,4.5634368E7,4.5634416E7,4.5634448E7,63.991837,-22.605427,146.22945,0.10168,4.953271,180.01308,40.45264,2.13625,0.050736,3.0E-6,7.661081,384.72693,-3.168423,12.0,40.0,0.0,0.0,1.42E-4,0.0,146.22945,4.1E-5,-6.7E-5,282.89807,124.110466,-0.017468,-2.374751,-1608.0211,0.0
-0.571429,0.0,0.0,0.0,0.0,0.0,0.0,4.5634352E7,4.5634352E7,4.5634368E7,4.5634368E7,4.5634416E7,4.5634448E7,63.991837,-22.605427,146.22945,0.101775,4.953297,180.01308,39.24471,2.140355,0.071715,4.0E-6,7.597462,381.73196,-6.163387,12.0,40.0,0.0,0.0,1.42E-4,0.0,146.22945,4.0E-5,0.0,282.89807,121.88628,-0.017496,-2.381368,-1616.0424,0.0
-0.571429,0.0,0.0,0.0,0.0,0.0,0.0,4.5634352E7,4.5634352E7,4.5634368E7,4.5634368E7,4.5634416E7,4.5634448E7,63.991837,-22.605427,146.22945,0.101858,4.953318,180.01309,38.134193,2.144985,0.095841,6.0E-6,7.645775,379.0814,-8.813966,12.0,40.0,0.0,0.0,-9.999858,-10.0,146.22945,3.9E-5,6.7E-5,282.89807,120.0213,-0.017522,-2.387166,-1618.4106,0.0
-0.571429,0.0,0.0,0.0,0.0,0.0,0.0,4.5634352E7,4.5634352E7,4.5634368E7,4.5634368E7,4.5634416E7,4.5634448E7,63.991837,-22.605427,146.22945,0.101936,4.953338,180.01309,37.02884,2.150417,0.121564,7.0E-6,7.685326,376.39746,-11.49787,12.0,40.0,0.0,0.0,-9.999858,-10.0,146.22945,3.9E-5,1.01E-4,282.89807,118.337074,-0.017547,-2.39268,-1621.9473,0.0
-0.571429,0.0,0.0,0.0,0.0,0.0,0.0,4.5634352E7,4.5634352E7,4.5634368E7,4.5634368E7,4.5634416E7,4.5634448E7,63.991837,-22.605427,146.22945,0.10201,4.953356,180.0131,35.92942,2.156646,0.149661,8.0E-6,7.704592,373.70184,-14.193515,12.0,40.0,0.0,0.0,-9.999858,-10.0,146.22945,3.8E-5,1.68E-4,282.89807,116.83333,-0.017571,-2.397925,-1625.7107,0.0
-0.571429,0.0,0.0,0.0,0.0,0.0,0.0,4.5634352E7,4.5634352E7,4.5634368E7,4.5634368E7,4.5634416E7,4.5634448E7,63.991837,-22.605427,146.22945,0.10208,4.953372,180.0131,34.836697,2.163665,0.180908,9.0E-6,7.716484,371.00204,-16.893303,12.0,40.0,0.0,0.0,-9.999858,-10.0,146.22945,3.7E-5,2.68E-4,282.89807,115.50948,-0.017594,-2.402913,-1629.3829,0.0
-0.571429,0.0,0.0,0.0,0.0,0.0,0.0,4.5634352E7,4.5634352E7,4.5634368E7,4.5634368E7,4.5634416E7,4.5634448E7,63.991837,-22.605427,146.22945,0.102147,4.953387,180.0131,33.751392,2.171466,0.213086,1.0E-5,7.718472,368.25,-19.645346,12.0,40.0,0.0,0.0,-19.999857,-20.0,146.22945,3.6E-5,3.35E-4,282.89807,114.36459,-0.017616,-2.407658,-1634.885,0.0
-0.571429,0.0,0.0,0.0,0.0,0.0,0.0,4.5634352E7,4.5634352E7,4.5634368E7,4.5634368E7,4.5634416E7,4.5634448E7,63.991837,-22.605427,146.22945,0.10221,4.953401,180.01312,32.674194,2.18004,0.252819,1.1E-5,7.702124,365.58112,-22.314219,12.0,40.0,0.0,0.0,-19.999857,-20.0,146.22945,3.6E-5,4.03E-4,282.89807,113.39738,-0.017637,-2.41217,-1636.718,0.0
-0.571429,0.0,0.0,0.0,0.0,0.0,0.0,4.5634352E7,4.5634352E7,4.5634368E7,4.5634368E7,4.5634416E7,4.5634448E7,63.991837,-22.605427,146.22945,0.102268,4.953412,180.01312,31.605772,2.189379,0.294998,1.2E-5,7.730929,362.89075,-25.004612,12.0,40.0,0.0,0.0,-19.999857,-20.0,146.22945,3.5E-5,5.03E-4,282.89807,112.60624,-0.017657,-2.416463,-1639.2761,0.0
-0.571429,0.0,0.0,0.0,0.0,0.0,0.0,4.5634352E7,4.5634352E7,4.5634368E7,4.5634368E7,4.5634416E7,4.5634448E7,63.991837,-22.605427,146.22946,0.102324,4.953422,180.01312,30.546753,2.199473,0.340839,1.4E-5,7.74621,360.19275,-27.702593,12.0,40.0,0.0,0.0,-29.999857,-30.0,146.22946,3.4E-5,5.7E-4,282.89807,111.98925,-0.017676,-2.420545,-1641.9604,0.0
-0.571429,0.0,0.0,0.0,0.0,0.0,0.0,4.5634352E7,4.5634352E7,4.5634368E7,4.5634368E7,4.5634416E7,4.5634448E7,63.991837,-22.605427,146.22946,0.102375,4.953431,180.01312,29.497725,2.210312,0.390791,1.5E-5,7.756701,357.4921,-30.403252,12.0,40.0,0.0,0.0,-29.999857,-30.0,146.22946,3.4E-5,6.04E-4,282.89807,111.54418,-0.017694,-2.424428,-1644.5692,0.0
-0.571429,0.0,0.0,0.0,0.0,0.0,0.2,4.5634352E7,4.5634352E7,4.5634368E7,4.5634368E7,4.5634416E7,4.5634448E7,63.991837,-22.605427,146.22946,0.1024,4.953434,180.01314,28.977133,2.216008,0.41745,1.5E-5,7.759508,356.14136,-31.753992,12.0,40.0,0.0,0.0,-29.999857,-30.0,146.22946,3.3E-5,6.37E-4,282.89807,111.38534,-0.017705,-2.426298,-1645.8234,0.0
-0.571429,0.0,0.0,0.0,0.0,0.0,0.2,4.5634352E7,4.5634352E7,4.5634368E7,4.5634368E7,4.5634416E7,4.5634448E7,63.991837,-22.605427,146.22948,0.102838,4.953481,180.01317,18.747828,2.375306,0.750187,8.0E-6,4.858718,115.26557,-61.69395,12.0,40.0,0.0,0.0,-59.99986,-60.0,146.22948,2.7E-5,2.68E-4,282.8959,117.083984,-0.017858,-2.456449,-1508.1606,0.0
-0.571429,0.0,0.0,0.0,0.0,0.0,0.2,4.5634352E7,4.5634352E7,4.5634368E7,4.5634368E7,4.5634416E7,4.5634448E7,63.991837,-22.605427,146.22948,0.102855,4.953487,180.01317,17.85081,2.394129,0.63705,1.3E-5,6.771683,113.53795,-63.421577,12.0,40.0,0.0,0.0,-59.99986,-60.0,146.22948,2.6E-5,6.37E-4,282.8959,118.43176,-0.017862,-2.448721,-1478.164,36.786045
-0.571429,0.0,0.0,0.0,0.0,0.0,0.2,4.5634352E7,4.5634352E7,4.5634368E7,4.5634368E7,4.5634416E7,4.5634448E7,63.991837,-22.605427,146.22948,0.102874,4.953466,180.01317,17.040531,2.411928,0.376882,2.4E-5,7.414866,111.411644,-65.54788,12.0,40.0,0.0,0.0,-59.99986,-60.0,146.22948,2.6E-5,0.001375,282.8959,119.772964,-0.017873,-2.427168,-1475.9999,68.69615
-0.571429,0.0,0.0,0.0,0.0,0.0,0.2,4.5634352E7,4.5634352E7,4.5634368E7,4.5634368E7,4.5634416E7,4.5634448E7,63.991837,-22.605427,146.22949,0.102882,4.953274,180.01317,16.097963,2.433619,0.164113,3.5E-5,7.775306,108.61387,-68.34566,12.0,40.0,0.0,0.0,-69.999855,-70.0,146.22949,2.5E-5,0.003287,282.8959,121.4827,-0.017887,-2.386633,-1486.0638,104.87447
-0.571429,0.0,0.0,0.0,0.0,0.0,0.2,4.5634352E7,4.5634352E7,4.5634368E7,4.5634368E7,4.5634416E7,4.5634448E7,63.991837,-22.605427,146.22949,0.102859,4.952855,180.01317,15.242585,2.454238,0.123765,5.0E-5,7.817067,105.98413,-70.97539,12.0,40.0,0.0,0.0,-69.999855,-70.0,146.22949,2.5E-5,0.004361,282.8959,123.17515,-0.017902,-2.337177,-1496.6239,136.67477
-0.571429,0.0,0.0,0.0,0.0,0.0,0.2,4.5634352E7,4.5634352E7,4.5634368E7,4.5634368E7,4.5634416E7,4.5634448E7,63.991837,-22.605427,146.2295,0.102799,4.952164,180.01317,14.401554,2.475405,0.103323,6.2E-5,7.873708,103.307335,-73.65219,12.0,40.0,0.0,0.0,-69.999855,-70.0,146.2295,2.4E-5,0.006139,282.8959,124.971596,-0.017915,-2.278354,-1508.3911,166.89288
-0.571429,0.0,0.0,0.0,0.0,0.0,0.2,4.5634352E7,4.5634352E7,4.5634368E7,4.5634368E7,4.5634416E7,4.5634448E7,63.991837,-22.605427,146.22952,0.102702,4.951192,180.01315,13.574934,2.497095,0.092357,7.4E-5,7.899107,100.61397,-76.34556,11.960591,39.868637,0.0,0.0,-69.999855,-70.0,146.22952,2.4E-5,0.007816,282.8959,126.86642,-0.017926,-2.212089,-1519.9614,195.5054
-0.571429,0.0,0.0,0.0,0.0,0.0,0.2,4.5634352E7,4.5634352E7,4.5634368E7,4.5634368E7,4.5634416E7,4.5634448E7,63.991837,-22.605427,146.22952,0.10257,4.949949,180.01314,12.762739,2.51929,0.085838,8.4E-5,7.914654,97.91475,-79.04478,11.821826,39.406086,0.0,0.0,-79.999855,-80.0,146.22952,2.3E-5,0.009292,282.8959,128.85391,-0.017933,-2.140116,-1530.9001,222.50565
-0.571429,0.0,0.0,0.0,0.0,0.0,0.2,4.5634352E7,4.5634352E7,4.5634368E7,4.5634368E7,4.5634416E7,4.5634448E7,63.991837,-22.605427,146.22955,0.102405,4.948458,180.01312,11.964944,2.541971,0.081703,9.4E-5,7.925971,95.21347,-81.746056,11.633471,38.778236,0.0,0.0,-79.999855,-80.0,146.22955,2.3E-5,0.010734,282.8959,130.92831,-0.017936,-2.063985,-1541.1042,247.90569
-0.571429,0.0,0.0,0.0,0.0,0.0,0.2,4.5634352E7,4.5634352E7,4.5634368E7,4.5634368E7,4.5634416E7,4.5634448E7,63.991837,-22.605427,146.22957,0.10221,4.946752,180.0131,11.181481,2.565124,0.079028,1.02E-4,7.936446,92.51146,-84.44807,11.426388,38.08796,0.0,0.0,-79.999855,-80.0,146.22957,2.2E-5,0.011875,282.8959,133.08377,-0.017935,-1.985073,-1550.582,271.73273
-0.571429,0.0,0.0,0.0,0.0,0.0,0.2,4.5634352E7,4.5634352E7,4.5634368E7,4.5634368E7,4.5634416E7,4.5634448E7,63.991837,-22.605427,146.22958,0.10199,4.944867,180.01309,10.412259,2.588733,0.077252,1.08E-4,8.03055,89.748726,-87.2108,11.203038,37.34346,0.0,0.0,-79.999855,-80.0,146.22958,2.2E-5,0.012747,282.8959,135.31444,-0.017928,-1.904592,-1561.9307,294.02597
-0.571429,0.0,0.0,0.0,0.0,0.0,0.2,4.5634352E7,4.5634352E7,4.5634368E7,4.5634368E7,4.5634416E7,4.5634448E7,63.991837,-22.605427,146.22961,0.101751,4.942842,180.01308,9.657135,2.612786,0.076273,1.13E-4,7.919586,87.08551,-89.874016,10.96435,36.547832,0.0,0.0,-89.999855,-90.0,146.22961,2.2E-5,0.013619,282.8959,137.61436,-0.017918,-1.823598,-1568.2927,314.834
-0.533478,0.0,0.0,0.0,0.0,0.0,0.2,4.5634352E7,4.5634352E7,4.5634368E7,4.5634368E7,4.5634416E7,4.5634448E7,63.991837,-22.605427,146.22963,0.101522,4.940711,180.01305,8.931902,2.632719,0.074705,1.15E-4,7.953184,84.396866,-92.56266,10.712625,35.708748,0.0,0.0,-89.999855,-90.0,146.22963,2.1E-5,0.014089,282.8959,139.97766,-0.017887,-1.742995,-1575.2461,334.2125
-0.571429,0.0,0.0,0.0,0.0,0.0,0.2,4.5634352E7,4.5634352E7,4.5634368E7,4.5634368E7,4.5634416E7,4.5634448E7,63.991837,-22.605427,146.22966,0.101276,4.938512,180.01303,8.294888,2.628359,0.065475,1.04E-4,7.961693,81.699265,-95.26026,10.449585,34.831947,1.0E-6,0.0,-89.999855,-90.0,146.22966,2.1E-5,0.014022,282.8959,142.39836,-0.017883,-1.663548,-1582.071,352.22116
-0.533478,0.0,0.0,0.0,0.0,0.0,0.2,4.5634352E7,4.5634352E7,4.5634368E7,4.5634368E7,4.5634416E7,4.5634448E7,63.991837,-22.605427,146.22968,0.101044,4.936278,180.013,7.656619,2.624316,0.060449,9.6E-5,7.965245,78.9985,-97.96103,10.176853,33.922832,3.0E-6,0.0,-99.999855,-100.0,146.22968,2.0E-5,0.013519,282.89584,144.87054,-0.017841,-1.585885,-1588.5417,368.92368
-0.510125,0.0,0.0,0.0,0.0,0.0,0.2,4.5634352E7,4.5634352E7,4.5634368E7,4.5634368E7,4.5634416E7,4.5634448E7,63.991837,-22.605427,146.2297,0.100851,4.934037,180.01299,7.01631,2.620587,0.056884,9.0E-5,7.966515,76.2966,-100.662926,9.895955,32.986496,6.0E-6,0.0,-99.999855,-100.0,146.2297,2.0E-5,0.01315,282.89575,147.38829,-0.017806,-1.510508,-1594.6029,384.38657
-0.533478,0.0,0.0,0.0,0.0,0.0,0.2,4.5634352E7,4.5634352E7,4.5634368E7,4.5634368E7,4.5634416E7,4.5634448E7,63.991837,-22.605427,146.22972,0.100654,4.931815,180.01297,6.373766,2.617174,0.053653,8.4E-5,7.967225,73.5943,-103.36523,9.608322,32.027683,1.8E-5,1.0E-6,-99.999855,-100.0,146.22972,2.0E-5,0.012646,282.89554,149.94571,-0.017792,-1.437797,-1600.2563,398.6774
-0.471236,0.0,0.0,0.0,0.0,0.0,0.2,4.5634352E7,4.5634352E7,4.5634368E7,4.5634368E7,4.5634416E7,4.5634448E7,63.991837,-22.605427,146.22975,0.10049,4.929631,180.01295,5.730445,2.614088,0.052569,8.0E-5,7.9676,70.891846,-106.06768,9.315283,31.050816,3.8E-5,1.0E-6,-99.999855,-100.0,146.22975,1.9E-5,0.012244,282.89505,152.53694,-0.01774,-1.368015,-1605.5228,411.86386
-0.533478,0.0,0.0,0.0,0.0,0.0,0.2,4.5634352E7,4.5634352E7,4.5634368E7,4.5634368E7,4.5634416E7,4.5634448E7,63.991837,-22.605427,146.22977,0.100311,4.927504,180.01294,5.084479,2.611321,0.050088,7.4E-5,7.967864,68.18932,-108.7702,9.018083,30.060003,8.3E-5,2.0E-6,-109.999855,-110.0,146.22977,1.9E-5,0.011741,282.89404,155.1562,-0.017743,-1.301317,-1610.4272,424.0133
-0.471236,0.0,0.0,0.0,0.0,0.0,0.2,4.5634352E7,4.5634352E7,4.5634368E7,4.5634368E7,4.5634416E7,4.5634448E7,63.991837,-22.605427,146.22978,0.100151,4.925446,180.01292,4.43845,2.608885,0.050067,7.1E-5,7.968074,65.48677,-111.472755,8.717915,29.059034,2.06E-4,5.0E-6,-109.999855,-110.0,146.22978,1.8E-5,0.011204,282.89218,157.79774,-0.017689,-1.237751,-1614.995,435.2027
-0.533478,1.0E-6,0.0,0.0,0.0,0.0,0.2,4.5634352E7,4.5634352E7,4.5634368E7,4.5634368E7,4.5634416E7,4.5634448E7,63.991837,-22.605427,146.2298,0.099985,4.923469,180.01291,3.790113,2.606774,0.048371,6.6E-5,7.968246,62.784195,-114.17533,8.415672,28.05138,2.61E-4,1.0E-5,-109.999855,-110.0,146.2298,1.8E-5,0.010567,282.88876,160.45589,-0.017689,-1.17727,-1619.2501,445.49945
-0.471236,0.0,0.0,0.0,0.0,0.0,0.2,4.5634352E7,4.5634352E7,4.5634368E7,4.5634368E7,4.5634416E7,4.5634448E7,63.991837,-22.605427,146.22981,0.099842,4.921581,180.0129,3.14197,2.604998,0.04299,5.6E-5,7.968394,60.0816,-116.87792,8.112536,27.040236,4.71E-4,1.7E-5,-109.999855,-110.0,146.22981,1.8E-5,0.011976,282.88284,163.12503,-0.017634,-1.119742,-1623.2148,454.9636
-0.400734,5.0E-6,0.0,0.0,0.0,0.0,0.2,4.5634352E7,4.5634352E7,4.5634368E7,4.5634368E7,4.5634416E7,4.5634448E7,63.991837,-22.605427,146.22983,0.099781,4.919785,180.0129,2.493073,2.603554,0.049854,6.1E-5,7.968519,57.37899,-119.580536,7.809464,26.02854,9.11E-4,3.1E-5,-119.999855,-120.0,146.22983,1.7E-5,0.009594,282.87296,165.79967,-0.017577,-1.065023,-1626.9099,463.6527
-0.471236,0.0,0.0,0.0,0.0,0.0,0.2,4.5634352E7,4.5634352E7,4.5634368E7,4.5634368E7,4.5634416E7,4.5634448E7,63.991837,-22.605427,146.22984,0.099704,4.918086,180.01288,1.842068,2.602442,0.048463,5.6E-5,8.052101,54.615906,-122.34362,7.507336,25.01942,0.001526,5.2E-5,-119.999855,-120.0,146.22984,1.7E-5,0.009024,282.85687,168.47441,-0.017588,-1.012978,-1632.8005,471.62164
-0.371836,1.8E-5,0.0,0.0,0.0,0.0,0.2,4.5634352E7,4.5634352E7,4.5634368E7,4.5634368E7,4.5634416E7,4.5634448E7,63.991837,-22.605427,146.22986,0.099659,4.916484,180.01288,1.192179,2.601667,0.050273,5.5E-5,7.93186,51.952435,-125.00709,7.206885,24.014462,0.002573,8.6E-5,-119.999855,-120.0,146.22986,1.7E-5,0.00852,282.8315,171.14394,-0.017527,-0.963476,-1634.2996,478.9227
-0.471236,0.0,0.0,0.0,0.0,0.0,0.22,4.5634352E7,4.5634352E7,4.5634368E7,4.5634368E7,4.5634416E7,4.5634448E7,63.991837,-22.605427,146.22989,0.099525,4.914734,180.01286,0.537826,2.601645,0.063336,1.11E-4,7.95647,49.26356,-127.69596,6.899397,22.98101,0.005135,1.38E-4,-129.99986,-130.0,146.22989,1.6E-5,0.014357,282.79242,173.80309,-0.017611,-0.916397,-1636.7001,540.0775
-0.371836,1.8E-5,0.0,0.0,0.0,0.0,0.22,4.5634352E7,4.5634352E7,4.5634368E7,4.5634368E7,4.5634416E7,4.5634448E7,63.991837,-22.605427,146.22992,0.099041,4.911216,180.01282,-0.116266,2.602595,0.058295,2.03E-4,7.952217,46.560104,-130.39941,6.559887,21.844616,0.006568,2.18E-4,-129.99986,-130.0,146.22992,1.6E-5,0.028144,282.73148,176.44678,-0.01766,-0.871633,-1639.4875,606.8678
-0.3283,1.03E-4,0.0,0.0,0.0,0.0,0.24,4.5634352E7,4.5634352E7,4.5634368E7,4.5634368E7,4.5634416E7,4.5634448E7,63.991837,-22.605427,146.22997,0.098312,4.905772,180.01276,-0.715238,2.603787,0.054171,2.76E-4,7.968488,44.06759,-132.89194,6.229299,20.72864,0.010807,3.32E-4,-129.99986,-130.0,146.22997,5.0E-5,0.04059,282.64484,178.85239,-0.017696,-0.832534,-1642.4729,662.7027
-0.371836,1.8E-5,0.0,0.0,0.0,0.0,0.26,4.5634352E7,4.5634352E7,4.5634368E7,4.5634368E7,4.5634416E7,4.5634448E7,63.991837,-22.605427,146.23006,0.097202,4.897635,180.01266,-1.368181,2.605219,0.051124,3.35E-4,7.955474,41.38005,-135.57947,5.851007,19.44982,0.016219,5.24E-4,-129.99986,-130.0,146.23006,1.24E-4,0.051358,282.49734,181.45282,-0.017722,-0.791892,-1644.2706,717.6914
-0.3283,1.03E-4,0.0,0.0,0.0,0.0,0.26,4.5634352E7,4.5634352E7,4.5634368E7,4.5634368E7,4.5634416E7,4.5634448E7,63.991837,-22.605427,146.23015,0.095759,4.886869,180.01254,-2.073075,2.606861,0.04933,3.76E-4,7.971159,38.46149,-138.49803,5.432528,18.016973,0.027693,8.56E-4,-139.99986,-140.0,146.23015,2.2E-4,0.059174,282.23892,184.23659,-0.017673,-0.750109,-1646.366,770.46136
-0.277855,3.24E-4,0.0,0.0,0.0,0.0,0.26,4.5634352E7,4.5634352E7,4.5634368E7,4.5634368E7,4.5634416E7,4.5634448E7,63.991837,-22.605427,146.23026,0.094338,4.876054,180.01239,-2.721219,2.609769,0.038064,3.94E-4,7.97091,35.758106,-141.20142,5.042194,16.6717,0.041085,0.001337,-139.99986,-140.0,146.23026,3.23E-4,0.059442,281.85815,186.77061,-0.017603,-0.713511,-1648.5214,812.96234
-0.3283,1.03E-4,0.0,0.0,0.0,0.0,0.26,4.5634352E7,4.5634352E7,4.5634368E7,4.5634368E7,4.5634416E7,4.5634448E7,63.991837,-22.605427,146.23035,0.092833,4.867216,180.01224,-3.362867,2.617645,0.021386,4.47E-4,7.972316,33.055172,-143.90436,4.668441,15.343451,0.066026,0.002066,-139.99986,-140.0,146.23035,5.0E-4,0.049311,281.27094,189.26599,-0.017527,-0.678712,-1650.5132,849.7026
-0.238167,3.24E-4,0.0,0.0,0.0,0.0,0.26,4.5634352E7,4.5634352E7,4.5634368E7,4.5634368E7,4.5634416E7,4.5634448E7,63.991837,-22.605427,146.23042,0.091356,4.861148,180.012,-3.991073,2.630194,0.013273,5.16E-4,7.975328,30.35238,-146.60715,4.315176,14.057869,0.098757,0.003141,-139.99986,-140.0,146.23042,8.39E-4,0.044548,280.3893,191.71857,-0.01741,-0.645615,-1652.3644,880.9839
-0.3283,8.22E-4,0.0,0.0,0.0,0.0,0.26,4.5634352E7,4.5634352E7,4.5634368E7,4.5634368E7,4.5634416E7,4.5634448E7,63.991837,-22.605427,146.23048,0.089891,4.857245,180.01175,-4.60832,2.646873,0.010378,6.57E-4,7.979732,27.649622,-149.3099,4.027142,12.81944,0.182714,0.004682,-149.99986,-150.0,146.23048,0.00142,0.041428,279.1014,194.12434,-0.017371,-0.614142,-1654.0887,907.17676
-0.3283,1.03E-4,0.0,0.0,0.0,0.0,0.26,4.5634352E7,4.5634352E7,4.5634368E7,4.5634368E7,4.5634416E7,4.5634448E7,63.991837,-22.605427,146.23056,0.08848,4.854894,180.0114,-5.204008,2.667079,0.008858,8.26E-4,7.985211,24.946863,-152.01266,3.675314,11.631671,0.187861,0.006829,-149.99986,-150.0,146.23056,0.002308,0.039214,277.2703,196.47946,-0.017145,-0.584223,-1655.6958,928.6924
-0.238167,3.24E-4,0.0,0.0,0.0,0.0,0.26,4.5634352E7,4.5634352E7,4.5634368E7,4.5634368E7,4.5634416E7,4.5634448E7,63.991837,-22.605427,146.23064,0.087254,4.853599,180.01099,-5.7883,2.69029,0.008281,0.001058,7.991672,22.244095,-154.71542,3.415865,10.497329,0.269587,0.009736,-149.99986,-150.0,146.23064,0.003558,0.042602,274.7371,198.78029,-0.01645,-0.555771,-1657.1936,945.96106
-0.3283,0.003654,0.0,0.0,0.0,0.0,0.26,4.5634352E7,4.5634352E7,4.5634368E7,4.5634368E7,4.5634416E7,4.5634448E7,63.991837,-22.605427,146.23071,0.086152,4.852903,180.0105,-6.358943,2.715965,0.007819,0.001299,7.998919,19.541319,-157.41821,3.236582,9.418593,0.415072,0.01356,-149.99986,-150.0,146.23071,0.005211,0.052733,271.33044,201.02332,-0.015753,-0.528719,-1658.5894,959.4161
-0.238167,1.03E-4,0.0,0.0,0.0,0.0,0.26,4.5634352E7,4.5634352E7,4.5634368E7,4.5634368E7,4.5634416E7,4.5634448E7,63.991837,-22.605427,146.2308,0.085217,4.852686,180.00995,-6.912821,2.743582,0.007506,0.001555,8.006797,16.838535,-160.12099,3.016993,8.397161,0.503374,0.018431,-159.99986,-160.0,146.2308,0.007298,0.056624,266.8855,203.20526,-0.014956,-0.502994,-1659.8896,969.4818
-0.3283,0.003654,0.0,0.0,0.0,0.0,0.26,4.5634352E7,4.5634352E7,4.5634368E7,4.5634368E7,4.5634416E7,4.5634448E7,63.991837,-22.605427,146.23093,0.084406,4.852718,180.00934,-7.454148,2.772705,0.007333,0.001836,7.969035,14.105605,-162.85393,3.038963,7.434353,0.815983,0.024421,-159.99986,-160.0,146.23093,0.009839,0.068834,261.2743,205.323,-0.014195,-0.478534,-1662.2032,976.5648
-0.238167,1.03E-4,0.0,0.0,0.0,0.0,0.26,4.5634352E7,4.5634352E7,4.5634368E7,4.5634368E7,4.5634416E7,4.5634448E7,63.991837,-22.605427,146.23105,0.083768,4.852922,180.00867,-7.980019,2.8029,0.007186,0.002121,8.005734,11.422348,-165.53717,2.969255,6.530942,1.01942,0.03149,-159.99986,-160.0,146.23105,0.012847,0.08081,254.44794,207.3736,-0.013319,-0.455273,-1662.4995,981.0499
-0.106205,0.01632,0.0,0.0,0.0,0.0,0.26,4.5634352E7,4.5634352E7,4.5634368E7,4.5634368E7,4.5634416E7,4.5634448E7,63.991837,-22.605427,146.23119,0.083428,4.852783,180.00795,-8.492874,2.833812,0.007213,0.002457,8.063638,8.635827,-168.3237,3.129127,5.687503,1.434716,0.039465,-169.99986,-170.0,146.23119,0.016326,0.087787,246.48633,209.35432,-0.012432,-0.433149,-1666.7626,983.29346
-0.238167,1.03E-4,0.0,0.0,0.0,0.0,0.26,4.5634352E7,4.5634352E7,4.5634368E7,4.5634368E7,4.5634416E7,4.5634448E7,63.991837,-22.605427,146.23135,0.08316,4.852793,180.0072,-8.997147,2.865157,0.00708,0.002736,7.937272,5.9583,-171.00122,3.223021,4.90412,1.766184,0.047997,-169.99986,-170.0,146.23135,0.020272,0.096006,237.6431,211.26265,-0.011688,-0.412112,-1666.4857,983.62585
-0.08125,0.028694,0.0,0.0,0.0,0.0,0.26,4.5634352E7,4.5634352E7,4.5634368E7,4.5634368E7,4.5634416E7,4.5634448E7,63.991837,-22.605427,146.23154,0.083051,4.852366,180.00633,-9.48807,2.896622,0.007101,0.003069,8.092936,3.239813,-173.71971,3.504757,4.180577,2.267545,0.056537,-169.99986,-170.0,146.23154,0.024678,0.111235,228.36551,213.0962,-0.010812,-0.392115,-1667.9071,982.34705
-0.238167,1.03E-4,0.0,0.0,0.0,0.0,0.26,4.5634352E7,4.5634352E7,4.5634368E7,4.5634368E7,4.5634416E7,4.5634448E7,63.991837,-22.605427,146.23174,0.08298,4.852178,180.00533,-9.97629,2.92807,0.007015,0.003349,8.044915,0.495628,-176.4639,3.727228,3.516452,2.691634,0.064474,-169.99986,-170.0,146.23174,0.02953,0.113114,219.2643,214.85286,-0.009858,-0.37311,-1670.1787,979.72833
-0.08125,0.028694,0.0,0.0,0.0,0.0,0.26,4.5634352E7,4.5634352E7,4.5634368E7,4.5634368E7,4.5634416E7,4.5634448E7,63.991837,-22.605427,146.23195,0.083053,4.851863,180.00427,-10.445121,2.959159,0.007027,0.003667,7.993539,-2.125387,-179.08492,4.058119,2.911252,3.206101,0.071194,-179.99986,-180.0,146.23195,0.034813,0.130758,211.01689,216.53062,-0.009382,-0.355053,-1667.524,976.01495
-0.050235,0.053833,0.0,0.0,0.0,0.0,0.26,4.5634352E7,4.5634352E7,4.5634368E7,4.5634368E7,4.5634416E7,4.5634448E7,63.991837,-22.605427,146.2322,0.083317,4.850148,180.00308,-10.911274,2.989888,0.007011,0.003962,8.05147,-4.799383,-181.75891,4.312008,2.36463,3.625533,0.076377,-179.99986,-180.0,146.2322,0.040508,0.146122,204.2125,218.12776,-0.008903,-0.337888,-1667.0856,971.42365
-0.08125,0.028694,0.0,0.0,0.0,0.0,0.26,4.5634352E7,4.5634352E7,4.5634368E7,4.5634368E7,4.5634416E7,4.5634448E7,63.991837,-22.605427,146.23245,0.083614,4.8488,180.00185,-11.371336,3.020106,0.006967,0.004231,8.077038,-7.492023,-184.45155,4.577247,1.876462,4.0383,0.079972,-179.99986,-180.0,146.23245,0.046591,0.14894,199.18842,219.64268,-0.008509,-0.321571,-1667.3925,966.1472
-0.03378,0.072511,0.0,0.0,0.0,0.0,0.26,4.5634352E7,4.5634352E7,4.5634368E7,4.5634368E7,4.5634416E7,4.5634448E7,63.991837,-22.605427,146.23273,0.083965,4.847058,180.00053,-11.824503,3.049717,0.006968,0.004515,8.091871,-10.19123,-187.15076,4.747547,1.446839,4.338156,0.082203,-179.99986,-180.0,146.23273,0.05304,0.166785,195.93495,221.07402,-0.008088,-0.306062,-1667.9283,960.3554
-0.08125,0.028694,0.0,0.0,0.0,0.0,0.26,4.5634352E7,4.5634352E7,4.5634368E7,4.5634368E7,4.5634416E7,4.5634448E7,63.991837,-22.605427,146.23302,0.084334,4.8459,179.99918,-12.273714,3.078682,0.006876,0.004726,8.10237,-12.892743,-189.85226,4.970856,1.076022,4.673101,0.083506,-189.99986,-190.0,146.23302,0.059831,0.168463,194.13025,222.42062,-0.007743,-0.291318,-1668.5133,954.1967
-0.03378,0.028694,0.0,0.0,0.0,0.0,0.26,4.5634352E7,4.5634352E7,4.5634368E7,4.5634368E7,4.5634416E7,4.5634448E7,63.991833,-22.605427,146.23332,0.084747,4.846052,179.99771,-12.717215,3.106935,0.006886,0.004992,8.193036,-15.655549,-192.61508,4.834109,0.764192,4.630137,0.084288,-189.99986,-190.0,146.23332,0.066939,0.175306,193.29585,223.68146,-0.00738,-0.277309,-1671.4777,947.7998
-0.015372,0.093462,0.0,0.0,0.0,0.0,0.26,4.5634352E7,4.5634352E7,4.5634368E7,4.5634368E7,4.5634416E7,4.5634448E7,63.991833,-22.605427,146.23358,0.085127,4.844878,179.99643,-13.091218,3.130027,0.006974,0.005266,8.075131,-17.872585,-194.8321,4.938798,0.549495,4.799388,0.084794,-189.99986,-190.0,146.23358,0.073087,0.189261,193.0146,224.66608,-0.007066,-0.266166,-1670.4336,942.3684
-0.03378,0.028694,0.0,0.0,0.0,0.0,0.26,4.5634352E7,4.5634352E7,4.5634368E7,4.5634368E7,4.5634416E7,4.5634448E7,63.991833,-22.605427,146.23396,0.085696,4.843781,179.99458,-13.593282,3.161295,0.006869,0.005466,8.072495,-21.033245,-197.99277,4.890909,0.317737,4.82122,0.085444,-199.99986,-200.0,146.23396,0.08201,0.191273,192.89256,225.94289,-0.006821,-0.251345,-1671.1667,934.7217
-0.00785,0.095988,0.0,0.0,0.0,0.0,0.26,4.5634352E7,4.5634352E7,4.5634368E7,4.5634368E7,4.5634416E7,4.5634448E7,63.991833,-22.605427,146.23431,0.086193,4.842421,179.9929,-14.025779,3.187396,0.006915,0.00573,8.113133,-23.714733,-200.67426,4.867958,0.182744,4.838928,0.085978,-199.99986,-200.0,146.23431,0.089924,0.213077,192.87148,226.94243,-0.006557,-0.239324,-1670.7446,928.21606
-0.03378,0.028694,0.0,0.0,0.0,0.0,0.26,4.5634352E7,4.5634352E7,4.5634368E7,4.5634368E7,4.5634416E7,4.5634448E7,63.991833,-22.605427,146.23468,0.086677,4.841636,179.99117,-14.455883,3.212808,0.006852,0.005893,8.214375,-26.470491,-203.43002,4.845995,0.106209,4.840079,0.086487,-199.99986,-200.0,146.23468,0.09806,0.206704,192.86668,227.85414,-0.006357,-0.2279,-1673.266,921.82654
-0.00785,0.095988,0.0,0.0,0.0,0.0,0.26,4.5634352E7,4.5634352E7,4.5634368E7,4.5634368E7,4.5634416E7,4.5634448E7,63.991833,-22.605427,146.23505,0.087172,4.840681,179.98936,-14.882651,3.237544,0.006897,0.006139,8.107245,-29.131453,-206.09097,4.840987,0.087005,4.840987,0.087005,-199.99986,-200.0,146.23505,0.106396,0.223879,192.86456,228.67795,-0.006142,-0.217045,-1671.9043,915.6096
-0.03378,0.095988,0.0,0.0,0.0,0.0,0.26,4.5634352E7,4.5634352E7,4.5634368E7,4.5634368E7,4.5634416E7,4.5634448E7,63.991833,-22.605427,146.23544,0.087645,4.838423,179.98752,-15.307583,3.261656,0.006917,0.006355,8.131238,-31.870329,-208.82985,4.838933,0.087511,4.838933,0.087511,-209.99986,-210.0,146.23544,0.114911,0.229246,192.8626,229.41397,-0.005941,-0.206729,-1673.647,909.6097
-0.00785,0.095988,0.0,0.0,0.0,0.0,0.26,4.5634352E7,4.5634352E7,4.5634368E7,4.5634368E7,4.5634416E7,4.5634448E7,63.991833,-22.605427,146.23584,0.088124,4.836535,179.98555,-15.730271,3.285175,0.006889,0.006516,8.076619,-34.56515,-211.52467,4.836909,0.088006,4.836909,0.088006,-209.99986,-210.0,146.23584,0.123584,0.236324,192.86058,230.06248,-0.005532,-0.196935,-1673.4884,903.863
-0.00125,0.096779,0.0,0.0,0.0,0.0,0.26,4.5634352E7,4.5634352E7,4.5634368E7,4.5634368E7,4.5634416E7,4.5634448E7,63.991833,-22.605427,146.23625,0.088622,4.835097,179.98341,-16.15116,3.308149,0.006909,0.006714,8.086926,-37.265137,-214.22467,4.835327,0.08852,4.835327,0.08852,-209.99986,-210.0,146.23625,0.132397,0.238404,192.8584,230.62393,-0.004734,-0.187647,-1673.533,898.39716
-0.00785,0.095988,0.0,0.0,0.0,0.0,0.26,4.5634352E7,4.5634352E7,4.5634368E7,4.5634368E7,4.5634416E7,4.5634448E7,63.991833,-22.605427,146.23666,0.089097,4.834036,179.98122,-16.568686,3.330595,0.006871,0.006847,8.138799,-39.9368,-216.89632,4.834185,0.089008,4.834185,0.089008,-209.99986,-210.0,146.23666,0.141332,0.241725,192.85617,231.09892,-0.003861,-0.178823,-1672.5425,893.2327
-0.00125,0.096779,0.0,0.0,0.0,0.0,0.26,4.5634352E7,4.5634352E7,4.5634368E7,4.5634368E7,4.5634416E7,4.5634448E7,63.991833,-22.605427,146.23709,0.089555,4.833246,179.97899,-16.98359,3.352566,0.006873,0.007011,8.115561,-42.664524,-219.62405,4.833359,0.089467,4.833359,0.089467,-219.99986,-220.0,146.23709,0.150373,0.250379,192.85396,231.48825,-0.003046,-0.170436,-1673.7286,888.3829
-0.001272,0.096684,0.0,0.0,0.0,0.0,0.26,4.5634352E7,4.5634352E7,4.5634368E7,4.5634368E7,4.5634416E7,4.5634448E7,63.991833,-22.605427,146.23753,0.090008,4.832647,179.97673,-17.396225,3.374116,0.006865,0.007156,8.145481,-45.391045,-222.35057,4.832732,0.089921,4.832732,0.089921,-219.99986,-220.0,146.23753,0.159504,0.253533,192.8517,231.79282,-0.002308,-0.162464,-1674.844,883.8562
-0.00125,0.096779,0.0,0.0,0.0,0.0,0.26,4.5634352E7,4.5634352E7,4.5634368E7,4.5634368E7,4.5634416E7,4.5634448E7,63.991833,-22.605427,146.23798,0.090444,4.832194,179.97444,-17.806564,3.395289,0.00686,0.007299,8.096897,-48.081543,-225.04106,4.832259,0.090359,4.832259,0.090359,-219.99986,-220.0,146.23798,0.168712,0.260644,192.84943,232.01372,-0.001641,-0.154887,-1674.4098,879.65625
-0.001285,0.096655,0.0,0.0,0.0,0.0,0.26,4.5634352E7,4.5634352E7,4.5634368E7,4.5634368E7,4.5634416E7,4.5634448E7,63.991833,-22.605427,146.23842,0.090859,4.831859,179.97212,-18.214643,3.416132,0.006869,0.00745,8.147215,-50.8007,-227.76022,4.831906,0.090777,4.831906,0.090777,-229.99986,-230.0,146.23842,0.177985,0.263999,192.8471,232.15215,-0.001042,-0.147686,-1675.184,875.7821
-0.00125,0.096779,0.0,0.0,0.0,0.0,0.26,4.5634352E7,4.5634352E7,4.5634368E7,4.5634368E7,4.5634416E7,4.5634448E7,63.991833,-22.605427,146.23888,0.091269,4.831605,179.96977,-18.620245,3.436687,0.00687,0.007588,8.147874,-53.458466,-230.41798,4.831643,0.091187,4.831643,0.091187,-229.99986,-230.0,146.23888,0.187312,0.269835,192.84477,232.20947,-4.88E-4,-0.140842,-1673.5197,872.2299
-0.001285,0.096655,0.0,0.0,0.0,0.0,0.26,4.5634352E7,4.5634352E7,4.5634368E7,4.5634368E7,4.5634416E7,4.5634448E7,63.99183,-22.605427,146.23935,0.09166,4.831413,179.96739,-19.02335,3.456995,0.006875,0.007724,8.178696,-56.145443,-233.10497,4.831441,0.09158,4.831441,0.09158,-229.99986,-230.0,146.23935,0.196681,0.271848,192.84239,232.1872,2.2E-5,-0.134338,-1673.083,868.99194
-0.00125,0.096779,0.0,0.0,0.0,0.0,0.26,4.5634352E7,4.5634352E7,4.5634368E7,4.5634368E7,4.5634416E7,4.5634448E7,63.99183,-22.605427,146.23982,0.09204,4.83127,179.96498,-19.42405,3.477103,0.006872,0.007846,8.191854,-58.84271,-235.80223,4.83129,0.091963,4.83129,0.091963,-229.99986,-230.0,146.23982,0.206083,0.276209,192.84,232.08691,4.77E-4,-0.128157,-1673.0654,866.0585
-0.001303,0.096633,0.0,0.0,0.0,0.0,0.26,4.5634352E7,4.5634352E7,4.5634368E7,4.5634368E7,4.5634416E7,4.5634448E7,63.99183,-22.605427,146.2403,0.092398,4.831159,179.96254,-19.821817,3.497039,0.006876,0.007973,8.198353,-61.543602,-238.50313,4.831176,0.092321,4.831176,0.092321,-239.99986,-240.0,146.2403,0.215512,0.281408,192.83755,231.9104,9.05E-4,-0.122283,-1673.1826,863.4176
-0.00125,0.096655,0.0,0.0,0.0,0.0,0.26,4.5634352E7,4.5634352E7,4.5634368E7,4.5634368E7,4.5634416E7,4.5634448E7,63.99183,-22.605427,146.2408,0.092742,4.831082,179.96007,-20.21715,3.51685,0.006857,0.008069,8.202989,-64.24578,-241.2053,4.831093,0.092669,4.831093,0.092669,-239.99986,-240.0,146.2408,0.224958,0.285937,192.8351,231.65947,0.001285,-0.116702,-1673.3353,861.05597
-0.001303,0.096626,0.0,0.0,0.0,0.0,0.26,4.5634352E7,4.5634352E7,4.5634368E7,4.5634368E7,4.5634416E7,4.5634448E7,63.99183,-22.605427,146.24129,0.093059,4.831029,179.95757,-20.60961,3.536447,0.006869,0.008198,6.678976,-66.39103,-243.35056,4.831038,0.092989,4.831038,0.092989,-239.99986,-240.0,146.24129,0.234417,0.290097,192.8326,231.33614,0.001636,-0.111399,-1651.3033,858.96136
-0.00125,0.096633,0.0,0.0,0.0,0.0,0.26,4.5634352E7,4.5634352E7,4.5634368E7,4.5634368E7,4.5634416E7,4.5634448E7,63.99183,-22.605427,146.24179,0.093352,4.831,179.95505,-20.99917,3.5559,0.006871,0.008313,4.791507,-67.19744,-244.15697,4.831004,0.093286,4.831004,0.093286,-239.99986,-240.0,146.24179,0.243882,0.294357,192.83008,230.94244,0.00195,-0.10636,-1576.2396,857.126
-0.001303,0.096655,0.0,0.0,0.0,0.0,0.26,4.5634352E7,4.5634352E7,4.5634368E7,4.5634368E7,4.5634416E7,4.5634448E7,63.99183,-22.605427,146.2423,0.093629,4.830986,179.9525,-21.385744,3.575306,0.006863,0.008412,3.908872,-67.48672,-244.44624,4.830987,0.093565,4.830987,0.093565,-239.99986,-240.0,146.2423,0.253348,0.298516,192.82753,230.48058,0.00224,-0.101571,-1480.3716,855.53326
-0.00125,0.096633,0.0,0.0,0.0,0.0,0.26,4.5634352E7,4.5634352E7,4.5634368E7,4.5634368E7,4.5634416E7,4.5634448E7,63.99183,-22.605427,146.24281,0.09389,4.830978,179.94992,-21.769186,3.594691,0.006879,0.008538,3.525429,-67.59396,-244.55348,4.830979,0.093827,4.830979,0.093827,-239.99986,-240.0,146.24281,0.26281,0.301166,192.82497,229.95279,0.002511,-0.097021,-1376.824,854.1653
-0.001337,0.09662,0.0,0.0,0.0,0.0,0.26,4.5634352E7,4.5634352E7,4.5634368E7,4.5634368E7,4.5634416E7,4.5634448E7,63.99183,-22.605427,146.24326,0.094103,4.830983,179.94775,-22.086187,3.610846,0.006855,0.008597,3.404427,-67.63215,-244.59167,4.830981,0.094042,4.830981,0.094042,-239.99986,-240.0,146.24326,0.270691,0.30536,192.8228,229.4643,0.002767,-0.093403,-1288.2374,853.18414
-0.00125,0.096633,0.0,0.0,0.0,0.0,0.26,4.5634352E7,4.5634352E7,4.5634368E7,4.5634368E7,4.5634416E7,4.5634448E7,63.99183,-22.605427,146.24387,0.094377,4.831004,179.94469,-22.52636,3.633498,0.006868,0.008733,3.339991,-67.65786,-244.61739,4.831,0.094319,4.831,0.094319,-239.99986,-240.0,146.24387,0.281714,0.308748,192.81975,228.70892,0.002996,-0.088591,-1162.8755,852.03253
-0.001337,0.09662,0.0,0.0,0.0,0.0,0.26,4.5634352E7,4.5634352E7,4.5634368E7,4.5634368E7,4.5634416E7,4.5634448E7,63.99183,-22.605427,146.2444,0.094599,4.831025,179.94202,-22.900023,3.652965,0.006878,0.008848,3.328475,-67.6705,-244.63004,4.831022,0.094543,4.831022,0.094543,-239.99986,-240.0,146.2444,0.291149,0.313041,192.8171,227.99779,0.003209,-0.08469,-1054.929,851.2331
-0.00125,0.09662,0.0,0.0,0.0,0.0,0.26,4.5634352E7,4.5634352E7,4.5634368E7,4.5634368E7,4.5634416E7,4.5634448E7,63.991825,-22.605427,146.24495,0.094808,4.831051,179.93933,-23.270102,3.672495,0.006872,0.008941,3.327962,-67.6804,-244.63992,4.831046,0.094753,4.831046,0.094753,-239.99986,-240.0,146.24495,0.30057,0.314383,192.81442,227.23058,0.003409,-0.080984,-946.8223,850.5891
-0.001347,0.09662,0.0,0.0,0.0,0.0,0.28,4.5634352E7,4.5634352E7,4.5634368E7,4.5634368E7,4.5634416E7,4.5634448E7,63.991825,-22.605427,146.24544,0.094937,4.831079,179.93686,-23.621151,3.690889,0.006808,0.008949,3.332013,-67.68868,-244.64821,4.831074,0.094929,4.831074,0.094929,-239.99986,-240.0,146.24544,0.309193,0.340716,192.81194,226.48029,0.003593,-0.077751,-847.67633,850.1283
-0.00125,0.09662,0.0,0.0,0.0,0.0,0.34,4.5634352E7,4.5634352E7,4.5634368E7,4.5634368E7,4.5634416E7,4.5634448E7,63.991825,-22.605427,146.246,0.095132,4.831116,179.93411,-23.824028,3.705997,0.006789,0.009021,3.336409,-67.69727,-244.6568,4.83111,0.095125,4.83111,0.095125,-239.99986,-240.0,146.246,0.318584,0.345714,192.8092,225.613,0.003766,-0.074394,-739.48596,850.1077
-0.001356,0.096621,0.0,0.0,0.0,0.0,0.36,4.5634352E7,4.5634352E7,4.5634368E7,4.5634368E7,4.5634416E7,4.5634448E7,63.991825,-22.605427,146.2466,0.095365,4.831155,179.93109,-23.748795,3.71405,0.006873,0.009242,3.344302,-67.70589,-244.6654,4.83115,0.095318,4.83115,0.095318,-239.99986,-240.0,146.2466,0.328741,0.326828,192.8062,224.61906,0.003926,-0.070949,-622.22205,851.54626
-0.00125,0.09662,0.0,0.0,0.0,0.0,0.36,4.5634352E7,4.5634352E7,4.5634368E7,4.5634368E7,4.5634416E7,4.5634448E7,63.991825,-22.605427,146.24716,0.095466,4.831189,179.92828,-23.691559,3.722134,0.006858,0.009325,3.352897,-67.71359,-244.67313,4.831184,0.09543,4.831184,0.09543,-239.99986,-240.0,146.24716,0.338103,0.332363,192.80339,223.65434,0.004074,-0.067939,-513.95636,854.3928
-0.001362,0.096623,0.0,0.0,0.0,0.0,0.36,4.5634352E7,4.5634352E7,4.5634368E7,4.5634368E7,4.5634416E7,4.5634448E7,63.991825,-22.605427,146.24774,0.095503,4.831224,179.9254,-23.631872,3.730632,0.006857,0.009432,3.362143,-67.72125,-244.68079,4.831218,0.095476,4.831218,0.095476,-239.99986,-240.0,146.24774,0.347461,0.336221,192.80052,222.64717,0.004226,-0.065087,-405.68994,858.4383
-0.00125,0.09662,0.0,0.0,0.0,0.0,0.36,4.5634352E7,4.5634352E7,4.5634368E7,4.5634368E7,4.5634416E7,4.5634448E7,63.991825,-22.605427,146.24832,0.095475,4.831268,179.92247,-23.56871,3.739668,0.006869,0.009564,3.37202,-67.7289,-244.68842,4.83126,0.095458,4.83126,0.095458,-239.99986,-240.0,146.24832,0.356826,0.340045,192.79759,221.60037,0.004387,-0.062386,-297.43198,863.44714
-0.001362,0.096623,0.0,0.0,0.0,0.0,0.36,4.5634352E7,4.5634352E7,4.5634368E7,4.5634368E7,4.5634416E7,4.5634448E7,63.991825,-22.605427,146.2489,0.095396,4.831331,179.91946,-23.501484,3.749353,0.006856,0.00967,3.382608,-67.73652,-244.69604,4.83132,0.095386,4.83132,0.095386,-239.99986,-240.0,146.2489,0.366209,0.347526,192.79459,220.51682,0.004559,-0.059831,-189.19795,869.2062
-0.001364,0.096625,0.0,0.0,0.0,0.0,0.36,4.5634352E7,4.5634352E7,4.5634368E7,4.5634368E7,4.5634416E7,4.5634448E7,63.991825,-22.605427,146.2495,0.095264,4.831405,179.91638,-23.42978,3.759771,0.006868,0.00982,3.393638,-67.74424,-244.70377,4.831393,0.095262,4.831393,0.095262,-239.99986,-240.0,146.2495,0.375625,0.34511,192.79152,219.39935,0.00474,-0.057414,-81.05439,875.5243
-0.001362,0.096623,0.0,0.0,0.0,0.0,0.36,4.5634352E7,4.5634352E7,4.5634368E7,4.5634368E7,4.5634416E7,4.5634448E7,63.991825,-22.605427,146.2501,0.095088,4.831496,179.91321,-23.353163,3.770985,0.006867,0.009961,3.40609,-67.751785,-244.7113,4.831482,0.095092,4.831482,0.095092,-239.99986,-240.0,146.2501,0.38509,0.355778,192.78835,218.25087,0.004945,-0.05513,-19.586647,882.2317
-0.001361,0.096628,0.0,0.0,0.0,0.0,0.42,4.5634352E7,4.5634352E7,4.5634368E7,4.5634368E7,4.5634416E7,4.5634448E7,63.991825,-22.605427,146.25067,0.094835,4.831594,179.91023,-23.29431,3.782454,0.00682,0.010033,3.418477,-67.758835,-244.71837,4.831577,0.094892,4.831577,0.094892,-239.99986,-240.0,146.25067,0.393824,0.379192,192.78537,217.17331,0.00517,-0.053149,-16.867994,888.65967
-0.001362,0.096623,0.0,0.0,0.0,0.0,0.44,4.5634352E7,4.5634352E7,4.5634368E7,4.5634368E7,4.5634416E7,4.5634448E7,63.99182,-22.605427,146.25134,0.09463,4.831725,179.90657,-23.184158,3.796026,0.006884,0.010305,3.433282,-67.767006,-244.72653,4.831706,0.094644,4.831706,0.094644,-239.99986,-240.0,146.25134,0.404235,0.364332,192.78174,215.8724,0.005404,-0.050941,-17.551748,897.35455
