aileron,elevator,rudder,flaps,slats,speedbrake,throttle,engine-pump0,engine-pump1,electric-pump0,electric-pump1,external-power,APU-generator,latitude-deg,longitude-deg,altitude-ft,roll-deg,pitch-deg,heading-deg,side-slip-deg,airspeed-kt,glideslope,vertical-speed-fps,airspeed-indicator_indicated-speed-kt,altimeter_indicated-altitude-ft,altimeter_pressure-alt-ft,attitude-indicator_indicated-pitch-deg,attitude-indicator_indicated-roll-deg,attitude-indicator_internal-pitch-deg,attitude-indicator_internal-roll-deg,encoder_indicated-altitude-ft,encoder_pressure-alt-ft,gps_indicated-altitude-ft,gps_indicated-ground-speed-kt,gps_indicated-vertical-speed,indicated-heading-offset-deg,indicated-heading-deg,magnetic-compass_indicated-heading-deg,slip-skid-ball_indicated-slip-skid,turn-indicator_indicated-turn-rate,vertical-speed-indicator_indicated-speed-fpm,engine_rpm
0.0,0.0,0.0,0.0,0.0,0.0,1.0,6.0420912E7,6.0420912E7,6.0420928E7,6.0420928E7,6.0420976E7,6.0421008E7,63.985043,-22.592484,-9999.0,0.0,0.424,270.02136,0.0,0.0,0.0,0.0,0.0,0.0,0.0,0.0,0.0,0.0,0.0,0.0,0.0,0.0,0.0,0.0,12.876752,0.0,0.0,0.0,0.0,0.0,0.0
0.0,0.0,0.0,0.0,0.0,0.0,1.0,6.0420912E7,6.0420912E7,6.0420928E7,6.0420928E7,6.0420976E7,6.0421008E7,63.985043,-22.592484,-9999.0,0.0,0.424,270.02136,0.0,0.0,0.0,0.0,0.0,389.08878,1.193444,12.0,40.0,0.0,0.0,0.0,0.0,0.0,0.0,0.0,12.876752,282.89813,0.0,0.0,0.0,0.0,0.0
0.0,0.0,0.0,0.0,0.0,0.0,1.0,6.0420912E7,6.0420912E7,6.0420928E7,6.0420928E7,6.0420976E7,6.0421008E7,63.991837,-22.605425,-9999.0,0.0,0.424,180.01839,0.0,0.0,0.0,0.0,0.0,389.08878,1.193444,12.0,40.0,0.0,0.0,0.0,0.0,0.0,0.0,0.0,12.876752,282.89813,0.0,0.0,0.0,0.0,0.0
0.0,0.0,0.0,0.0,0.0,0.0,1.0,6.0420912E7,6.0420912E7,6.0420928E7,6.0420928E7,6.0420976E7,6.0421008E7,63.991837,-22.605425,-9999.0,0.0,0.424,180.01839,0.0,0.0,0.0,0.0,0.0,389.08878,1.193444,12.0,40.0,0.0,0.0,0.0,0.0,0.0,0.0,0.0,12.876752,282.89813,0.0,0.0,0.0,0.0,0.0
0.0,0.0,0.0,0.0,0.0,0.0,1.0,6.0420912E7,6.0420912E7,6.0420928E7,6.0420928E7,6.0420976E7,6.0421008E7,63.991837,-22.605425,-9999.0,0.0,0.424,180.01839,0.0,0.0,0.0,0.0,0.0,389.08878,1.193444,12.0,40.0,0.0,0.0,0.0,0.0,0.0,0.0,0.0,12.876752,282.89813,0.0,0.0,0.0,0.0,0.0
0.0,0.0,0.0,0.0,0.0,0.0,1.0,6.0420912E7,6.0420912E7,6.0420928E7,6.0420928E7,6.0420976E7,6.0421008E7,63.991837,-22.605425,-9999.0,0.0,0.424,180.01839,0.0,0.0,0.0,0.0,0.0,389.08878,1.193444,12.0,40.0,0.0,0.0,0.0,0.0,0.0,0.0,0.0,12.876752,282.89813,0.0,0.0,0.0,0.0,0.0
0.0,0.0,0.0,0.0,0.0,0.0,1.0,6.0420912E7,6.0420912E7,6.0420928E7,6.0420928E7,6.0420976E7,6.0421008E7,63.991837,-22.605425,-9999.0,0.0,0.424,180.01839,0.0,0.0,0.0,0.0,0.0,389.08878,1.193444,12.0,40.0,0.0,0.0,0.0,0.0,0.0,0.0,0.0,12.876752,282.89813,0.0,0.0,0.0,0.0,0.0
0.0,0.0,0.0,0.0,0.0,0.0,1.0,6.0420912E7,6.0420912E7,6.0420928E7,6.0420928E7,6.0420976E7,6.0421008E7,63.991837,-22.605425,-9999.0,0.0,0.424,180.01839,0.0,0.0,0.0,0.0,0.0,389.08878,1.193444,12.0,40.0,0.0,0.0,0.0,0.0,0.0,0.0,0.0,12.876752,282.89813,0.0,0.0,0.0,0.0,0.0
0.0,0.0,0.0,0.0,0.0,0.0,1.0,6.0420912E7,6.0420912E7,6.0420928E7,6.0420928E7,6.0420976E7,6.0421008E7,63.991837,-22.605425,-9999.0,0.0,0.424,180.01839,0.0,0.0,0.0,0.0,0.0,389.08878,1.193444,12.0,40.0,0.0,0.0,0.0,0.0,0.0,0.0,0.0,12.876752,282.89813,0.0,0.0,0.0,0.0,0.0
0.0,0.0,0.0,0.0,0.0,0.0,1.0,6.0420912E7,6.0420912E7,6.0420928E7,6.0420928E7,6.0420976E7,6.0421008E7,63.991837,-22.605425,-9999.0,0.0,0.424,180.01839,0.0,0.0,0.0,0.0,0.0,389.08878,1.193444,12.0,40.0,0.0,0.0,0.0,0.0,0.0,0.0,0.0,12.876752,282.89813,0.0,0.0,0.0,0.0,0.0
0.0,0.0,0.0,0.0,0.0,0.0,1.0,6.0420912E7,6.0420912E7,6.0420928E7,6.0420928E7,6.0420976E7,6.0421008E7,63.991837,-22.605425,-9999.0,0.0,0.424,180.01839,0.0,0.0,0.0,0.0,0.0,389.08878,1.193444,12.0,40.0,0.0,0.0,0.0,0.0,0.0,0.0,0.0,12.876752,282.89813,0.0,0.0,0.0,0.0,0.0
0.0,0.0,0.0,0.0,0.0,0.0,1.0,6.0420912E7,6.0420912E7,6.0420928E7,6.0420928E7,6.0420976E7,6.0421008E7,63.991837,-22.605425,-9999.0,0.0,0.424,180.01839,0.0,0.0,0.0,0.0,0.0,389.08878,1.193444,12.0,40.0,0.0,0.0,0.0,0.0,0.0,0.0,0.0,12.876752,282.89813,0.0,0.0,0.0,0.0,0.0
0.0,0.0,0.0,0.0,0.0,0.0,1.0,6.0420912E7,6.0420912E7,6.0420928E7,6.0420928E7,6.0420976E7,6.0421008E7,63.991837,-22.605425,-9999.0,0.0,0.424,180.01839,0.0,0.0,0.0,0.0,0.0,389.08878,1.193444,12.0,40.0,0.0,0.0,0.0,0.0,0.0,0.0,0.0,12.876752,282.89813,0.0,0.0,0.0,0.0,0.0
0.0,0.0,0.0,0.0,0.0,0.0,1.0,6.0420912E7,6.0420912E7,6.0420928E7,6.0420928E7,6.0420976E7,6.0421008E7,63.991837,-22.605425,-9999.0,0.0,0.424,180.01839,0.0,0.0,0.0,0.0,0.0,389.08878,1.193444,12.0,40.0,0.0,0.0,0.0,0.0,0.0,0.0,0.0,12.876752,282.89813,0.0,0.0,0.0,0.0,0.0
0.0,0.0,0.0,0.0,0.0,0.0,1.0,6.0420912E7,6.0420912E7,6.0420928E7,6.0420928E7,6.0420976E7,6.0421008E7,63.991837,-22.605425,-9999.0,0.0,0.424,180.01839,0.0,0.0,0.0,0.0,0.0,389.08878,1.193444,12.0,40.0,0.0,0.0,0.0,0.0,0.0,0.0,0.0,12.876752,282.89813,0.0,0.0,0.0,0.0,0.0
0.0,0.0,0.0,0.0,0.0,0.0,1.0,6.0420912E7,6.0420912E7,6.0420928E7,6.0420928E7,6.0420976E7,6.0421008E7,63.991837,-22.605425,-9999.0,0.0,0.424,180.01839,0.0,0.0,0.0,0.0,0.0,389.08878,1.193444,12.0,40.0,0.0,0.0,0.0,0.0,0.0,0.0,0.0,12.876752,282.89813,0.0,0.0,0.0,0.0,0.0
0.0,0.0,0.0,0.0,0.0,0.0,1.0,6.0420912E7,6.0420912E7,6.0420928E7,6.0420928E7,6.0420976E7,6.0421008E7,63.991837,-22.605425,-9999.0,0.0,0.424,180.01839,0.0,0.0,0.0,0.0,0.0,389.08878,1.193444,12.0,40.0,0.0,0.0,0.0,0.0,0.0,0.0,0.0,12.876752,282.89813,0.0,0.0,0.0,0.0,0.0
0.0,0.0,0.0,0.0,0.0,0.0,1.0,6.0420912E7,6.0420912E7,6.0420928E7,6.0420928E7,6.0420976E7,6.0421008E7,63.991837,-22.605425,-9999.0,0.0,0.424,180.01839,0.0,0.0,0.0,0.0,0.0,389.08878,1.193444,12.0,40.0,0.0,0.0,0.0,0.0,0.0,0.0,0.0,12.876752,282.89813,0.0,0.0,0.0,0.0,0.0
0.0,0.0,0.0,0.0,0.0,0.0,1.0,6.0420912E7,6.0420912E7,6.0420928E7,6.0420928E7,6.0420976E7,6.0421008E7,63.991837,-22.605425,-9999.0,0.0,0.424,180.01839,0.0,0.0,0.0,0.0,0.0,389.08878,1.193444,12.0,40.0,0.0,0.0,0.0,0.0,0.0,0.0,0.0,12.876752,282.89813,0.0,0.0,0.0,0.0,0.0
0.0,0.0,0.0,0.0,0.0,0.0,1.0,6.0420912E7,6.0420912E7,6.0420928E7,6.0420928E7,6.0420976E7,6.0421008E7,63.991837,-22.605425,-9999.0,0.0,0.424,180.01839,0.0,0.0,0.0,0.0,0.0,389.08878,1.193444,12.0,40.0,0.0,0.0,0.0,0.0,0.0,0.0,0.0,12.876752,282.89813,0.0,0.0,0.0,0.0,0.0
0.0,0.0,0.0,0.0,0.0,0.0,1.0,6.0420912E7,6.0420912E7,6.0420928E7,6.0420928E7,6.0420976E7,6.0421008E7,63.991837,-22.605425,-9999.0,0.0,0.424,180.01839,0.0,0.0,0.0,0.0,0.0,389.08878,1.193444,12.0,40.0,0.0,0.0,0.0,0.0,0.0,0.0,0.0,12.876752,282.89813,0.0,0.0,0.0,0.0,0.0
0.0,0.0,0.0,0.0,0.0,0.0,1.0,6.0420912E7,6.0420912E7,6.0420928E7,6.0420928E7,6.0420976E7,6.0421008E7,63.991837,-22.605425,-9999.0,0.0,0.424,180.01839,0.0,0.0,0.0,0.0,0.0,389.08878,1.193444,12.0,40.0,0.0,0.0,0.0,0.0,0.0,0.0,0.0,12.876752,282.89813,0.0,0.0,0.0,0.0,0.0
0.0,0.0,0.0,0.0,0.0,0.0,1.0,6.0420912E7,6.0420912E7,6.0420928E7,6.0420928E7,6.0420976E7,6.0421008E7,63.991837,-22.605425,-9999.0,0.0,0.424,180.01839,0.0,0.0,0.0,0.0,0.0,389.08878,1.193444,12.0,40.0,0.0,0.0,0.0,0.0,0.0,0.0,0.0,12.876752,282.89813,0.0,0.0,0.0,0.0,0.0
0.0,0.0,0.0,0.0,0.0,0.0,1.0,6.0420912E7,6.0420912E7,6.0420928E7,6.0420928E7,6.0420976E7,6.0421008E7,63.991837,-22.605425,-9999.0,0.0,0.424,180.01839,0.0,0.0,0.0,0.0,0.0,389.08878,1.193444,12.0,40.0,0.0,0.0,0.0,0.0,0.0,0.0,0.0,12.876752,282.89813,0.0,0.0,0.0,0.0,0.0
0.0,0.0,0.0,0.0,0.0,0.0,0.0,6.0420912E7,6.0420912E7,6.0420928E7,6.0420928E7,6.0420976E7,6.0421008E7,63.991837,-22.605425,-9999.0,0.0,0.424,180.01839,0.0,0.0,0.0,0.0,0.0,389.08878,1.193444,12.0,40.0,0.0,0.0,0.0,0.0,0.0,0.0,0.0,12.876752,282.89813,0.0,0.0,0.0,0.0,0.0
0.0,0.0,0.0,0.0,0.0,0.0,1.0,6.0420912E7,6.0420912E7,6.0420928E7,6.0420928E7,6.0420976E7,6.0421008E7,63.991837,-22.605425,-9999.0,0.0,0.424,180.01839,0.0,0.0,0.0,0.0,0.0,389.08878,1.193444,12.0,40.0,0.0,0.0,0.0,0.0,0.0,0.0,0.0,12.876752,282.89813,0.0,0.0,0.0,0.0,0.0
0.0,0.0,0.0,0.0,0.0,0.0,0.0,6.0420912E7,6.0420912E7,6.0420928E7,6.0420928E7,6.0420976E7,6.0421008E7,63.991837,-22.605425,-9999.0,0.0,0.424,180.01839,0.0,0.0,0.0,0.0,0.0,389.08878,1.193444,12.0,40.0,0.0,0.0,0.0,0.0,0.0,0.0,0.0,12.876752,282.89813,0.0,0.0,0.0,0.0,0.0
0.0,0.0,0.0,0.0,0.0,0.0,0.0,6.0420912E7,6.0420912E7,6.0420928E7,6.0420928E7,6.0420976E7,6.0421008E7,63.991837,-22.605425,-9999.0,0.0,0.424,180.01839,0.0,0.0,0.0,0.0,0.0,389.08878,1.193444,12.0,40.0,0.0,0.0,0.0,0.0,0.0,0.0,0.0,12.876752,282.89813,0.0,0.0,0.0,0.0,0.0
0.0,0.0,0.0,0.0,0.0,0.0,1.0,6.0420912E7,6.0420912E7,6.0420928E7,6.0420928E7,6.0420976E7,6.0421008E7,63.991837,-22.605425,-9999.0,0.0,0.424,180.01839,0.0,0.0,0.0,0.0,0.0,389.08878,1.193444,12.0,40.0,0.0,0.0,0.0,0.0,0.0,0.0,0.0,12.876752,282.89813,0.0,0.0,0.0,0.0,0.0
0.0,0.0,0.0,0.0,0.0,0.0,0.0,6.0420912E7,6.0420912E7,6.0420928E7,6.0420928E7,6.0420976E7,6.0421008E7,63.991837,-22.605425,-9999.0,0.0,0.424,180.01839,0.0,0.0,0.0,0.0,0.0,389.08878,1.193444,12.0,40.0,0.0,0.0,0.0,0.0,0.0,0.0,0.0,12.876752,282.89813,0.0,0.0,0.0,0.0,0.0
0.0,0.0,0.0,0.0,0.0,0.0,1.0,6.0420912E7,6.0420912E7,6.0420928E7,6.0420928E7,6.0420976E7,6.0421008E7,63.991837,-22.605425,-9999.0,0.0,0.424,180.01839,0.0,0.0,0.0,0.0,0.0,389.08878,1.193444,12.0,40.0,0.0,0.0,0.0,0.0,0.0,0.0,0.0,12.876752,282.89813,0.0,0.0,0.0,0.0,0.0
0.0,0.0,0.0,0.0,0.0,0.0,1.0,6.0420912E7,6.0420912E7,6.0420928E7,6.0420928E7,6.0420976E7,6.0421008E7,63.991837,-22.605425,-9999.0,0.0,0.424,180.01839,0.0,0.0,0.0,0.0,0.0,389.08878,1.193444,12.0,40.0,0.0,0.0,0.0,0.0,0.0,0.0,0.0,12.876752,282.89813,0.0,0.0,0.0,0.0,0.0
0.0,0.0,0.0,0.0,0.0,0.0,1.0,6.0420912E7,6.0420912E7,6.0420928E7,6.0420928E7,6.0420976E7,6.0421008E7,63.991837,-22.605425,-9999.0,0.0,0.424,180.01839,0.0,0.0,0.0,0.0,0.0,389.08878,1.193444,12.0,40.0,0.0,0.0,0.0,0.0,0.0,0.0,0.0,12.876752,282.89813,0.0,0.0,0.0,0.0,0.0
0.0,0.0,0.0,0.0,0.0,0.0,1.0,6.0420912E7,6.0420912E7,6.0420928E7,6.0420928E7,6.0420976E7,6.0421008E7,63.991837,-22.605425,-9999.0,0.0,0.424,180.01839,0.0,0.0,0.0,0.0,0.0,389.08878,1.193444,12.0,40.0,0.0,0.0,0.0,0.0,0.0,0.0,0.0,12.876752,282.89813,0.0,0.0,0.0,0.0,0.0
0.0,0.0,0.0,0.0,0.0,0.0,1.0,6.0420912E7,6.0420912E7,6.0420928E7,6.0420928E7,6.0420976E7,6.0421008E7,63.991837,-22.605425,-9999.0,0.0,0.424,180.01839,0.0,0.0,0.0,0.0,0.0,389.08878,1.193444,12.0,40.0,0.0,0.0,0.0,0.0,0.0,0.0,0.0,12.876752,282.89813,0.0,0.0,0.0,0.0,0.0
0.0,0.0,0.0,0.0,0.0,0.0,1.0,6.0420912E7,6.0420912E7,6.0420928E7,6.0420928E7,6.0420976E7,6.0421008E7,63.991837,-22.605425,-9999.0,0.0,0.424,180.01839,0.0,0.0,0.0,0.0,0.0,389.08878,1.193444,12.0,40.0,0.0,0.0,0.0,0.0,0.0,0.0,0.0,12.876752,282.89813,0.0,0.0,0.0,0.0,0.0
0.0,0.0,0.0,0.0,0.0,0.0,1.0,6.0420912E7,6.0420912E7,6.0420928E7,6.0420928E7,6.0420976E7,6.0421008E7,63.991837,-22.605425,-9999.0,0.0,0.424,180.01839,0.0,0.0,0.0,0.0,0.0,389.08878,1.193444,12.0,40.0,0.0,0.0,0.0,0.0,0.0,0.0,0.0,12.876752,282.89813,0.0,0.0,0.0,0.0,0.0
0.0,0.0,0.0,0.0,0.0,0.0,1.0,6.0420912E7,6.0420912E7,6.0420928E7,6.0420928E7,6.0420976E7,6.0421008E7,63.991837,-22.605425,-9999.0,0.0,0.424,180.01839,0.0,0.0,0.0,0.0,0.0,389.08878,1.193444,12.0,40.0,0.0,0.0,0.0,0.0,0.0,0.0,0.0,12.876752,282.89813,0.0,0.0,0.0,0.0,0.0
0.0,0.0,0.0,0.0,0.0,0.0,1.0,6.0420912E7,6.0420912E7,6.0420928E7,6.0420928E7,6.0420976E7,6.0421008E7,63.991837,-22.605425,-9999.0,0.0,0.424,180.01839,0.0,0.0,0.0,0.0,0.0,389.08878,1.193444,12.0,40.0,0.0,0.0,0.0,0.0,0.0,0.0,0.0,12.876752,282.89813,0.0,0.0,0.0,0.0,0.0
0.0,0.0,0.0,0.0,0.0,0.0,1.0,6.0420912E7,6.0420912E7,6.0420928E7,6.0420928E7,6.0420976E7,6.0421008E7,63.991837,-22.605425,-9999.0,0.0,0.424,180.01839,0.0,0.0,0.0,0.0,0.0,389.08878,1.193444,12.0,40.0,0.0,0.0,0.0,0.0,0.0,0.0,0.0,12.876752,282.89813,0.0,0.0,0.0,0.0,0.0
0.0,0.0,0.0,0.0,0.0,0.0,1.0,6.0420912E7,6.0420912E7,6.0420928E7,6.0420928E7,6.0420976E7,6.0421008E7,63.991837,-22.605425,-9999.0,0.0,0.424,180.01839,0.0,0.0,0.0,0.0,0.0,389.08878,1.193444,12.0,40.0,0.0,0.0,0.0,0.0,0.0,0.0,0.0,12.876752,282.89813,0.0,0.0,0.0,0.0,0.0
0.0,0.0,0.0,0.0,0.0,0.0,1.0,6.0420912E7,6.0420912E7,6.0420928E7,6.0420928E7,6.0420976E7,6.0421008E7,63.991837,-22.605425,-9999.0,0.0,0.424,180.01839,0.0,0.0,0.0,0.0,0.0,389.08878,1.193444,12.0,40.0,0.0,0.0,0.0,0.0,0.0,0.0,0.0,12.876752,282.89813,0.0,0.0,0.0,0.0,0.0
0.0,0.0,0.0,0.0,0.0,0.0,1.0,6.0420912E7,6.0420912E7,6.0420928E7,6.0420928E7,6.0420976E7,6.0421008E7,63.991837,-22.605425,-9999.0,0.0,0.424,180.01839,0.0,0.0,0.0,0.0,0.0,389.08878,1.193444,12.0,40.0,0.0,0.0,0.0,0.0,0.0,0.0,0.0,12.876752,282.89813,0.0,0.0,0.0,0.0,0.0
0.0,0.0,0.0,0.0,0.0,0.0,1.0,6.0420912E7,6.0420912E7,6.0420928E7,6.0420928E7,6.0420976E7,6.0421008E7,63.991837,-22.605425,-9999.0,0.0,0.424,180.01839,0.0,0.0,0.0,0.0,0.0,389.08878,1.193444,12.0,40.0,0.0,0.0,0.0,0.0,0.0,0.0,0.0,12.876752,282.89813,0.0,0.0,0.0,0.0,0.0
0.0,0.0,0.0,0.0,0.0,0.0,0.0,6.0420912E7,6.0420912E7,6.0420928E7,6.0420928E7,6.0420976E7,6.0421008E7,63.991837,-22.605427,146.2295,0.104764,4.952322,180.01332,0.0,0.0,0.0,0.0,0.0,389.08878,1.193444,12.0,40.0,0.0,0.0,0.0,0.0,0.0,0.0,0.0,12.876752,282.89813,0.0,0.0,0.0,0.0,0.0
0.0,0.0,0.0,0.0,0.0,0.0,0.0,6.0420912E7,6.0420912E7,6.0420928E7,6.0420928E7,6.0420976E7,6.0421008E7,63.991837,-22.605427,146.2293,0.095675,4.972033,180.01262,89.86234,3.012155,-0.06853,-1.62E-4,0.0,537.1003,149.20493,12.0,40.0,0.0,0.0,140.00014,140.0,146.2293,7.6E-5,-0.018987,12.876752,282.89807,356.65796,-0.006118,-0.504648,3934.4463,0.0
0.0,0.0,0.0,0.0,0.0,0.0,0.0,6.0420912E7,6.0420912E7,6.0420928E7,6.0420928E7,6.0420976E7,6.0421008E7,63.991837,-22.605427,146.22952,0.095439,4.951444,180.01257,83.88299,2.733588,0.079393,1.9E-5,0.0,510.12122,122.225876,12.0,40.0,0.0,0.0,120.000145,120.0,146.22952,6.2E-5,0.002248,12.876752,282.89807,328.86478,-0.012672,-1.291021,2376.8599,0.0
0.0,0.0,0.0,0.0,0.0,0.0,0.0,6.0420912E7,6.0420912E7,6.0420928E7,6.0420928E7,6.0420976E7,6.0421008E7,63.991837,-22.605427,146.22954,0.095471,4.951208,180.01257,83.311966,2.711948,0.0737,1.2E-5,4.844532,508.7485,120.853165,12.0,40.0,0.0,0.0,120.000145,120.0,146.22954,6.1E-5,0.001476,12.876752,282.89807,325.51767,-0.013033,-1.340461,2249.2583,0.0
0.0,0.0,0.0,0.0,0.0,0.0,0.0,6.0420912E7,6.0420912E7,6.0420928E7,6.0420928E7,6.0420976E7,6.0421008E7,63.991837,-22.605427,146.22954,0.095946,4.950896,180.01262,81.29988,2.640425,-0.032776,-4.0E-6,5.892169,501.4417,113.54637,12.0,40.0,0.0,0.0,120.000145,120.0,146.22954,5.8E-5,-1.34E-4,12.876752,282.89807,313.2223,-0.013886,-1.493922,1712.3842,0.0
0.0,0.0,0.0,0.0,0.0,0.0,0.0,6.0420912E7,6.0420912E7,6.0420928E7,6.0420928E7,6.0420976E7,6.0421008E7,63.991837,-22.605427,146.22954,0.096122,4.950876,180.01263,80.563416,2.615986,-0.063959,-9.0E-6,6.937353,499.10797,111.21262,12.0,40.0,0.0,0.0,110.000145,110.0,146.22954,5.6E-5,-5.7E-4,12.876752,282.89807,308.5809,-0.014151,-1.543089,1511.6605,0.0
0.0,0.0,0.0,0.0,0.0,0.0,0.0,6.0420912E7,6.0420912E7,6.0420928E7,6.0420928E7,6.0420976E7,6.0421008E7,63.991837,-22.605427,146.22954,0.096326,4.950887,180.01265,79.81308,2.591985,-0.081268,-1.3E-5,7.272312,496.44995,108.554596,12.0,40.0,0.0,0.0,110.000145,110.0,146.22954,5.5E-5,-8.72E-4,12.876752,282.89807,303.8016,-0.014395,-1.589853,1281.6261,0.0
0.0,0.0,0.0,0.0,0.0,0.0,0.0,6.0420912E7,6.0420912E7,6.0420928E7,6.0420928E7,6.0420976E7,6.0421008E7,63.991837,-22.605427,146.2295,0.098273,4.951478,180.0128,75.0134,2.457833,-0.103806,-9.0E-6,0.082284,477.0921,89.19676,12.0,40.0,0.0,0.0,90.000145,90.0,146.2295,4.9E-5,-9.39E-4,12.876752,282.89807,272.9124,-0.015605,-1.826169,-516.47577,0.0
0.0,0.0,0.0,0.0,0.0,0.0,0.0,6.0420912E7,6.0420912E7,6.0420928E7,6.0420928E7,6.0420976E7,6.0421008E7,63.991837,-22.605427,146.2295,0.098392,4.951518,180.01282,74.16352,2.437266,-0.143394,-1.4E-5,5.661273,475.83746,87.94213,12.0,40.0,0.0,0.0,90.000145,90.0,146.2295,4.8E-5,-9.06E-4,12.876752,282.89807,267.5082,-0.01575,-1.859099,-560.98315,0.0
0.0,0.0,0.0,0.0,0.0,0.0,0.0,6.0420912E7,6.0420912E7,6.0420928E7,6.0420928E7,6.0420976E7,6.0421008E7,63.991837,-22.605427,146.2295,0.098533,4.951561,180.01282,73.299484,2.417248,-0.142624,-1.6E-5,6.89014,473.566,85.67068,12.0,40.0,0.0,0.0,90.000145,90.0,146.2295,4.7E-5,-0.001073,12.876752,282.89807,262.06265,-0.015877,-1.89042,-687.22833,0.0
0.0,0.0,0.0,0.0,0.0,0.0,0.0,6.0420912E7,6.0420912E7,6.0420928E7,6.0420928E7,6.0420976E7,6.0421008E7,63.991837,-22.605427,146.2295,0.098697,4.951614,180.01283,72.42117,2.397786,-0.140239,-1.8E-5,7.268199,470.92984,83.034485,12.0,40.0,0.0,0.0,90.000145,90.0,146.2295,4.6E-5,-0.001208,12.876752,282.89807,256.58728,-0.015997,-1.92021,-805.9718,0.0
0.0,0.0,0.0,0.0,0.0,0.0,0.0,6.0420912E7,6.0420912E7,6.0420928E7,6.0420928E7,6.0420976E7,6.0421008E7,63.991837,-22.605427,146.2295,0.098877,4.951675,180.01285,71.52863,2.378893,-0.138837,-2.0E-5,7.397408,468.16525,80.2699,12.0,40.0,0.0,0.0,80.000145,80.0,146.2295,4.5E-5,-0.001375,12.876752,282.89807,251.09357,-0.01611,-1.948544,-905.381,0.0
0.0,0.0,0.0,0.0,0.0,0.0,0.0,6.0420912E7,6.0420912E7,6.0420928E7,6.0420928E7,6.0420976E7,6.0421008E7,63.991837,-22.605427,146.22949,0.099035,4.951731,180.01286,70.77404,2.363595,-0.138003,-2.0E-5,7.438618,465.8253,77.929955,12.0,40.0,0.0,0.0,80.000145,80.0,146.22949,4.4E-5,-0.001476,12.876752,282.89807,246.50958,-0.016217,-1.971096,-975.17334,0.0
0.0,0.0,0.0,0.0,0.0,0.0,0.0,6.0420912E7,6.0420912E7,6.0420928E7,6.0420928E7,6.0420976E7,6.0421008E7,63.991837,-22.605427,146.22949,0.099267,4.951816,180.01288,69.701256,2.342874,-0.136163,-2.0E-5,7.320817,462.445,74.54966,12.0,40.0,0.0,0.0,80.000145,80.0,146.22949,4.3E-5,-0.001442,12.876752,282.89807,240.09592,-0.016319,-2.001127,-1061.5255,0.0
0.0,0.0,0.0,0.0,0.0,0.0,0.0,6.0420912E7,6.0420912E7,6.0420928E7,6.0420928E7,6.0420976E7,6.0421008E7,63.991837,-22.605427,146.22949,0.099465,4.951891,180.0129,68.76671,2.325776,-0.136871,-2.1E-5,7.414437,459.66858,71.77323,12.0,40.0,0.0,0.0,70.000145,70.0,146.22949,4.3E-5,-0.001442,12.876752,282.89807,234.61383,-0.016414,-2.025506,-1117.195,0.0
0.0,0.0,0.0,0.0,0.0,0.0,0.0,6.0420912E7,6.0420912E7,6.0420928E7,6.0420928E7,6.0420976E7,6.0421008E7,63.991837,-22.605427,146.22949,0.099662,4.951966,180.01291,67.81853,2.309305,-0.136403,-2.0E-5,7.452785,456.85458,68.959236,12.0,40.0,0.0,0.0,70.000145,70.0,146.22949,4.2E-5,-0.00151,12.876752,282.89807,229.15709,-0.016504,-2.048695,-1167.38,0.0
0.0,0.0,0.0,0.0,0.0,0.0,0.0,6.0420912E7,6.0420912E7,6.0420928E7,6.0420928E7,6.0420976E7,6.0421008E7,63.991837,-22.605427,146.22949,0.099858,4.952042,180.01292,66.85693,2.293475,-0.135463,-2.0E-5,7.46736,454.02734,66.13201,12.0,40.0,0.0,0.0,70.000145,70.0,146.22949,4.1E-5,-0.001442,12.876752,282.89807,223.73598,-0.016589,-2.07075,-1211.9783,0.0
0.0,0.0,0.0,0.0,0.0,0.0,0.0,6.0420912E7,6.0420912E7,6.0420928E7,6.0420928E7,6.0420976E7,6.0421008E7,63.991837,-22.605427,146.22948,0.100051,4.952116,180.01294,65.88222,2.278299,-0.134298,-2.0E-5,7.473564,451.19547,63.300114,12.0,40.0,0.0,0.0,70.000145,70.0,146.22948,4.0E-5,-0.001476,12.876752,282.89807,218.36057,-0.016669,-2.091727,-1251.606,0.0
0.0,0.0,0.0,0.0,0.0,0.0,0.0,6.0420912E7,6.0420912E7,6.0420928E7,6.0420928E7,6.0420976E7,6.0421008E7,63.991837,-22.605427,146.22948,0.100241,4.952189,180.01295,64.89466,2.263789,-0.132917,-1.9E-5,7.47681,448.3619,60.466564,12.0,40.0,0.0,0.0,60.00014,60.0,146.22948,3.9E-5,-0.001442,12.876752,282.89807,213.04057,-0.016745,-2.11168,-1286.9601,0.0
0.0,0.0,0.0,0.0,0.0,0.0,0.0,6.0420912E7,6.0420912E7,6.0420928E7,6.0420928E7,6.0420976E7,6.0421008E7,63.991837,-22.605427,146.22948,0.100427,4.952261,180.01297,63.894623,2.249961,-0.131141,-1.8E-5,7.479001,445.52777,57.63242,12.0,40.0,0.0,0.0,60.00014,60.0,146.22948,3.9E-5,-0.001409,12.876752,282.89807,207.78546,-0.016817,-2.130657,-1318.6571,0.0
0.0,0.0,0.0,0.0,0.0,0.0,0.0,6.0420912E7,6.0420912E7,6.0420928E7,6.0420928E7,6.0420976E7,6.0421008E7,63.991837,-22.605427,146.22948,0.100609,4.952331,180.01299,62.88249,2.236825,-0.129163,-1.8E-5,7.480805,442.6934,54.798058,12.0,40.0,0.0,0.0,60.00014,60.0,146.22948,3.8E-5,-0.001342,12.876752,282.89807,202.60434,-0.016886,-2.148707,-1347.2092,0.0
0.0,0.0,0.0,0.0,0.0,0.0,0.0,6.0420912E7,6.0420912E7,6.0420928E7,6.0420928E7,6.0420976E7,6.0421008E7,63.991837,-22.605427,146.22948,0.100786,4.952398,180.013,61.858677,2.224396,-0.126584,-1.7E-5,7.482459,439.85895,51.963608,12.0,40.0,0.0,0.0,50.00014,50.0,146.22948,3.7E-5,-0.001308,12.876752,282.89807,197.50603,-0.016951,-2.165874,-1373.0369,0.0
0.0,0.0,0.0,0.0,0.0,0.0,0.0,6.0420912E7,6.0420912E7,6.0420928E7,6.0420928E7,6.0420976E7,6.0421008E7,63.991837,-22.605427,146.22948,0.100945,4.952458,180.01302,60.910313,2.213632,-0.117425,-1.5E-5,7.536867,437.2355,49.340157,12.0,40.0,0.0,0.0,50.00014,50.0,146.22948,3.6E-5,-0.00151,12.876752,282.89807,192.91255,-0.017011,-2.180873,-1395.7533,0.0
0.0,0.0,0.0,0.0,0.0,0.0,0.0,6.0420912E7,6.0420912E7,6.0420928E7,6.0420928E7,6.0420976E7,6.0421008E7,63.991837,-22.605427,146.22946,0.101127,4.952527,180.01303,59.77791,2.2017,-0.120025,-1.5E-5,7.500138,434.1713,46.275936,12.0,40.0,0.0,0.0,50.00014,50.0,146.22946,3.6E-5,-0.001208,12.876752,282.89807,187.59132,-0.017071,-2.197734,-1418.551,0.0
0.0,0.0,0.0,0.0,0.0,0.0,0.0,6.0420912E7,6.0420912E7,6.0420928E7,6.0420928E7,6.0420976E7,6.0421008E7,63.991837,-22.605427,146.22946,0.101289,4.952588,180.01305,58.721996,2.191458,-0.116389,-1.4E-5,7.560119,431.34885,43.453495,12.0,40.0,0.0,0.0,50.00014,50.0,146.22946,3.5E-5,-0.001141,12.876752,282.89807,182.7908,-0.017127,-2.212506,-1437.4795,0.0
0.0,0.0,0.0,0.0,0.0,0.0,0.0,6.0420912E7,6.0420912E7,6.0420928E7,6.0420928E7,6.0420976E7,6.0421008E7,63.991837,-22.605427,146.22946,0.101447,4.952647,180.01306,57.656494,2.181966,-0.112001,-1.3E-5,7.573795,428.51855,40.6232,12.0,40.0,0.0,0.0,40.00014,40.0,146.22946,3.4E-5,-0.001073,12.876752,282.89807,178.1048,-0.017181,-2.226555,-1455.1466,0.0
0.0,0.0,0.0,0.0,0.0,0.0,0.0,6.0420912E7,6.0420912E7,6.0420928E7,6.0420928E7,6.0420976E7,6.0421008E7,63.991837,-22.605427,146.22946,0.101599,4.952703,180.01306,56.582012,2.173234,-0.10722,-1.2E-5,7.582454,425.6855,37.79013,12.0,40.0,0.0,0.0,40.00014,40.0,146.22946,3.3E-5,-0.001006,12.876752,282.89807,173.54034,-0.017231,-2.239918,-1471.4729,0.0
0.0,0.0,0.0,0.0,0.0,0.0,0.0,6.0420912E7,6.0420912E7,6.0420928E7,6.0420928E7,6.0420976E7,6.0421008E7,63.991837,-22.605427,146.22946,0.101747,4.952757,180.01308,55.499207,2.165273,-0.101857,-1.1E-5,7.589483,422.8514,34.95607,12.0,40.0,0.0,0.0,40.00014,40.0,146.22946,3.3E-5,-9.39E-4,12.876752,282.89807,169.10406,-0.01728,-2.252629,-1486.5206,0.0
0.0,0.0,0.0,0.0,0.0,0.0,0.0,6.0420912E7,6.0420912E7,6.0420928E7,6.0420928E7,6.0420976E7,6.0421008E7,63.991837,-22.605427,146.22946,0.101891,4.952809,180.01309,54.408756,2.158091,-0.095856,-1.0E-5,7.595994,420.017,32.121655,12.0,40.0,0.0,0.0,30.000143,30.0,146.22946,3.2E-5,-8.39E-4,12.876752,282.89807,164.80222,-0.017326,-2.264718,-1500.3898,0.0
0.0,0.0,0.0,0.0,0.0,0.0,0.2,6.0420912E7,6.0420912E7,6.0420928E7,6.0420928E7,6.0420976E7,6.0421008E7,63.991837,-22.605427,146.22946,0.101983,4.952842,180.01309,53.6779,2.153739,-0.091539,-9.0E-6,7.600255,418.12732,30.23196,12.0,40.0,0.0,0.0,30.000143,30.0,146.22946,3.2E-5,-8.39E-4,12.869505,282.89807,162.0119,-0.017356,-2.272447,-1509.0322,0.0
0.0,0.0,0.0,0.0,0.0,0.0,0.2,6.0420912E7,6.0420912E7,6.0420928E7,6.0420928E7,6.0420976E7,6.0421008E7,63.991837,-22.605427,146.22945,0.103366,4.953331,180.01321,43.065956,2.130636,-0.071877,-1.0E-6,1.421707,117.057755,0.818257,12.0,40.0,0.0,0.0,1.42E-4,0.0,146.22945,2.6E-5,-1.34E-4,12.869505,282.89084,129.8371,-0.017761,-2.358629,-1473.5413,0.0
0.0,0.0,0.0,0.0,0.0,0.0,0.2,6.0420912E7,6.0420912E7,6.0420928E7,6.0420928E7,6.0420976E7,6.0421008E7,63.991837,-22.605427,146.22945,0.103417,4.953343,180.01321,41.477383,2.133511,0.023723,1.0E-6,5.589468,114.42902,-1.810471,12.0,40.0,0.0,0.0,1.42E-4,0.0,146.22945,2.6E-5,3.4E-5,12.869505,282.89084,126.356346,-0.017792,-2.367528,-1439.2769,9.865142
0.0,0.0,0.0,0.0,0.0,0.0,0.2,6.0420912E7,6.0420912E7,6.0420928E7,6.0420928E7,6.0420976E7,6.0421008E7,63.991837,-22.605427,146.22945,0.103479,4.953334,180.01321,39.893482,2.138043,0.117245,7.0E-6,6.957335,111.37638,-4.863118,12.0,40.0,0.0,0.0,1.42E-4,0.0,146.22945,2.5E-5,6.71E-4,12.869505,282.89084,123.23514,-0.017826,-2.351696,-1429.4376,60.092354
0.0,0.0,0.0,0.0,0.0,0.0,0.2,6.0420912E7,6.0420912E7,6.0420928E7,6.0420928E7,6.0420976E7,6.0421008E7,63.991837,-22.605427,146.22945,0.103507,4.953206,180.01321,38.871624,2.141877,0.086291,1.5E-5,7.424184,109.10143,-7.13806,12.0,40.0,0.0,0.0,-9.999858,-10.0,146.22945,2.4E-5,0.001543,12.869505,282.89084,121.40827,-0.017853,-2.325086,-1437.3132,91.130745
0.0,0.0,0.0,0.0,0.0,0.0,0.2,6.0420912E7,6.0420912E7,6.0420928E7,6.0420928E7,6.0420976E7,6.0421008E7,63.991837,-22.605427,146.22945,0.103511,4.952813,180.01321,37.668484,2.147305,0.070574,2.6E-5,7.574576,106.25716,-9.982342,12.0,40.0,0.0,0.0,-9.999858,-10.0,146.22945,2.4E-5,0.003086,12.869505,282.89084,119.44499,-0.017882,-2.280083,-1452.7775,126.18925
0.0,0.0,0.0,0.0,0.0,0.0,0.2,6.0420912E7,6.0420912E7,6.0420928E7,6.0420928E7,6.0420976E7,6.0421008E7,63.991837,-22.605427,146.22946,0.103478,4.952164,180.01321,36.563408,2.153161,0.064872,3.7E-5,7.661522,103.600815,-12.63868,12.0,40.0,0.0,0.0,-9.999858,-10.0,146.22946,2.3E-5,0.004763,12.869505,282.89084,117.82095,-0.017908,-2.227812,-1467.2462,156.9256
0.0,0.0,0.0,0.0,0.0,0.0,0.2,6.0420912E7,6.0420912E7,6.0420928E7,6.0420928E7,6.0420976E7,6.0421008E7,63.991837,-22.605427,146.22946,0.1034,4.951133,180.01321,35.37341,2.160404,0.061378,4.9E-5,7.682382,100.6762,-15.563296,11.981092,39.936974,0.0,0.0,-9.999858,-10.0,146.22946,2.3E-5,0.006575,12.869505,282.89084,116.26505,-0.017932,-2.161945,-1483.635,188.41692
0.0,0.0,0.0,0.0,0.0,0.0,0.2,6.0420912E7,6.0420912E7,6.0420928E7,6.0420928E7,6.0420976E7,6.0421008E7,63.991837,-22.605427,146.22948,0.103298,4.949999,180.0132,34.37313,2.167252,0.059744,5.8E-5,7.68101,98.15029,-18.089205,11.881467,39.60489,0.0,0.0,-19.999857,-20.0,146.22948,2.2E-5,0.008017,12.869505,282.89084,115.11315,-0.017953,-2.100357,-1498.5964,213.58409
0.0,0.0,0.0,0.0,0.0,0.0,0.2,6.0420912E7,6.0420912E7,6.0420928E7,6.0420928E7,6.0420976E7,6.0421008E7,63.991837,-22.605427,146.22949,0.103152,4.948513,180.01318,33.289623,2.175461,0.058622,6.7E-5,7.6295,95.41353,-20.82597,11.705719,39.019066,0.0,0.0,-19.999857,-20.0,146.22949,2.2E-5,0.009359,12.869505,282.89084,114.02762,-0.017967,-2.028595,-1512.8267,239.49936
0.0,0.0,0.0,0.0,0.0,0.0,0.2,6.0420912E7,6.0420912E7,6.0420928E7,6.0420928E7,6.0420976E7,6.0421008E7,63.991837,-22.605427,146.2295,0.102956,4.946647,180.01317,32.1257,2.185212,0.057963,7.6E-5,7.618772,92.50538,-23.734116,11.488411,38.2947,0.0,0.0,-19.999857,-20.0,146.2295,2.2E-5,0.010667,12.869505,282.89084,113.051506,-0.017978,-1.947086,-1524.6345,265.78748
0.0,0.0,0.0,0.0,0.0,0.0,0.2,6.0420912E7,6.0420912E7,6.0420928E7,6.0420928E7,6.0420976E7,6.0421008E7,63.991837,-22.605427,146.22954,0.102764,4.944894,180.01315,31.149464,2.194149,0.057736,8.2E-5,7.66709,90.070076,-26.16942,11.288209,37.627365,0.0,0.0,-19.999857,-20.0,146.22954,2.1E-5,0.011506,12.869505,282.89084,112.38635,-0.017983,-1.876221,-1532.814,286.61285
0.0,0.0,0.0,0.0,0.0,0.0,0.2,6.0420912E7,6.0420912E7,6.0420928E7,6.0420928E7,6.0420976E7,6.0421008E7,63.991837,-22.605427,146.22955,0.102532,4.94284,180.01314,30.094063,2.204607,0.057686,8.7E-5,7.677083,87.36725,-28.872252,11.055324,36.851078,0.0,0.0,-29.999857,-30.0,146.22955,2.1E-5,0.012311,12.869505,282.89084,111.8269,-0.017981,-1.797995,-1542.9888,307.89282
0.0,0.0,0.0,0.0,0.0,0.0,0.2,6.0420912E7,6.0420912E7,6.0420928E7,6.0420928E7,6.0420976E7,6.0421008E7,63.991837,-22.605427,146.22957,0.102282,4.940675,180.0131,29.049213,2.215793,0.057796,9.1E-5,7.818763,84.634575,-31.604921,10.808764,36.029213,0.0,0.0,-29.999857,-30.0,146.22957,2.0E-5,0.012881,12.869505,282.89084,111.43855,-0.017973,-1.719744,-1553.7878,327.7304
0.0,0.0,0.0,0.0,0.0,0.0,0.2,6.0420912E7,6.0420912E7,6.0420928E7,6.0420928E7,6.0420976E7,6.0421008E7,63.991837,-22.605427,146.2296,0.102021,4.938437,180.01309,28.015388,2.227697,0.058117,9.4E-5,7.808879,81.9217,-34.317795,10.550296,35.167652,1.0E-6,0.0,-29.999857,-30.0,146.2296,2.0E-5,0.013217,12.869505,282.8908,111.21869,-0.01796,-1.642282,-1562.9707,346.19482
0.0,0.0,0.0,0.0,0.0,0.0,0.2,6.0420912E7,6.0420912E7,6.0420928E7,6.0420928E7,6.0420976E7,6.0421008E7,63.991837,-22.605427,146.22961,0.101754,4.93616,180.01306,26.993023,2.240308,0.058614,9.5E-5,7.676226,79.2461,-36.993397,10.281579,34.271923,2.0E-6,0.0,-29.999857,-30.0,146.22961,2.0E-5,0.013418,12.869505,282.8908,111.16442,-0.017943,-1.566291,-1569.8202,363.34888
0.0,0.0,0.0,0.0,0.0,0.0,0.2,6.0420912E7,6.0420912E7,6.0420928E7,6.0420928E7,6.0420976E7,6.0421008E7,63.991837,-22.605427,146.22964,0.101484,4.933872,180.01305,25.98254,2.253616,0.058337,9.5E-5,7.618382,76.53415,-39.705345,10.004389,33.34794,7.0E-6,0.0,-39.99986,-40.0,146.22964,1.9E-5,0.013753,12.869505,282.89072,111.27257,-0.017923,-1.492319,-1577.597,379.25735
0.0,0.0,0.0,0.0,0.0,0.0,0.2,6.0420912E7,6.0420912E7,6.0420928E7,6.0420928E7,6.0420976E7,6.0421008E7,63.991837,-22.605427,146.22966,0.101304,4.932354,180.01303,25.31568,2.262869,0.059738,9.6E-5,7.727319,74.76818,-41.471317,9.815095,32.716938,1.3E-5,0.0,-39.99986,-40.0,146.22966,1.9E-5,0.013452,12.869505,282.89062,111.43321,-0.017907,-1.444341,-1580.8342,389.2039
0.0,0.0,0.0,0.0,0.0,0.0,0.2,6.0420912E7,6.0420912E7,6.0420928E7,6.0420928E7,6.0420976E7,6.0421008E7,63.991837,-22.605427,146.2297,0.100686,4.927021,180.01297,22.945532,2.298907,0.059464,9.1E-5,5.633622,67.08084,-49.158653,9.128673,30.42859,9.6E-5,2.0E-6,-49.99986,-50.0,146.2297,1.8E-5,0.013015,12.869505,282.88937,112.59048,-0.017843,-1.280834,-1632.5847,421.16168
0.0,0.0,0.0,0.0,0.0,0.0,0.2,6.0420912E7,6.0420912E7,6.0420928E7,6.0420928E7,6.0420976E7,6.0421008E7,63.991837,-22.605427,146.22974,0.100429,4.92491,180.01295,21.987108,2.314939,0.061816,9.1E-5,7.027427,65.15127,-51.088226,8.829145,29.429844,1.93E-4,4.0E-6,-49.99986,-50.0,146.22974,1.8E-5,0.012412,12.869505,282.88788,113.32363,-0.017814,-1.218292,-1604.9514,432.66882
0.0,0.0,0.0,0.0,0.0,0.0,0.2,6.0420912E7,6.0420912E7,6.0420928E7,6.0420928E7,6.0420976E7,6.0421008E7,63.991837,-22.605427,146.22975,0.100201,4.923042,180.01292,21.120407,2.330192,0.063489,9.0E-5,7.541206,62.936527,-53.30297,8.552552,28.507336,3.54E-4,7.0E-6,-49.99986,-50.0,146.22975,1.7E-5,0.012076,12.869505,282.88544,114.12102,-0.017781,-1.163613,-1599.0043,442.41147
0.0,0.0,0.0,0.0,0.0,0.0,0.2,6.0420912E7,6.0420912E7,6.0420928E7,6.0420928E7,6.0420976E7,6.0421008E7,63.991837,-22.605427,146.22977,0.099964,4.921088,180.01291,20.187996,2.347431,0.065435,8.9E-5,7.738842,60.336285,-55.90321,8.249631,27.49659,6.58E-4,1.3E-5,-49.99986,-50.0,146.22977,1.7E-5,0.011674,12.869505,282.8808,115.12337,-0.017747,-1.106756,-1600.3536,452.2175
0.0,0.0,0.0,0.0,0.0,0.0,0.2,6.0420912E7,6.0420912E7,6.0420928E7,6.0420928E7,6.0420976E7,6.0421008E7,63.991837,-22.605427,146.22978,0.099775,4.91953,180.0129,19.42152,2.362263,0.06617,8.6E-5,7.804501,58.116604,-58.12289,7.996926,26.652878,0.00107,2.2E-5,-59.99986,-60.0,146.22978,1.7E-5,0.010969,12.869505,282.87454,116.06095,-0.017707,-1.061504,-1603.5468,459.7746
0.0,0.0,0.0,0.0,0.0,0.0,0.2,6.0420912E7,6.0420912E7,6.0420928E7,6.0420928E7,6.0420976E7,6.0421008E7,63.991837,-22.605427,146.22981,0.099537,4.917469,180.01286,18.364994,2.383726,0.069981,8.5E-5,7.769087,54.93583,-61.303665,7.644103,25.47363,0.002026,4.1E-5,-59.99986,-60.0,146.22981,1.6E-5,0.010667,12.869505,282.85995,117.52408,-0.017667,-1.001241,-1610.4847,469.48093
0.0,0.0,0.0,0.0,0.0,0.0,0.2,6.0420912E7,6.0420912E7,6.0420928E7,6.0420928E7,6.0420976E7,6.0421008E7,63.991837,-22.605427,146.22983,0.099361,4.915819,180.01285,17.474562,2.402757,0.073183,8.3E-5,7.833393,52.26681,-63.972687,7.343131,24.46589,0.003384,6.9E-5,-59.99986,-60.0,146.22983,1.6E-5,0.010131,12.869505,282.83923,118.91249,-0.017629,-0.952317,-1613.8224,477.04767
0.0,0.0,0.0,0.0,0.0,0.0,0.2,6.0420912E7,6.0420912E7,6.0420928E7,6.0420928E7,6.0420976E7,6.0421008E7,63.991837,-22.605427,146.22984,0.099161,4.914027,180.01283,16.52236,2.424276,0.081043,1.26E-4,7.915983,49.32756,-66.911934,7.013806,23.360409,0.005718,1.16E-4,-59.99986,-60.0,146.22984,1.6E-5,0.014659,12.869505,282.80362,120.55013,-0.01762,-0.902012,-1619.1146,528.61163
0.0,0.0,0.0,0.0,0.0,0.0,0.2,6.0420912E7,6.0420912E7,6.0420928E7,6.0420928E7,6.0420976E7,6.0421008E7,63.991837,-22.605427,146.22987,0.098719,4.911211,180.0128,15.72316,2.443631,0.068748,2.12E-4,7.839828,46.806057,-69.43344,6.710319,22.33862,0.008786,1.78E-4,-69.999855,-70.0,146.22987,1.5E-5,0.026501,12.869505,282.75674,122.03942,-0.017699,-0.861538,-1624.6144,591.2602
0.0,0.0,0.0,0.0,0.0,0.0,0.2,6.0420912E7,6.0420912E7,6.0420928E7,6.0420928E7,6.0420976E7,6.0421008E7,63.991837,-22.605427,146.22993,0.097857,4.90571,180.01273,14.865645,2.465389,0.060218,2.96E-4,7.847977,44.151833,-72.08766,6.353569,21.13219,0.013996,2.82E-4,-69.999855,-70.0,146.22993,4.4E-5,0.04059,12.869505,282.6771,123.76717,-0.017746,-0.819469,-1626.4098,653.48413
0.0,0.0,0.0,0.0,0.0,0.0,0.2,6.0420912E7,6.0420912E7,6.0420928E7,6.0420928E7,6.0420976E7,6.0421008E7,63.991837,-22.605427,146.23001,0.096684,4.897795,180.01262,14.025253,2.487522,0.055902,3.6E-4,7.887279,41.46645,-74.77305,5.979755,19.858616,0.022304,4.47E-4,-69.999855,-70.0,146.23001,1.16E-4,0.051995,12.869505,282.54987,125.59707,-0.017744,-0.779468,-1629.32,708.9742
0.0,0.0,0.0,0.0,0.0,0.0,0.2,6.0420912E7,6.0420912E7,6.0420928E7,6.0420928E7,6.0420976E7,6.0421008E7,63.991837,-22.605427,146.2301,0.0953,4.888036,180.01251,13.202158,2.509923,0.053406,4.0E-4,7.900535,38.719303,-77.520195,5.597995,18.542336,0.035506,7.05E-4,-79.999855,-80.0,146.2301,2.04E-4,0.059844,12.869505,282.3473,127.52346,-0.017695,-0.741429,-1634.4886,757.67145
0.0,0.0,0.0,0.0,0.0,0.0,0.2,6.0420912E7,6.0420912E7,6.0420928E7,6.0420928E7,6.0420976E7,6.0421008E7,63.991837,-22.605427,146.23021,0.093797,4.877144,180.01237,12.393966,2.532952,0.04807,4.2E-4,7.850024,36.009323,-80.23017,5.216339,17.201338,0.05627,0.001107,-79.999855,-80.0,146.23021,3.01E-4,0.062897,12.869505,282.02774,129.54062,-0.017601,-0.705253,-1637.8046,799.7356
0.0,0.0,0.0,0.0,0.0,0.0,0.2,6.0420912E7,6.0420912E7,6.0420928E7,6.0420928E7,6.0420976E7,6.0421008E7,63.991837,-22.605427,146.23032,0.092233,4.86739,180.01215,11.58245,2.560147,0.026168,4.26E-4,7.888636,33.296192,-82.943306,4.845997,15.860191,0.088456,0.00172,-79.999855,-80.0,146.23032,4.42E-4,0.054075,12.869505,281.5309,131.64276,-0.017371,-0.670862,-1641.0536,835.475
0.0,0.0,0.0,0.0,0.0,0.0,0.2,6.0420912E7,6.0420912E7,6.0420928E7,6.0420928E7,6.0420976E7,6.0421008E7,63.991837,-22.605427,146.2304,0.090733,4.860415,180.012,10.776841,2.591954,0.015795,4.87E-4,7.901472,30.640844,-85.598656,4.503753,14.557964,0.137154,0.002635,-79.999855,-80.0,146.2304,7.09E-4,0.048238,12.869505,280.77686,133.82404,-0.017322,-0.638145,-1641.7981,865.2966
0.0,0.0,0.0,0.0,0.0,0.0,0.2,6.0420912E7,6.0420912E7,6.0420928E7,6.0420928E7,6.0420976E7,6.0421008E7,63.991837,-22.605427,146.23047,0.089271,4.855773,180.01172,9.972193,2.627699,0.012033,6.19E-4,7.943844,27.955019,-88.28448,4.198318,13.302379,0.208792,0.003959,-89.999855,-90.0,146.23047,0.001176,0.0422,12.869505,279.66397,136.07858,-0.017184,-0.607035,-1643.6892,889.66534
0.0,0.0,0.0,0.0,0.0,0.0,0.2,6.0420912E7,6.0420912E7,6.0420928E7,6.0420928E7,6.0420976E7,6.0421008E7,63.991837,-22.605427,146.23053,0.087929,4.852816,180.01146,9.181229,2.666864,0.009561,7.36E-4,7.968861,25.258453,-90.98104,3.938637,12.097063,0.311265,0.005824,-89.999855,-90.0,146.23053,0.001905,0.041696,12.869505,278.0659,138.40047,-0.017144,-0.577448,-1645.8744,909.0771
0.0,0.0,0.0,0.0,0.0,0.0,0.2,6.0420912E7,6.0420912E7,6.0420928E7,6.0420928E7,6.0420976E7,6.0421008E7,63.991837,-22.605427,146.2306,0.086727,4.851009,180.01111,8.465019,2.692153,0.008763,9.33E-4,7.983767,22.558094,-93.681404,3.734675,10.944845,0.453735,0.008378,-89.999855,-90.0,146.2306,0.002942,0.040522,12.869505,275.83304,140.78378,-0.016861,-0.549318,-1648.0607,924.03766
0.0,0.0,0.0,0.0,0.0,0.0,0.2,6.0420912E7,6.0420912E7,6.0420928E7,6.0420928E7,6.0420976E7,6.0421008E7,63.991837,-22.605427,146.23068,0.085685,4.849977,180.01071,7.789053,2.707105,0.008008,0.001113,7.991735,19.856392,-96.3831,3.596878,9.847928,0.646033,0.011778,-89.999855,-90.0,146.23068,0.004324,0.046024,12.869505,272.7993,143.22256,-0.016228,-0.522564,-1650.1519,935.05035
0.0,0.0,0.0,0.0,0.0,0.0,0.2,6.0420912E7,6.0420912E7,6.0420928E7,6.0420928E7,6.0420976E7,6.0421008E7,63.991837,-22.605427,146.23077,0.084815,4.849454,180.01027,7.117035,2.723727,0.007639,0.001327,7.999284,17.154213,-99.08528,3.535035,8.808015,0.897481,0.016167,-99.999855,-100.0,146.23077,0.006074,0.049613,12.869505,268.79684,145.71088,-0.015548,-0.497122,-1652.1205,942.59283
0.0,0.0,0.0,0.0,0.0,0.0,0.2,6.0420912E7,6.0420912E7,6.0420928E7,6.0420928E7,6.0420976E7,6.0421008E7,63.991837,-22.605427,146.23087,0.084115,4.849234,180.00977,6.451018,2.741572,0.007392,0.001552,8.006877,14.451859,-101.787636,3.55642,7.826381,1.215,0.021648,-99.999855,-100.0,146.23087,0.008207,0.058301,12.869505,263.6815,148.24283,-0.014819,-0.472927,-1653.9625,947.1153
0.0,0.0,0.0,0.0,0.0,0.0,0.2,6.0420912E7,6.0420912E7,6.0420928E7,6.0420928E7,6.0420976E7,6.0421008E7,63.991837,-22.605427,146.23097,0.083583,4.849184,180.00923,5.792713,2.76024,0.007235,0.001787,8.007547,11.698644,-104.540855,3.663218,6.903918,1.600514,0.02824,-99.999855,-100.0,146.23097,0.010728,0.065949,12.869505,257.36954,150.8125,-0.014097,-0.449916,-1657.6763,949.03644
0.0,0.0,0.0,0.0,0.0,0.0,0.2,6.0420912E7,6.0420912E7,6.0420928E7,6.0420928E7,6.0420976E7,6.0421008E7,63.991837,-22.605427,146.2311,0.0832,4.84922,180.00865,5.14277,2.779383,0.007126,0.002026,7.991529,9.02912,-107.21037,3.849575,6.041111,2.04799,0.035828,-99.999855,-100.0,146.2311,0.013635,0.073296,12.869505,249.88441,153.4141,-0.01336,-0.428032,-1657.8672,948.7428
0.0,0.0,0.0,0.0,0.0,0.0,0.2,6.0420912E7,6.0420912E7,6.0420928E7,6.0420928E7,6.0420976E7,6.0421008E7,63.991837,-22.605427,146.23123,0.082959,4.849272,180.00806,4.502049,2.798704,0.007025,0.002256,8.019028,6.338255,-109.901245,4.099109,5.238101,2.540919,0.044134,-109.999855,-110.0,146.23123,0.01692,0.084231,12.869505,241.40375,156.04178,-0.012641,-0.407218,-1658.8729,946.5855
0.0,0.0,0.0,0.0,0.0,0.0,0.2,6.0420912E7,6.0420912E7,6.0420928E7,6.0420928E7,6.0420976E7,6.0421008E7,63.991837,-22.605427,146.23137,0.082854,4.849306,180.00743,3.870705,2.817953,0.00698,0.002494,8.077468,3.59739,-112.642105,4.384179,4.494667,3.05159,0.052704,-109.999855,-110.0,146.23137,0.02057,0.089833,12.869505,232.29095,158.68983,-0.011964,-0.387423,-1661.7815,942.8819
0.0,0.0,0.0,0.0,0.0,0.0,0.2,6.0420912E7,6.0420912E7,6.0420928E7,6.0420928E7,6.0420976E7,6.0421008E7,63.991837,-22.605427,146.23154,0.082863,4.849302,180.00677,3.248246,2.836924,0.006972,0.002736,8.101465,0.863438,-115.37606,4.668472,3.810336,3.543656,0.060951,-109.999855,-110.0,146.23154,0.024567,0.097347,12.869505,223.08784,161.35262,-0.011327,-0.368595,-1664.2495,937.9173
0.0,0.0,0.0,0.0,0.0,0.0,0.2,6.0420912E7,6.0420912E7,6.0420928E7,6.0420928E7,6.0420976E7,6.0421008E7,63.991837,-22.605427,146.2317,0.082971,4.849249,180.00606,2.634485,2.855454,0.006877,0.002932,8.006669,-1.789653,-118.02915,4.913663,3.184529,3.978785,0.068267,-119.999855,-120.0,146.2317,0.02889,0.105499,12.869505,214.44768,164.02455,-0.010706,-0.350696,-1663.3605,931.9462
0.0,0.0,0.0,0.0,0.0,0.0,0.2,6.0420912E7,6.0420912E7,6.0420928E7,6.0420928E7,6.0420976E7,6.0421008E7,63.991837,-22.605427,146.23189,0.083159,4.849138,180.00523,2.028805,2.873413,0.00689,0.003161,8.042726,-4.47474,-120.71423,5.089037,2.616646,4.326295,0.074173,-119.999855,-120.0,146.23189,0.033516,0.114925,12.869505,207.00499,166.70016,-0.010007,-0.333683,-1663.7664,925.19305
0.0,0.0,0.0,0.0,0.0,0.0,0.2,6.0420912E7,6.0420912E7,6.0420928E7,6.0420928E7,6.0420976E7,6.0421008E7,63.991837,-22.605427,146.23209,0.083418,4.848983,180.00441,1.430793,2.890709,0.006824,0.00334,8.014051,-7.201232,-123.44073,5.180583,2.106287,4.572236,0.078464,-119.999855,-120.0,146.23209,0.03842,0.12093,12.869505,201.21301,169.37408,-0.009715,-0.317502,-1665.6793,917.85547
0.0,0.0,0.0,0.0,0.0,0.0,0.2,6.0420912E7,6.0420912E7,6.0420928E7,6.0420928E7,6.0420976E7,6.0421008E7,63.991837,-22.605427,146.2323,0.08374,4.848782,180.00356,0.842543,2.907275,0.006852,0.003551,8.005562,-9.912163,-126.15166,5.194676,1.653367,4.723044,0.081262,-119.999855,-120.0,146.2323,0.043577,0.12841,12.869505,197.21457,172.04102,-0.00948,-0.302122,-1666.8588,910.107
0.0,0.0,0.0,0.0,0.0,0.0,0.2,6.0420912E7,6.0420912E7,6.0420928E7,6.0420928E7,6.0420976E7,6.0421008E7,63.991837,-22.605427,146.23253,0.084115,4.848536,180.00262,0.259536,2.923068,0.006855,0.003739,8.096718,-12.690626,-128.93011,5.153541,1.257955,4.801035,0.082935,-129.99986,-130.0,146.23253,0.048961,0.130154,12.869505,194.8176,174.69583,-0.009213,-0.287498,-1670.6714,902.0977
0.0,0.0,0.0,0.0,0.0,0.0,0.2,6.0420912E7,6.0420912E7,6.0420928E7,6.0420928E7,6.0420976E7,6.0421008E7,63.991837,-22.605427,146.23276,0.08451,4.848262,180.00168,-0.317076,2.938061,0.006838,0.003902,8.012436,-15.316704,-131.5562,5.084836,0.920235,4.833941,0.08392,-129.99986,-130.0,146.23276,0.054545,0.136058,12.869505,193.60037,177.33351,-0.008983,-0.273592,-1668.3015,893.95856
0.0,0.0,0.0,0.0,0.0,0.0,0.2,6.0420912E7,6.0420912E7,6.0420928E7,6.0420928E7,6.0420976E7,6.0421008E7,63.991837,-22.605427,146.233,0.084951,4.847965,180.00072,-0.888157,2.952239,0.006829,0.004056,8.145662,-18.052761,-134.29225,5.011423,0.640165,4.844748,0.084581,-129.99986,-130.0,146.233,0.060304,0.14478,12.869505,193.09146,179.94916,-0.008778,-0.260368,-1670.387,885.7997
0.0,0.0,0.0,0.0,0.0,0.0,0.2,6.0420912E7,6.0420912E7,6.0420928E7,6.0420928E7,6.0420976E7,6.0421008E7,63.991833,-22.605427,146.23322,0.085325,4.8477,179.9999,-1.366033,2.963445,0.006834,0.004183,8.040481,-20.261213,-136.50072,4.956775,0.450737,4.847067,0.085045,-129.99986,-130.0,146.23322,0.065218,0.146625,12.869505,192.93735,182.10861,-0.008608,-0.24984,-1669.1855,879.0546
0.0,0.0,0.0,0.0,0.0,0.0,0.2,6.0420912E7,6.0420912E7,6.0420928E7,6.0420928E7,6.0420976E7,6.0421008E7,63.991833,-22.605427,146.23352,0.085887,4.847323,179.99876,-2.01656,2.978202,0.006838,0.004343,8.039993,-23.417313,-139.65681,4.897388,0.252323,4.847392,0.085666,-139.99986,-140.0,146.23352,0.072244,0.154105,12.869505,192.8778,185.09554,-0.008473,-0.235831,-1670.0024,869.7863
0.0,0.0,0.0,0.0,0.0,0.0,0.2,6.0420912E7,6.0420912E7,6.0420928E7,6.0420928E7,6.0420976E7,6.0421008E7,63.991833,-22.605427,146.23378,0.086363,4.847,179.99777,-2.57467,2.990041,0.006838,0.004466,8.116151,-26.193718,-142.43321,4.864421,0.143869,4.847112,0.08617,-139.99986,-140.0,146.23378,0.078378,0.154172,12.869505,192.86877,187.6172,-0.008349,-0.224456,-1673.4727,862.0761
0.0,0.0,0.0,0.0,0.0,0.0,0.2,6.0420912E7,6.0420912E7,6.0420928E7,6.0420928E7,6.0420976E7,6.0421008E7,63.991833,-22.605427,146.23405,0.086848,4.846676,179.99677,-3.129401,3.001169,0.00684,0.004578,8.122603,-28.886372,-145.12587,4.848358,0.091939,4.846779,0.086675,-139.99986,-140.0,146.23405,0.08459,0.160311,12.869505,192.8667,190.09875,-0.008255,-0.213638,-1673.5228,854.6396
0.0,0.0,0.0,0.0,0.0,0.0,0.2,6.0420912E7,6.0420912E7,6.0420928E7,6.0420928E7,6.0420976E7,6.0421008E7,63.991833,-22.605427,146.23433,0.087329,4.846361,179.99576,-3.681277,3.011632,0.006804,0.004653,8.048786,-31.524961,-147.76447,4.846444,0.087184,4.846444,0.087184,-149.99986,-150.0,146.23433,0.090861,0.164001,12.869505,192.86557,192.53609,-0.00818,-0.20335,-1671.4233,847.5195
0.0,0.0,0.0,0.0,0.0,0.0,0.2,6.0420912E7,6.0420912E7,6.0420928E7,6.0420928E7,6.0420976E7,6.0421008E7,63.991833,-22.605427,146.23465,0.087786,4.846035,179.99467,-4.29161,3.022334,0.00675,0.004712,8.140735,-34.45319,-150.69269,4.846099,0.087711,4.846099,0.087711,-149.99986,-150.0,146.23465,0.097697,0.178392,12.869505,192.86441,195.12202,-0.008115,-0.192773,-1672.0101,840.2007
0.0,0.0,0.0,0.0,0.0,0.0,0.2,6.0420912E7,6.0420912E7,6.0420928E7,6.0420928E7,6.0420976E7,6.0421008E7,63.991833,-22.605427,146.23491,0.088265,4.845768,179.99374,-4.777667,3.030761,0.006806,0.004824,7.995534,-37.02321,-153.26271,4.845821,0.088165,4.845821,0.088165,-149.99986,-150.0,146.23491,0.1035,0.173696,12.869505,192.86345,197.26239,-0.008075,-0.18426,-1675.9169,834.35004
0.0,0.0,0.0,0.0,0.0,0.0,0.2,6.0420912E7,6.0420912E7,6.0420928E7,6.0420928E7,6.0420976E7,6.0421008E7,63.991833,-22.605427,146.23521,0.088712,4.845489,179.99272,-5.322907,3.039536,0.006828,0.00491,8.037757,-39.642887,-155.88239,4.845535,0.088623,4.845535,0.088623,-149.99986,-150.0,146.23521,0.109833,0.175708,12.869505,192.86241,199.54399,-0.008046,-0.17541,-1672.9182,828.34357
0.0,0.0,0.0,0.0,0.0,0.0,0.2,6.0420912E7,6.0420912E7,6.0420928E7,6.0420928E7,6.0420976E7,6.0421008E7,63.991833,-22.605427,146.2355,0.089145,4.845221,179.9917,-5.866158,3.047857,0.006831,0.004975,8.089709,-42.31628,-158.55577,4.845265,0.089057,4.845265,0.089057,-159.99986,-160.0,146.2355,0.116156,0.174031,12.869505,192.86139,201.7666,-0.008026,-0.166993,-1672.1781,822.73816
0.0,0.0,0.0,0.0,0.0,0.0,0.2,6.0420912E7,6.0420912E7,6.0420928E7,6.0420928E7,6.0420976E7,6.0421008E7,63.991833,-22.605427,146.23576,0.089482,4.845016,179.99084,-6.323517,3.054518,0.006833,0.005022,8.107014,-44.55922,-160.79872,4.845056,0.089402,4.845056,0.089402,-159.99986,-160.0,146.23576,0.121406,0.177251,12.869505,192.86053,203.57138,-0.008026,-0.160293,-1672.1794,818.37695
0.0,0.0,0.0,0.0,0.0,0.0,0.2,6.0420912E7,6.0420912E7,6.0420928E7,6.0420928E7,6.0420976E7,6.0421008E7,63.991833,-22.605427,146.23613,0.089967,4.84475,179.98965,-6.948346,3.063357,0.00682,0.005068,8.158298,-47.793365,-164.03287,4.844787,0.089885,4.844787,0.089885,-159.99986,-160.0,146.23613,0.128713,0.181277,12.869505,192.85934,206.0221,-0.008032,-0.151376,-1675.7688,812.74384
0.0,0.0,0.0,0.0,0.0,0.0,0.2,6.0420912E7,6.0420912E7,6.0420928E7,6.0420928E7,6.0420976E7,6.0421008E7,63.991833,-22.605427,146.23643,0.090354,4.844544,179.98863,-7.487397,3.070645,0.006814,0.005105,8.068932,-50.4391,-166.67859,4.844578,0.090273,4.844578,0.090273,-159.99986,-160.0,146.23643,0.134924,0.181109,12.869505,192.85832,208.04909,-0.008047,-0.144136,-1673.7612,808.35065
0.0,0.0,0.0,0.0,0.0,0.0,0.2,6.0420912E7,6.0420912E7,6.0420928E7,6.0420928E7,6.0420976E7,6.0421008E7,63.991833,-22.605427,146.23674,0.090723,4.844359,179.98761,-8.025136,3.077693,0.006827,0.005149,8.103299,-53.1217,-169.36119,4.844389,0.090645,4.844389,0.090645,-169.99986,-170.0,146.23674,0.141078,0.182183,12.869505,192.8573,210.00526,-0.008069,-0.13725,-1673.2983,804.35
0.0,0.0,0.0,0.0,0.0,0.0,0.2,6.0420912E7,6.0420912E7,6.0420928E7,6.0420928E7,6.0420976E7,6.0421008E7,63.991833,-22.605427,146.23706,0.091077,4.844193,179.98659,-8.561751,3.084552,0.006841,0.005189,8.116185,-55.817284,-172.05678,4.84422,0.091001,4.84422,0.091001,-169.99986,-170.0,146.23706,0.147164,0.182417,12.869505,192.85628,211.88818,-0.008091,-0.130701,-1673.3604,800.7304
0.0,0.0,0.0,0.0,0.0,0.0,0.2,6.0420912E7,6.0420912E7,6.0420928E7,6.0420928E7,6.0420976E7,6.0421008E7,63.991833,-22.605427,146.23738,0.091413,4.844048,179.98557,-9.097139,3.091269,0.00684,0.005213,8.164263,-58.55994,-174.79944,4.844071,0.09134,4.844071,0.09134,-169.99986,-170.0,146.23738,0.153176,0.182954,12.869505,192.85524,213.69554,-0.008121,-0.124472,-1675.2563,797.4777
0.0,0.0,0.0,0.0,0.0,0.0,0.2,6.0420912E7,6.0420912E7,6.0420928E7,6.0420928E7,6.0420976E7,6.0421008E7,63.991833,-22.605427,146.23769,0.091732,4.84392,179.98453,-9.631408,3.097891,0.006833,0.005228,8.058948,-61.276886,-177.51639,4.843942,0.091663,4.843942,0.091663,-179.99986,-180.0,146.23769,0.159107,0.183625,12.869505,192.85422,215.42528,-0.008155,-0.118549,-1675.985,794.57623
0.0,0.0,0.0,0.0,0.0,0.0,0.2,6.0420912E7,6.0420912E7,6.0420928E7,6.0420928E7,6.0420976E7,6.0421008E7,63.991833,-22.605427,146.238,0.092036,4.843811,179.9835,-10.164315,3.104457,0.006832,0.005243,8.171173,-64.00236,-180.24185,4.843828,0.091968,4.843828,0.091968,-179.99986,-180.0,146.238,0.164953,0.183927,12.869505,192.8532,217.07547,-0.008183,-0.112916,-1677.0597,792.00836
0.0,0.0,0.0,0.0,0.0,0.0,0.2,6.0420912E7,6.0420912E7,6.0420928E7,6.0420928E7,6.0420976E7,6.0421008E7,63.991833,-22.605427,146.23833,0.092325,4.843727,179.98248,-10.695988,3.111009,0.006825,0.005251,8.069041,-66.703415,-182.94292,4.84374,0.09226,4.84374,0.09226,-179.99986,-180.0,146.23833,0.170708,0.184665,12.869505,192.85217,218.64447,-0.008216,-0.107558,-1677.0792,789.7552
0.0,0.0,0.0,0.0,0.0,0.0,0.2,6.0420912E7,6.0420912E7,6.0420928E7,6.0420928E7,6.0420976E7,6.0421008E7,63.991833,-22.605427,146.2386,0.092541,4.84367,179.9816,-11.143621,3.116548,0.006821,0.005257,8.028737,-68.952286,-185.19177,4.843681,0.092484,4.843681,0.092484,-179.99986,-180.0,146.2386,0.175432,0.187785,12.869505,192.8513,219.88882,-0.008248,-0.103292,-1676.9694,788.10376
0.0,0.0,0.0,0.0,0.0,0.0,0.2,6.0420912E7,6.0420912E7,6.0420928E7,6.0420928E7,6.0420976E7,6.0421008E7,63.99183,-22.605427,146.23892,0.092804,4.843616,179.98056,-11.672662,3.123176,0.006848,0.005286,7.992927,-71.67865,-187.91814,4.843626,0.092749,4.843626,0.092749,-189.99986,-190.0,146.23892,0.181013,0.185302,12.869505,192.85027,221.30516,-0.008281,-0.098407,-1677.8577,786.3757
0.0,0.0,0.0,0.0,0.0,0.0,0.2,6.0420912E7,6.0420912E7,6.0420928E7,6.0420928E7,6.0420976E7,6.0421008E7,63.99183,-22.605427,146.23932,0.093067,4.843561,179.97928,-12.340899,3.13169,0.006801,0.005257,7.978699,-75.05755,-191.29704,4.843567,0.093051,4.843567,0.093051,-189.99986,-190.0,146.23932,0.18785,0.196271,12.869505,192.84898,222.95596,-0.008317,-0.092639,-1677.7534,784.57556
0.0,0.0,0.0,0.0,0.0,0.0,0.2,6.0420912E7,6.0420912E7,6.0420928E7,6.0420928E7,6.0420976E7,6.0421008E7,63.99183,-22.605427,146.23961,0.093338,4.843544,179.97833,-12.807826,3.137789,0.006833,0.005285,8.057968,-77.467094,-193.70659,4.843546,0.09328,4.843546,0.09328,-189.99986,-190.0,146.23961,0.192764,0.187986,12.869505,192.84802,224.08113,-0.008341,-0.08863,-1675.123,783.4889
0.0,0.0,0.0,0.0,0.0,0.0,0.2,6.0420912E7,6.0420912E7,6.0420928E7,6.0420928E7,6.0420976E7,6.0421008E7,63.99183,-22.605427,146.23993,0.093574,4.843539,179.97728,-13.331629,3.144771,0.006831,0.005286,8.139307,-80.24542,-196.48491,4.843539,0.093517,4.843539,0.093517,-189.99986,-190.0,146.23993,0.198029,0.191843,12.869505,192.84698,225.22537,-0.008362,-0.084463,-1678.204,782.5067
0.0,0.0,0.0,0.0,0.0,0.0,0.2,6.0420912E7,6.0420912E7,6.0420928E7,6.0420928E7,6.0420976E7,6.0421008E7,63.99183,-22.605427,146.2402,0.093741,4.843542,179.9764,-13.772271,3.150791,0.006844,0.005298,8.083752,-82.53153,-198.77103,4.843542,0.093693,4.843542,0.093693,-199.99986,-200.0,146.2402,0.202339,0.187751,12.869505,192.8461,226.11221,-0.008384,-0.081145,-1679.46,781.837
0.0,0.0,0.0,0.0,0.0,0.0,0.2,6.0420912E7,6.0420912E7,6.0420928E7,6.0420928E7,6.0420976E7,6.0421008E7,63.99183,-22.605427,146.24059,0.093996,4.843562,179.97517,-14.37335,3.159253,0.006829,0.005287,7.954459,-85.697205,-201.9367,4.843557,0.093943,4.843557,0.093943,-199.99986,-200.0,146.24059,0.208255,0.187248,12.869505,192.84488,227.25148,-0.008414,-0.076734,-1679.7006,781.104
0.0,0.0,0.0,0.0,0.0,0.0,0.2,6.0420912E7,6.0420912E7,6.0420928E7,6.0420928E7,6.0420976E7,6.0421008E7,63.99183,-22.605427,146.2409,0.094196,4.843595,179.97412,-14.890974,3.166789,0.006856,0.005307,7.975159,-88.38128,-204.62077,4.843589,0.094144,4.843589,0.094144,-199.99986,-200.0,146.2409,0.213217,0.187382,12.869505,192.84383,228.1328,-0.008435,-0.073152,-1678.7754,780.646
0.0,0.0,0.0,0.0,0.0,0.0,0.2,6.0420912E7,6.0420912E7,6.0420928E7,6.0420928E7,6.0420976E7,6.0421008E7,63.99183,-22.605427,146.24123,0.094383,4.843624,179.97305,-15.406302,3.174544,0.006847,0.0053,8.038887,-90.996544,-207.23604,4.843618,0.094333,4.843618,0.094333,-199.99986,-200.0,146.24123,0.21808,0.186309,12.869505,192.84276,228.92621,-0.008452,-0.069746,-1675.305,780.32697
0.0,0.0,0.0,0.0,0.0,0.0,0.2,6.0420912E7,6.0420912E7,6.0420928E7,6.0420928E7,6.0420976E7,6.0421008E7,63.99183,-22.605427,146.24155,0.094563,4.843666,179.97198,-15.919237,3.182534,0.006844,0.005296,8.091321,-93.668564,-209.90807,4.843657,0.094513,4.843657,0.094513,-209.99986,-210.0,146.24155,0.222845,0.188523,12.869505,192.84169,229.6319,-0.008461,-0.066507,-1674.236,780.1292
0.0,0.0,0.0,0.0,0.0,0.0,0.2,6.0420912E7,6.0420912E7,6.0420928E7,6.0420928E7,6.0420976E7,6.0421008E7,63.99183,-22.605427,146.24187,0.094735,4.843724,179.97092,-16.429626,3.190768,0.006861,0.005308,8.109484,-96.36057,-212.60007,4.843714,0.094687,4.843714,0.094687,-209.99986,-210.0,146.24187,0.227514,0.188824,12.869505,192.84062,230.2502,-0.008473,-0.063428,-1674.0004,780.03705
0.0,0.0,0.0,0.0,0.0,0.0,0.2,6.0420912E7,6.0420912E7,6.0420928E7,6.0420928E7,6.0420976E7,6.0421008E7,63.99183,-22.605427,146.24219,0.094911,4.84378,179.96983,-16.937206,3.199254,0.006853,0.0053,8.108542,-99.11044,-215.34993,4.84377,0.094861,4.84377,0.094861,-209.99986,-210.0,146.24219,0.232089,0.187717,12.869505,192.83954,230.78162,-0.008485,-0.0605,-1676.0187,780.0352
0.0,0.0,0.0,0.0,0.0,0.0,0.2,6.0420912E7,6.0420912E7,6.0420928E7,6.0420928E7,6.0420976E7,6.0421008E7,63.99183,-22.605427,146.24251,0.095085,4.843843,179.96875,-17.442066,3.208004,0.006864,0.005308,8.079791,-101.82987,-218.06937,4.843831,0.095036,4.843831,0.095036,-219.99986,-220.0,146.24251,0.23657,0.185571,12.869505,192.83846,231.22682,-0.00849,-0.057717,-1676.7262,780.11053
0.0,0.0,0.0,0.0,0.0,0.0,0.2,6.0420912E7,6.0420912E7,6.0420928E7,6.0420928E7,6.0420976E7,6.0421008E7,63.99183,-22.605427,146.24283,0.095251,4.843925,179.96765,-17.944162,3.217025,0.006847,0.005295,8.075883,-104.487785,-220.72728,4.843909,0.095204,4.843909,0.095204,-219.99986,-220.0,146.24283,0.240962,0.185906,12.869505,192.83737,231.58664,-0.008502,-0.05507,-1674.9967,780.25055
0.0,0.0,0.0,0.0,0.0,0.0,0.2,6.0420912E7,6.0420912E7,6.0420928E7,6.0420928E7,6.0420976E7,6.0421008E7,63.99183,-22.605427,146.24316,0.095403,4.844003,179.96655,-18.44324,3.226319,0.006833,0.005283,8.102118,-107.174866,-223.41437,4.843988,0.095358,4.843988,0.095358,-219.99986,-220.0,146.24316,0.245265,0.190334,12.869505,192.83627,231.86206,-0.008506,-0.052555,-1674.4962,780.4433
0.0,0.0,0.0,0.0,0.0,0.0,0.2,6.0420912E7,6.0420912E7,6.0420928E7,6.0420928E7,6.0420976E7,6.0421008E7,63.99183,-22.605427,146.24348,0.095565,4.84408,179.96544,-18.939014,3.235885,0.006858,0.005302,8.065425,-109.902374,-226.14188,4.844066,0.095517,4.844066,0.095517,-219.99986,-220.0,146.24348,0.249483,0.18755,12.869505,192.83516,232.05418,-0.008502,-0.050163,-1675.5128,780.6779
0.0,0.0,0.0,0.0,0.0,0.0,0.2,6.0420912E7,6.0420912E7,6.0420928E7,6.0420928E7,6.0420976E7,6.0421008E7,63.99183,-22.605427,146.24384,0.095681,4.844172,179.96423,-19.487434,3.246864,0.006789,0.005249,8.081002,-112.81815,-229.05765,4.844155,0.09568,4.844155,0.09568,-229.99986,-230.0,146.24384,0.253958,0.20241,12.869505,192.83395,232.16982,-0.0085,-0.047706,-1675.0773,780.96893
0.0,0.0,0.0,0.0,0.0,0.0,0.2,6.0420912E7,6.0420912E7,6.0420928E7,6.0420928E7,6.0420976E7,6.0421008E7,63.99183,-22.605427,146.24416,0.095831,4.844264,179.9631,-19.976559,3.257024,0.006817,0.005272,8.072217,-115.53768,-231.77718,4.844246,0.095831,4.844246,0.095831,-229.99986,-230.0,146.24416,0.258005,0.197915,12.869505,192.83284,232.19267,-0.008493,-0.045555,-1675.7803,781.2621
0.0,0.0,0.0,0.0,0.0,0.0,0.2,6.0420912E7,6.0420912E7,6.0420928E7,6.0420928E7,6.0420976E7,6.0421008E7,63.99183,-22.605427,146.24448,0.095981,4.844355,179.96198,-20.462433,3.267462,0.006798,0.005259,8.091516,-118.216484,-234.45598,4.844337,0.095981,4.844337,0.095981,-229.99986,-230.0,146.24448,0.261974,0.195701,12.869505,192.83171,232.1366,-0.008485,-0.043509,-1674.8833,781.5715
0.0,0.0,0.0,0.0,0.0,0.0,0.2,6.0420912E7,6.0420912E7,6.0420928E7,6.0420928E7,6.0420976E7,6.0421008E7,63.991825,-22.605427,146.24477,0.09617,4.844435,179.96094,-20.8903,3.276951,0.006861,0.005309,8.110419,-120.68237,-236.92188,4.844419,0.096125,4.844419,0.096125,-229.99986,-230.0,146.24477,0.265545,0.19124,12.869505,192.83067,232.01727,-0.008472,-0.041721,-1674.5139,781.86346
0.0,0.0,0.0,0.0,0.0,0.0,0.2,6.0420912E7,6.0420912E7,6.0420928E7,6.0420928E7,6.0420976E7,6.0421008E7,63.991825,-22.605427,146.24504,0.096266,4.844509,179.95998,-21.295637,3.286181,0.006896,0.005338,8.111903,-122.93414,-239.17365,4.844491,0.09623,4.844491,0.09623,-239.99986,-240.0,146.24504,0.268738,0.189864,12.869505,192.82973,231.85362,-0.008465,-0.040164,-1674.574,782.1319
0.0,0.0,0.0,0.0,0.0,0.0,0.2,6.0420912E7,6.0420912E7,6.0420928E7,6.0420928E7,6.0420976E7,6.0421008E7,63.991825,-22.605427,146.24542,0.096429,4.844627,179.95866,-21.845636,3.29911,0.006842,0.0053,7.987824,-126.094025,-242.33353,4.844608,0.096387,4.844608,0.096387,-239.99986,-240.0,146.24542,0.273125,0.18859,12.869505,192.8284,231.53838,-0.008459,-0.038098,-1674.8192,782.50653
0.0,0.0,0.0,0.0,0.0,0.0,0.2,6.0420912E7,6.0420912E7,6.0420928E7,6.0420928E7,6.0420976E7,6.0421008E7,63.991825,-22.605427,146.24574,0.09655,4.844727,179.95752,-22.318047,3.310424,0.006854,0.005312,5.57197,-127.5537,-243.7932,4.844708,0.096509,4.844708,0.096509,-239.99986,-240.0,146.24574,0.27681,0.190502,12.869505,192.82726,231.19035,-0.00846,-0.03642,-1625.5197,782.82837
0.0,0.0,0.0,0.0,0.0,0.0,0.2,6.0420912E7,6.0420912E7,6.0420928E7,6.0420928E7,6.0420976E7,6.0421008E7,63.991825,-22.605427,146.24599,0.096586,4.844805,179.95665,-22.684435,3.319428,0.006822,0.00529,4.380809,-127.98927,-244.22878,4.844784,0.09659,4.844784,0.09659,-239.99986,-240.0,146.24599,0.279529,0.201001,12.869505,192.8264,230.88353,-0.008456,-0.035217,-1562.4652,783.07025
0.0,0.0,0.0,0.0,0.0,0.0,0.2,6.0420912E7,6.0420912E7,6.0420928E7,6.0420928E7,6.0420976E7,6.0421008E7,63.991825,-22.605427,146.24638,0.096794,4.844935,179.95523,-23.252384,3.333825,0.006881,0.005341,3.445111,-128.26169,-244.50119,4.844916,0.096754,4.844916,0.096754,-239.99986,-240.0,146.24638,0.28398,0.188858,12.869505,192.82497,230.28769,-0.008444,-0.033307,-1438.8951,783.4704
0.0,0.0,0.0,0.0,0.0,0.0,0.2,6.0420912E7,6.0420912E7,6.0420928E7,6.0420928E7,6.0420976E7,6.0421008E7,63.991825,-22.605427,146.24675,0.096858,4.845042,179.95396,-23.766598,3.347287,0.006789,0.005274,3.164942,-128.3369,-244.5764,4.845022,0.096864,4.845022,0.096864,-239.99986,-240.0,146.24675,0.287757,0.204289,12.869505,192.82372,229.68884,-0.008437,-0.031749,-1324.8958,783.8088
0.0,0.0,0.0,0.0,0.0,0.0,0.2,6.0420912E7,6.0420912E7,6.0420928E7,6.0420928E7,6.0420976E7,6.0421008E7,63.991825,-22.605427,146.24707,0.096978,4.84514,179.9528,-24.224346,3.35964,0.006821,0.005304,3.071013,-128.36574,-244.60522,4.845121,0.096984,4.845121,0.096984,-239.99986,-240.0,146.24707,0.291181,0.201471,12.869505,192.82256,229.07086,-0.008431,-0.030384,-1217.7789,784.1107
0.0,0.0,0.0,0.0,0.0,0.0,0.2,6.0420912E7,6.0420912E7,6.0420928E7,6.0420928E7,6.0420976E7,6.0421008E7,63.991825,-22.605427,146.24739,0.097096,4.845238,179.95164,-24.678293,3.372234,0.006824,0.005312,3.03608,-128.38145,-244.62094,4.845218,0.097101,4.845218,0.097101,-239.99986,-240.0,146.24739,0.294545,0.199928,12.869505,192.8214,228.39282,-0.008425,-0.029085,-1110.0005,784.40015
0.0,0.0,0.0,0.0,0.0,0.0,0.2,6.0420912E7,6.0420912E7,6.0420928E7,6.0420928E7,6.0420976E7,6.0421008E7,63.991825,-22.605427,146.24771,0.097217,4.845335,179.95049,-25.128761,3.385073,0.006811,0.005307,3.022238,-128.39252,-244.632,4.845316,0.097223,4.845316,0.097223,-239.99986,-240.0,146.24771,0.297852,0.20033,12.869505,192.82024,227.65726,-0.008433,-0.027851,-1001.96454,784.6751
0.0,0.0,0.0,0.0,0.0,0.0,0.2,6.0420912E7,6.0420912E7,6.0420928E7,6.0420928E7,6.0420976E7,6.0421008E7,63.991825,-22.605427,146.24802,0.097389,4.845429,179.94942,-25.52433,3.396647,0.006859,0.005349,3.016136,-128.40128,-244.64078,4.845409,0.097346,4.845409,0.097346,-239.99986,-240.0,146.24802,0.300834,0.191273,12.869505,192.81917,226.93468,-0.008429,-0.026772,-902.8493,784.91327
0.0,0.0,0.0,0.0,0.0,0.0,0.2,6.0420912E7,6.0420912E7,6.0420928E7,6.0420928E7,6.0420976E7,6.0421008E7,63.991825,-22.605427,146.24834,0.09751,4.845527,179.94824,-25.96769,3.409921,0.006869,0.005364,3.012335,-128.4102,-244.6497,4.845507,0.097467,4.845507,0.097467,-239.99986,-240.0,146.24834,0.304036,0.192615,12.869505,192.818,226.09615,-0.008419,-0.025652,-794.68365,785.157
