aileron,elevator,rudder,flaps,slats,speedbrake,throttle,engine-pump0,engine-pump1,electric-pump0,electric-pump1,external-power,APU-generator,latitude-deg,longitude-deg,altitude-ft,roll-deg,pitch-deg,heading-deg,side-slip-deg,airspeed-kt,glideslope,vertical-speed-fps,airspeed-indicator_indicated-speed-kt,altimeter_indicated-altitude-ft,altimeter_pressure-alt-ft,attitude-indicator_indicated-pitch-deg,attitude-indicator_indicated-roll-deg,attitude-indicator_internal-pitch-deg,attitude-indicator_internal-roll-deg,encoder_indicated-altitude-ft,encoder_pressure-alt-ft,gps_indicated-altitude-ft,gps_indicated-ground-speed-kt,gps_indicated-vertical-speed,indicated-heading-offset-deg,indicated-heading-deg,magnetic-compass_indicated-heading-deg,slip-skid-ball_indicated-slip-skid,turn-indicator_indicated-turn-rate,vertical-speed-indicator_indicated-speed-fpm,engine_rpm
0.0,0.0,0.0,0.0,0.0,0.0,1.0,1.00045616E8,1.00045616E8,1.00045632E8,1.00045632E8,1.0004568E8,1.00045712E8,63.985043,-22.592484,-9999.0,0.0,0.424,270.02136,0.0,0.0,0.0,0.0,0.0,0.0,0.0,0.0,0.0,0.0,0.0,0.0,0.0,0.0,0.0,0.0,12.876752,0.0,0.0,0.0,0.0,0.0,0.0
0.0,0.0,0.0,0.0,0.0,0.0,1.0,1.00045616E8,1.00045616E8,1.00045632E8,1.00045632E8,1.0004568E8,1.00045712E8,63.985043,-22.592484,-9999.0,0.0,0.424,270.02136,0.0,0.0,0.0,0.0,0.0,389.08878,1.193444,12.0,40.0,0.0,0.0,0.0,0.0,0.0,0.0,0.0,12.876752,282.89813,0.0,0.0,0.0,0.0,0.0
0.0,0.0,0.0,0.0,0.0,0.0,1.0,1.00045616E8,1.00045616E8,1.00045632E8,1.00045632E8,1.0004568E8,1.00045712E8,63.991837,-22.605425,-9999.0,0.0,0.424,180.01839,0.0,0.0,0.0,0.0,0.0,389.08878,1.193444,12.0,40.0,0.0,0.0,0.0,0.0,0.0,0.0,0.0,12.876752,282.89813,0.0,0.0,0.0,0.0,0.0
0.0,0.0,0.0,0.0,0.0,0.0,1.0,1.00045616E8,1.00045616E8,1.00045632E8,1.00045632E8,1.0004568E8,1.00045712E8,63.991837,-22.605425,-9999.0,0.0,0.424,180.01839,0.0,0.0,0.0,0.0,0.0,389.08878,1.193444,12.0,40.0,0.0,0.0,0.0,0.0,0.0,0.0,0.0,12.876752,282.89813,0.0,0.0,0.0,0.0,0.0
0.0,0.0,0.0,0.0,0.0,0.0,1.0,1.00045616E8,1.00045616E8,1.00045632E8,1.00045632E8,1.0004568E8,1.00045712E8,63.991837,-22.605425,-9999.0,0.0,0.424,180.01839,0.0,0.0,0.0,0.0,0.0,389.08878,1.193444,12.0,40.0,0.0,0.0,0.0,0.0,0.0,0.0,0.0,12.876752,282.89813,0.0,0.0,0.0,0.0,0.0
0.0,0.0,0.0,0.0,0.0,0.0,1.0,1.00045616E8,1.00045616E8,1.00045632E8,1.00045632E8,1.0004568E8,1.00045712E8,63.991837,-22.605425,-9999.0,0.0,0.424,180.01839,0.0,0.0,0.0,0.0,0.0,389.08878,1.193444,12.0,40.0,0.0,0.0,0.0,0.0,0.0,0.0,0.0,12.876752,282.89813,0.0,0.0,0.0,0.0,0.0
0.0,0.0,0.0,0.0,0.0,0.0,1.0,1.00045616E8,1.00045616E8,1.00045632E8,1.00045632E8,1.0004568E8,1.00045712E8,63.991837,-22.605425,-9999.0,0.0,0.424,180.01839,0.0,0.0,0.0,0.0,0.0,389.08878,1.193444,12.0,40.0,0.0,0.0,0.0,0.0,0.0,0.0,0.0,12.876752,282.89813,0.0,0.0,0.0,0.0,0.0
0.0,0.0,0.0,0.0,0.0,0.0,1.0,1.00045616E8,1.00045616E8,1.00045632E8,1.00045632E8,1.0004568E8,1.00045712E8,63.991837,-22.605425,-9999.0,0.0,0.424,180.01839,0.0,0.0,0.0,0.0,0.0,389.08878,1.193444,12.0,40.0,0.0,0.0,0.0,0.0,0.0,0.0,0.0,12.876752,282.89813,0.0,0.0,0.0,0.0,0.0
0.0,0.0,0.0,0.0,0.0,0.0,1.0,1.00045616E8,1.00045616E8,1.00045632E8,1.00045632E8,1.0004568E8,1.00045712E8,63.991837,-22.605425,-9999.0,0.0,0.424,180.01839,0.0,0.0,0.0,0.0,0.0,389.08878,1.193444,12.0,40.0,0.0,0.0,0.0,0.0,0.0,0.0,0.0,12.876752,282.89813,0.0,0.0,0.0,0.0,0.0
0.0,0.0,0.0,0.0,0.0,0.0,1.0,1.00045616E8,1.00045616E8,1.00045632E8,1.00045632E8,1.0004568E8,1.00045712E8,63.991837,-22.605425,-9999.0,0.0,0.424,180.01839,0.0,0.0,0.0,0.0,0.0,389.08878,1.193444,12.0,40.0,0.0,0.0,0.0,0.0,0.0,0.0,0.0,12.876752,282.89813,0.0,0.0,0.0,0.0,0.0
0.0,0.0,0.0,0.0,0.0,0.0,1.0,1.00045616E8,1.00045616E8,1.00045632E8,1.00045632E8,1.0004568E8,1.00045712E8,63.991837,-22.605425,-9999.0,0.0,0.424,180.01839,0.0,0.0,0.0,0.0,0.0,389.08878,1.193444,12.0,40.0,0.0,0.0,0.0,0.0,0.0,0.0,0.0,12.876752,282.89813,0.0,0.0,0.0,0.0,0.0
0.0,0.0,0.0,0.0,0.0,0.0,1.0,1.00045616E8,1.00045616E8,1.00045632E8,1.00045632E8,1.0004568E8,1.00045712E8,63.991837,-22.605425,-9999.0,0.0,0.424,180.01839,0.0,0.0,0.0,0.0,0.0,389.08878,1.193444,12.0,40.0,0.0,0.0,0.0,0.0,0.0,0.0,0.0,12.876752,282.89813,0.0,0.0,0.0,0.0,0.0
0.0,0.0,0.0,0.0,0.0,0.0,1.0,1.00045616E8,1.00045616E8,1.00045632E8,1.00045632E8,1.0004568E8,1.00045712E8,63.991837,-22.605425,-9999.0,0.0,0.424,180.01839,0.0,0.0,0.0,0.0,0.0,389.08878,1.193444,12.0,40.0,0.0,0.0,0.0,0.0,0.0,0.0,0.0,12.876752,282.89813,0.0,0.0,0.0,0.0,0.0
0.0,0.0,0.0,0.0,0.0,0.0,1.0,1.00045616E8,1.00045616E8,1.00045632E8,1.00045632E8,1.0004568E8,1.00045712E8,63.991837,-22.605425,-9999.0,0.0,0.424,180.01839,0.0,0.0,0.0,0.0,0.0,389.08878,1.193444,12.0,40.0,0.0,0.0,0.0,0.0,0.0,0.0,0.0,12.876752,282.89813,0.0,0.0,0.0,0.0,0.0
0.0,0.0,0.0,0.0,0.0,0.0,1.0,1.00045616E8,1.00045616E8,1.00045632E8,1.00045632E8,1.0004568E8,1.00045712E8,63.991837,-22.605425,-9999.0,0.0,0.424,180.01839,0.0,0.0,0.0,0.0,0.0,389.08878,1.193444,12.0,40.0,0.0,0.0,0.0,0.0,0.0,0.0,0.0,12.876752,282.89813,0.0,0.0,0.0,0.0,0.0
0.0,0.0,0.0,0.0,0.0,0.0,1.0,1.00045616E8,1.00045616E8,1.00045632E8,1.00045632E8,1.0004568E8,1.00045712E8,63.991837,-22.605425,-9999.0,0.0,0.424,180.01839,0.0,0.0,0.0,0.0,0.0,389.08878,1.193444,12.0,40.0,0.0,0.0,0.0,0.0,0.0,0.0,0.0,12.876752,282.89813,0.0,0.0,0.0,0.0,0.0
0.0,0.0,0.0,0.0,0.0,0.0,1.0,1.00045616E8,1.00045616E8,1.00045632E8,1.00045632E8,1.0004568E8,1.00045712E8,63.991837,-22.605425,-9999.0,0.0,0.424,180.01839,0.0,0.0,0.0,0.0,0.0,389.08878,1.193444,12.0,40.0,0.0,0.0,0.0,0.0,0.0,0.0,0.0,12.876752,282.89813,0.0,0.0,0.0,0.0,0.0
0.0,0.0,0.0,0.0,0.0,0.0,1.0,1.00045616E8,1.00045616E8,1.00045632E8,1.00045632E8,1.0004568E8,1.00045712E8,63.991837,-22.605425,-9999.0,0.0,0.424,180.01839,0.0,0.0,0.0,0.0,0.0,389.08878,1.193444,12.0,40.0,0.0,0.0,0.0,0.0,0.0,0.0,0.0,12.876752,282.89813,0.0,0.0,0.0,0.0,0.0
0.0,0.0,0.0,0.0,0.0,0.0,1.0,1.00045616E8,1.00045616E8,1.00045632E8,1.00045632E8,1.0004568E8,1.00045712E8,63.991837,-22.605425,-9999.0,0.0,0.424,180.01839,0.0,0.0,0.0,0.0,0.0,389.08878,1.193444,12.0,40.0,0.0,0.0,0.0,0.0,0.0,0.0,0.0,12.876752,282.89813,0.0,0.0,0.0,0.0,0.0
0.0,0.0,0.0,0.0,0.0,0.0,1.0,1.00045616E8,1.00045616E8,1.00045632E8,1.00045632E8,1.0004568E8,1.00045712E8,63.991837,-22.605425,-9999.0,0.0,0.424,180.01839,0.0,0.0,0.0,0.0,0.0,389.08878,1.193444,12.0,40.0,0.0,0.0,0.0,0.0,0.0,0.0,0.0,12.876752,282.89813,0.0,0.0,0.0,0.0,0.0
0.0,0.0,0.0,0.0,0.0,0.0,1.0,1.00045616E8,1.00045616E8,1.00045632E8,1.00045632E8,1.0004568E8,1.00045712E8,63.991837,-22.605425,-9999.0,0.0,0.424,180.01839,0.0,0.0,0.0,0.0,0.0,389.08878,1.193444,12.0,40.0,0.0,0.0,0.0,0.0,0.0,0.0,0.0,12.876752,282.89813,0.0,0.0,0.0,0.0,0.0
0.0,0.0,0.0,0.0,0.0,0.0,1.0,1.00045616E8,1.00045616E8,1.00045632E8,1.00045632E8,1.0004568E8,1.00045712E8,63.991837,-22.605425,-9999.0,0.0,0.424,180.01839,0.0,0.0,0.0,0.0,0.0,389.08878,1.193444,12.0,40.0,0.0,0.0,0.0,0.0,0.0,0.0,0.0,12.876752,282.89813,0.0,0.0,0.0,0.0,0.0
0.0,0.0,0.0,0.0,0.0,0.0,1.0,1.00045616E8,1.00045616E8,1.00045632E8,1.00045632E8,1.0004568E8,1.00045712E8,63.991837,-22.605425,-9999.0,0.0,0.424,180.01839,0.0,0.0,0.0,0.0,0.0,389.08878,1.193444,12.0,40.0,0.0,0.0,0.0,0.0,0.0,0.0,0.0,12.876752,282.89813,0.0,0.0,0.0,0.0,0.0
0.0,0.0,0.0,0.0,0.0,0.0,1.0,1.00045616E8,1.00045616E8,1.00045632E8,1.00045632E8,1.0004568E8,1.00045712E8,63.991837,-22.605425,-9999.0,0.0,0.424,180.01839,0.0,0.0,0.0,0.0,0.0,389.08878,1.193444,12.0,40.0,0.0,0.0,0.0,0.0,0.0,0.0,0.0,12.876752,282.89813,0.0,0.0,0.0,0.0,0.0
0.0,0.0,0.0,0.0,0.0,0.0,1.0,1.00045616E8,1.00045616E8,1.00045632E8,1.00045632E8,1.0004568E8,1.00045712E8,63.991837,-22.605425,-9999.0,0.0,0.424,180.01839,0.0,0.0,0.0,0.0,0.0,389.08878,1.193444,12.0,40.0,0.0,0.0,0.0,0.0,0.0,0.0,0.0,12.876752,282.89813,0.0,0.0,0.0,0.0,0.0
0.0,0.0,0.0,0.0,0.0,0.0,1.0,1.00045616E8,1.00045616E8,1.00045632E8,1.00045632E8,1.0004568E8,1.00045712E8,63.991837,-22.605425,-9999.0,0.0,0.424,180.01839,0.0,0.0,0.0,0.0,0.0,389.08878,1.193444,12.0,40.0,0.0,0.0,0.0,0.0,0.0,0.0,0.0,12.876752,282.89813,0.0,0.0,0.0,0.0,0.0
0.0,0.0,0.0,0.0,0.0,0.0,1.0,1.00045616E8,1.00045616E8,1.00045632E8,1.00045632E8,1.0004568E8,1.00045712E8,63.991837,-22.605425,-9999.0,0.0,0.424,180.01839,0.0,0.0,0.0,0.0,0.0,389.08878,1.193444,12.0,40.0,0.0,0.0,0.0,0.0,0.0,0.0,0.0,12.876752,282.89813,0.0,0.0,0.0,0.0,0.0
0.0,0.0,0.0,0.0,0.0,0.0,1.0,1.00045616E8,1.00045616E8,1.00045632E8,1.00045632E8,1.0004568E8,1.00045712E8,63.991837,-22.605425,-9999.0,0.0,0.424,180.01839,0.0,0.0,0.0,0.0,0.0,389.08878,1.193444,12.0,40.0,0.0,0.0,0.0,0.0,0.0,0.0,0.0,12.876752,282.89813,0.0,0.0,0.0,0.0,0.0
0.0,0.0,0.0,0.0,0.0,0.0,1.0,1.00045616E8,1.00045616E8,1.00045632E8,1.00045632E8,1.0004568E8,1.00045712E8,63.991837,-22.605425,-9999.0,0.0,0.424,180.01839,0.0,0.0,0.0,0.0,0.0,389.08878,1.193444,12.0,40.0,0.0,0.0,0.0,0.0,0.0,0.0,0.0,12.876752,282.89813,0.0,0.0,0.0,0.0,0.0
0.0,0.0,0.0,0.0,0.0,0.0,1.0,1.00045616E8,1.00045616E8,1.00045632E8,1.00045632E8,1.0004568E8,1.00045712E8,63.991837,-22.605425,-9999.0,0.0,0.424,180.01839,0.0,0.0,0.0,0.0,0.0,389.08878,1.193444,12.0,40.0,0.0,0.0,0.0,0.0,0.0,0.0,0.0,12.876752,282.89813,0.0,0.0,0.0,0.0,0.0
0.0,0.0,0.0,0.0,0.0,0.0,1.0,1.00045616E8,1.00045616E8,1.00045632E8,1.00045632E8,1.0004568E8,1.00045712E8,63.991837,-22.605425,-9999.0,0.0,0.424,180.01839,0.0,0.0,0.0,0.0,0.0,389.08878,1.193444,12.0,40.0,0.0,0.0,0.0,0.0,0.0,0.0,0.0,12.876752,282.89813,0.0,0.0,0.0,0.0,0.0
0.0,0.0,0.0,0.0,0.0,0.0,1.0,1.00045616E8,1.00045616E8,1.00045632E8,1.00045632E8,1.0004568E8,1.00045712E8,63.991837,-22.605425,-9999.0,0.0,0.424,180.01839,0.0,0.0,0.0,0.0,0.0,389.08878,1.193444,12.0,40.0,0.0,0.0,0.0,0.0,0.0,0.0,0.0,12.876752,282.89813,0.0,0.0,0.0,0.0,0.0
0.0,0.0,0.0,0.0,0.0,0.0,1.0,1.00045616E8,1.00045616E8,1.00045632E8,1.00045632E8,1.0004568E8,1.00045712E8,63.991837,-22.605425,-9999.0,0.0,0.424,180.01839,0.0,0.0,0.0,0.0,0.0,389.08878,1.193444,12.0,40.0,0.0,0.0,0.0,0.0,0.0,0.0,0.0,12.876752,282.89813,0.0,0.0,0.0,0.0,0.0
0.0,0.0,0.0,0.0,0.0,0.0,1.0,1.00045616E8,1.00045616E8,1.00045632E8,1.00045632E8,1.0004568E8,1.00045712E8,63.991837,-22.605425,-9999.0,0.0,0.424,180.01839,0.0,0.0,0.0,0.0,0.0,389.08878,1.193444,12.0,40.0,0.0,0.0,0.0,0.0,0.0,0.0,0.0,12.876752,282.89813,0.0,0.0,0.0,0.0,0.0
0.0,0.0,0.0,0.0,0.0,0.0,1.0,1.00045616E8,1.00045616E8,1.00045632E8,1.00045632E8,1.0004568E8,1.00045712E8,63.991837,-22.605425,-9999.0,0.0,0.424,180.01839,0.0,0.0,0.0,0.0,0.0,389.08878,1.193444,12.0,40.0,0.0,0.0,0.0,0.0,0.0,0.0,0.0,12.876752,282.89813,0.0,0.0,0.0,0.0,0.0
0.0,0.0,0.0,0.0,0.0,0.0,1.0,1.00045616E8,1.00045616E8,1.00045632E8,1.00045632E8,1.0004568E8,1.00045712E8,63.991837,-22.605425,-9999.0,0.0,0.424,180.01839,0.0,0.0,0.0,0.0,0.0,389.08878,1.193444,12.0,40.0,0.0,0.0,0.0,0.0,0.0,0.0,0.0,12.876752,282.89813,0.0,0.0,0.0,0.0,0.0
0.0,0.0,0.0,0.0,0.0,0.0,1.0,1.00045616E8,1.00045616E8,1.00045632E8,1.00045632E8,1.0004568E8,1.00045712E8,63.991837,-22.605425,-9999.0,0.0,0.424,180.01839,0.0,0.0,0.0,0.0,0.0,389.08878,1.193444,12.0,40.0,0.0,0.0,0.0,0.0,0.0,0.0,0.0,12.876752,282.89813,0.0,0.0,0.0,0.0,0.0
0.0,0.0,0.0,0.0,0.0,0.0,1.0,1.00045616E8,1.00045616E8,1.00045632E8,1.00045632E8,1.0004568E8,1.00045712E8,63.991837,-22.605425,-9999.0,0.0,0.424,180.01839,0.0,0.0,0.0,0.0,0.0,389.08878,1.193444,12.0,40.0,0.0,0.0,0.0,0.0,0.0,0.0,0.0,12.876752,282.89813,0.0,0.0,0.0,0.0,0.0
0.0,0.0,0.0,0.0,0.0,0.0,1.0,1.00045616E8,1.00045616E8,1.00045632E8,1.00045632E8,1.0004568E8,1.00045712E8,63.991837,-22.605425,-9999.0,0.0,0.424,180.01839,0.0,0.0,0.0,0.0,0.0,389.08878,1.193444,12.0,40.0,0.0,0.0,0.0,0.0,0.0,0.0,0.0,12.876752,282.89813,0.0,0.0,0.0,0.0,0.0
0.0,0.0,0.0,0.0,0.0,0.0,1.0,1.00045616E8,1.00045616E8,1.00045632E8,1.00045632E8,1.0004568E8,1.00045712E8,63.991837,-22.605425,-9999.0,0.0,0.424,180.01839,0.0,0.0,0.0,0.0,0.0,389.08878,1.193444,12.0,40.0,0.0,0.0,0.0,0.0,0.0,0.0,0.0,12.876752,282.89813,0.0,0.0,0.0,0.0,0.0
0.0,0.0,0.0,0.0,0.0,0.0,1.0,1.00045616E8,1.00045616E8,1.00045632E8,1.00045632E8,1.0004568E8,1.00045712E8,63.991837,-22.605425,-9999.0,0.0,0.424,180.01839,0.0,0.0,0.0,0.0,0.0,389.08878,1.193444,12.0,40.0,0.0,0.0,0.0,0.0,0.0,0.0,0.0,12.876752,282.89813,0.0,0.0,0.0,0.0,0.0
0.0,0.0,0.0,0.0,0.0,0.0,0.0,1.00045616E8,1.00045616E8,1.00045632E8,1.00045632E8,1.0004568E8,1.00045712E8,63.991837,-22.605427,146.2295,0.104764,4.952322,180.01332,0.0,0.0,0.0,0.0,0.0,389.08878,1.193444,12.0,40.0,0.0,0.0,0.0,0.0,0.0,0.0,0.0,12.876752,282.89813,0.0,0.0,0.0,0.0,0.0
0.0,0.0,0.0,0.0,0.0,0.0,0.0,1.00045616E8,1.00045616E8,1.00045632E8,1.00045632E8,1.0004568E8,1.00045712E8,63.991837,-22.605427,146.22928,0.095401,4.972802,180.01259,89.863716,3.012191,-0.06836,-1.51E-4,0.0,537.41284,149.51749,12.0,40.0,0.0,0.0,140.00014,140.0,146.22928,7.5E-5,-0.017712,12.876752,282.89807,356.28735,-0.006435,-0.529486,3912.6836,0.0
0.0,0.0,0.0,0.0,0.0,0.0,0.0,1.00045616E8,1.00045616E8,1.00045632E8,1.00045632E8,1.0004568E8,1.00045712E8,63.991837,-22.605427,146.22952,0.095429,4.951459,180.01257,83.88294,2.733589,0.07964,1.9E-5,0.0,510.12122,122.22588,12.0,40.0,0.0,0.0,120.000145,120.0,146.22952,6.2E-5,0.002315,12.876752,282.89807,327.87402,-0.012835,-1.30607,2345.856,0.0
0.0,0.0,0.0,0.0,0.0,0.0,0.0,1.00045616E8,1.00045616E8,1.00045632E8,1.00045632E8,1.0004568E8,1.00045712E8,63.991837,-22.605427,146.22954,0.095464,4.951219,180.01257,83.31193,2.711949,0.073916,1.3E-5,4.844533,508.7485,120.853165,12.0,40.0,0.0,0.0,120.000145,120.0,146.22954,6.1E-5,0.001543,12.876752,282.89807,324.4878,-0.01307,-1.354895,2217.7327,0.0
0.0,0.0,0.0,0.0,0.0,0.0,0.0,1.00045616E8,1.00045616E8,1.00045632E8,1.00045632E8,1.0004568E8,1.00045712E8,63.991837,-22.605427,146.22954,0.095855,4.950921,180.0126,81.66296,2.652809,-0.008146,-1.0E-6,5.067924,502.45886,114.56351,12.0,40.0,0.0,0.0,120.000145,120.0,146.22954,5.8E-5,1.34E-4,12.876752,282.89807,314.359,-0.013827,-1.48124,1767.9263,0.0
0.0,0.0,0.0,0.0,0.0,0.0,0.0,1.00045616E8,1.00045616E8,1.00045632E8,1.00045632E8,1.0004568E8,1.00045712E8,63.991837,-22.605427,146.22954,0.096019,4.950882,180.01262,80.93337,2.628153,-0.050562,-7.0E-6,6.657903,500.38428,112.48892,12.0,40.0,0.0,0.0,110.000145,110.0,146.22954,5.7E-5,-3.69E-4,12.876752,282.89807,309.75394,-0.014106,-1.531027,1580.5712,0.0
0.0,0.0,0.0,0.0,0.0,0.0,0.0,1.00045616E8,1.00045616E8,1.00045632E8,1.00045632E8,1.0004568E8,1.00045712E8,63.991837,-22.605427,146.22954,0.096213,4.950878,180.01263,80.189995,2.603931,-0.072771,-1.1E-5,7.179331,497.81747,109.92213,12.0,40.0,0.0,0.0,110.000145,110.0,146.22954,5.6E-5,-6.71E-4,12.876752,282.89807,305.0079,-0.014359,-1.578381,1360.7042,0.0
0.0,0.0,0.0,0.0,0.0,0.0,0.0,1.00045616E8,1.00045616E8,1.00045632E8,1.00045632E8,1.0004568E8,1.00045712E8,63.991837,-22.605427,146.22954,0.096248,4.950881,180.01263,80.06474,2.599937,-0.075537,-1.1E-5,7.222878,497.36832,109.47296,12.0,40.0,0.0,0.0,110.000145,110.0,146.22954,5.5E-5,-8.05E-4,12.876752,282.89807,304.20407,-0.01444,-1.586045,1321.2502,0.0
0.0,0.0,0.0,0.0,0.0,0.0,0.0,1.00045616E8,1.00045616E8,1.00045632E8,1.00045632E8,1.0004568E8,1.00045712E8,63.991837,-22.605427,146.2295,0.098307,4.951489,180.0128,74.59021,2.447482,-0.139437,-1.3E-5,4.977387,476.98822,89.09287,12.0,40.0,0.0,0.0,90.000145,90.0,146.2295,4.8E-5,-8.05E-4,12.876752,282.89807,268.8623,-0.015755,-1.851021,-509.83566,0.0
0.0,0.0,0.0,0.0,0.0,0.0,0.0,1.00045616E8,1.00045616E8,1.00045632E8,1.00045632E8,1.0004568E8,1.00045712E8,63.991837,-22.605427,146.2295,0.09844,4.95153,180.01282,73.733315,2.427191,-0.14232,-1.6E-5,6.702787,474.8894,86.99405,12.0,40.0,0.0,0.0,90.000145,90.0,146.2295,4.7E-5,-0.001006,12.876752,282.89807,263.4259,-0.015886,-1.882736,-637.6664,0.0
0.0,0.0,0.0,0.0,0.0,0.0,0.0,1.00045616E8,1.00045616E8,1.00045632E8,1.00045632E8,1.0004568E8,1.00045712E8,63.991837,-22.605427,146.2295,0.098599,4.951579,180.01283,72.862144,2.407449,-0.140129,-1.8E-5,7.206106,472.31396,84.41863,12.0,40.0,0.0,0.0,90.000145,90.0,146.2295,4.6E-5,-0.001208,12.876752,282.89807,257.95682,-0.016009,-1.912902,-765.44714,0.0
0.0,0.0,0.0,0.0,0.0,0.0,0.0,1.00045616E8,1.00045616E8,1.00045632E8,1.00045632E8,1.0004568E8,1.00045712E8,63.991837,-22.605427,146.2295,0.098776,4.951638,180.01285,71.9767,2.388269,-0.138526,-1.9E-5,7.37544,469.57077,81.67544,12.0,40.0,0.0,0.0,80.000145,80.0,146.2295,4.5E-5,-0.001375,12.876752,282.89807,252.46657,-0.016124,-1.941593,-872.47736,0.0
0.0,0.0,0.0,0.0,0.0,0.0,0.0,1.00045616E8,1.00045616E8,1.00045632E8,1.00045632E8,1.0004568E8,1.00045712E8,63.991837,-22.605427,146.22949,0.098964,4.951705,180.01286,71.07707,2.369666,-0.137738,-2.0E-5,7.435221,466.76852,78.873184,12.0,40.0,0.0,0.0,80.000145,80.0,146.22949,4.5E-5,-0.001476,12.876752,282.89807,246.96642,-0.016233,-1.968883,-960.734,0.0
0.0,0.0,0.0,0.0,0.0,0.0,0.0,1.00045616E8,1.00045616E8,1.00045632E8,1.00045632E8,1.0004568E8,1.00045712E8,63.991837,-22.605427,146.22949,0.09918,4.951783,180.01288,70.08662,2.350183,-0.127375,-2.0E-5,7.47499,463.47534,75.58001,12.0,40.0,0.0,0.0,80.000145,80.0,146.22949,4.4E-5,-0.001778,12.876752,282.89807,241.00963,-0.016366,-1.996943,-1053.6403,0.0
0.0,0.0,0.0,0.0,0.0,0.0,0.0,1.00045616E8,1.00045616E8,1.00045632E8,1.00045632E8,1.0004568E8,1.00045712E8,63.991837,-22.605427,146.22949,0.099364,4.951852,180.0129,69.2357,2.334247,-0.127025,-1.9E-5,7.266687,461.0345,73.13913,12.0,40.0,0.0,0.0,80.000145,80.0,146.22949,4.3E-5,-0.001879,12.876752,282.89807,235.98062,-0.016428,-2.019526,-1100.224,0.0
0.0,0.0,0.0,0.0,0.0,0.0,0.0,1.00045616E8,1.00045616E8,1.00045632E8,1.00045632E8,1.0004568E8,1.00045712E8,63.991837,-22.605427,146.22949,0.099562,4.951928,180.01291,68.29431,2.317462,-0.136527,-2.1E-5,7.41908,458.25372,70.358376,12.0,40.0,0.0,0.0,70.000145,70.0,146.22949,4.2E-5,-0.001476,12.876752,282.89807,230.5165,-0.016519,-2.043006,-1150.8813,0.0
0.0,0.0,0.0,0.0,0.0,0.0,0.0,1.00045616E8,1.00045616E8,1.00045632E8,1.00045632E8,1.0004568E8,1.00045712E8,63.991837,-22.605427,146.22949,0.099759,4.952003,180.01292,67.33939,2.301309,-0.13585,-2.0E-5,7.455117,455.4382,67.54286,12.0,40.0,0.0,0.0,70.000145,70.0,146.22949,4.1E-5,-0.001476,12.876752,282.89807,225.08545,-0.016605,-2.06534,-1196.8966,0.0
0.0,0.0,0.0,0.0,0.0,0.0,0.0,1.00045616E8,1.00045616E8,1.00045632E8,1.00045632E8,1.0004568E8,1.00045712E8,63.991837,-22.605427,146.22949,0.099955,4.952079,180.01294,66.37121,2.285805,-0.133716,-2.0E-5,7.426435,452.56567,64.67033,12.0,40.0,0.0,0.0,70.000145,70.0,146.22949,4.0E-5,-0.001476,12.876752,282.89807,219.69762,-0.016687,-2.086581,-1240.2045,0.0
0.0,0.0,0.0,0.0,0.0,0.0,0.0,1.00045616E8,1.00045616E8,1.00045632E8,1.00045632E8,1.0004568E8,1.00045712E8,63.991837,-22.605427,146.22948,0.100116,4.952141,180.01295,65.554436,2.273387,-0.133604,-1.9E-5,7.440827,450.23175,62.33641,12.0,40.0,0.0,0.0,60.00014,60.0,146.22948,4.0E-5,-0.001476,12.876752,282.89807,215.24783,-0.016765,-2.103488,-1269.6484,0.0
0.0,0.0,0.0,0.0,0.0,0.0,0.0,1.00045616E8,1.00045616E8,1.00045632E8,1.00045632E8,1.0004568E8,1.00045712E8,63.991837,-22.605427,146.22948,0.100306,4.952214,180.01297,64.56268,2.259104,-0.131707,-1.9E-5,7.415854,447.37885,59.48349,12.0,40.0,0.0,0.0,60.00014,60.0,146.22948,3.9E-5,-0.001409,12.876752,282.89807,209.9645,-0.016837,-2.122865,-1303.8916,0.0
0.0,0.0,0.0,0.0,0.0,0.0,0.0,1.00045616E8,1.00045616E8,1.00045632E8,1.00045632E8,1.0004568E8,1.00045712E8,63.991837,-22.605427,146.22948,0.100522,4.952297,180.01299,63.39005,2.243306,-0.12885,-1.8E-5,7.372479,444.02792,56.132572,12.0,40.0,0.0,0.0,60.00014,60.0,146.22948,3.8E-5,-0.001409,12.876752,282.89807,203.89,-0.016906,-2.144279,-1340.4569,0.0
0.0,0.0,0.0,0.0,0.0,0.0,0.0,1.00045616E8,1.00045616E8,1.00045632E8,1.00045632E8,1.0004568E8,1.00045712E8,63.991837,-22.605427,146.22948,0.100702,4.952366,180.013,62.372017,2.230522,-0.126368,-1.7E-5,7.421889,441.19382,53.298462,12.0,40.0,0.0,0.0,60.00014,60.0,146.22948,3.7E-5,-0.001342,12.876752,282.89807,198.77011,-0.016971,-2.161663,-1366.9186,0.0
0.0,0.0,0.0,0.0,0.0,0.0,0.0,1.00045616E8,1.00045616E8,1.00045632E8,1.00045632E8,1.0004568E8,1.00045712E8,63.991837,-22.605427,146.22948,0.100877,4.952433,180.01302,61.342533,2.218449,-0.124077,-1.6E-5,7.389415,438.36795,50.472603,12.0,40.0,0.0,0.0,50.00014,50.0,146.22948,3.6E-5,-0.001342,12.876752,282.89807,193.73941,-0.017035,-2.178197,-1390.5107,0.0
0.0,0.0,0.0,0.0,0.0,0.0,0.0,1.00045616E8,1.00045616E8,1.00045632E8,1.00045632E8,1.0004568E8,1.00045712E8,63.991837,-22.605427,146.22948,0.101046,4.952497,180.01302,60.30208,2.2071,-0.121879,-1.5E-5,7.438539,435.58124,47.685898,12.0,40.0,0.0,0.0,50.00014,50.0,146.22948,3.6E-5,-0.001208,12.876752,282.89807,188.8061,-0.017094,-2.193924,-1410.318,0.0
0.0,0.0,0.0,0.0,0.0,0.0,0.0,1.00045616E8,1.00045616E8,1.00045632E8,1.00045632E8,1.0004568E8,1.00045712E8,63.991837,-22.605427,146.22946,0.10121,4.952559,180.01303,59.251183,2.196486,-0.118453,-1.5E-5,7.549999,432.76355,44.8682,12.0,40.0,0.0,0.0,50.00014,50.0,146.22946,3.5E-5,-0.001141,12.876752,282.89807,183.97801,-0.01715,-2.208882,-1429.7484,0.0
0.0,0.0,0.0,0.0,0.0,0.0,0.0,1.00045616E8,1.00045616E8,1.00045632E8,1.00045632E8,1.0004568E8,1.00045712E8,63.991837,-22.605427,146.22946,0.10137,4.952619,180.01305,58.190403,2.186617,-0.114357,-1.4E-5,7.569204,429.9349,42.039574,12.0,40.0,0.0,0.0,40.00014,40.0,146.22946,3.4E-5,-0.001141,12.876752,282.89807,179.26265,-0.017204,-2.223109,-1447.9927,0.0
0.0,0.0,0.0,0.0,0.0,0.0,0.0,1.00045616E8,1.00045616E8,1.00045632E8,1.00045632E8,1.0004568E8,1.00045712E8,63.991837,-22.605427,146.22946,0.101525,4.952676,180.01306,57.120335,2.177504,-0.104688,-1.2E-5,7.614769,427.06097,39.165638,12.0,40.0,0.0,0.0,40.00014,40.0,146.22946,3.4E-5,-0.001208,12.876752,282.89807,174.66711,-0.017253,-2.23664,-1466.6344,0.0
0.0,0.0,0.0,0.0,0.0,0.0,0.0,1.00045616E8,1.00045616E8,1.00045632E8,1.00045632E8,1.0004568E8,1.00045712E8,63.991837,-22.605427,146.22946,0.101688,4.952735,180.01308,55.95134,2.168496,-0.103602,-1.1E-5,7.56475,424.0257,36.13034,12.0,40.0,0.0,0.0,40.00014,40.0,146.22946,3.3E-5,-0.001006,12.876752,282.89807,169.83162,-0.017316,-2.250554,-1481.856,0.0
0.0,0.0,0.0,0.0,0.0,0.0,0.0,1.00045616E8,1.00045616E8,1.00045632E8,1.00045632E8,1.0004568E8,1.00045712E8,63.991837,-22.605427,146.22946,0.10182,4.952784,180.01309,54.95489,2.161584,-0.099313,-1.1E-5,7.59424,421.4356,33.540276,12.0,40.0,0.0,0.0,40.00014,40.0,146.22946,3.2E-5,-8.72E-4,12.876752,282.89807,165.86205,-0.017347,-2.261752,-1494.6262,0.0
0.0,0.0,0.0,0.0,0.0,0.0,0.0,1.00045616E8,1.00045616E8,1.00045632E8,1.00045632E8,1.0004568E8,1.00045712E8,63.991837,-22.605427,146.22946,0.101961,4.952834,180.01309,53.86089,2.154794,-0.092811,-1.0E-5,7.600045,418.60022,30.704876,12.0,40.0,0.0,0.0,30.000143,30.0,146.22946,3.2E-5,-8.39E-4,12.876752,282.89807,161.66483,-0.017391,-2.273395,-1507.902,0.0
0.0,0.0,0.0,0.0,0.0,0.0,0.0,1.00045616E8,1.00045616E8,1.00045632E8,1.00045632E8,1.0004568E8,1.00045712E8,63.991837,-22.605427,146.22946,0.102108,4.952887,180.0131,52.668346,2.148329,-0.081268,-8.0E-6,7.658648,415.5039,27.608568,12.0,40.0,0.0,0.0,30.000143,30.0,146.22946,3.1E-5,-9.06E-4,12.876752,282.89807,157.28099,-0.017446,-2.285367,-1522.1526,0.0
0.0,0.0,0.0,0.0,0.0,0.0,0.0,1.00045616E8,1.00045616E8,1.00045632E8,1.00045632E8,1.0004568E8,1.00045712E8,63.991837,-22.605427,146.22946,0.102229,4.952929,180.01312,51.653973,2.14359,-0.074516,-7.0E-6,7.543661,412.9206,25.025232,12.0,40.0,0.0,0.0,30.000143,30.0,146.22946,3.0E-5,-8.05E-4,12.876752,282.89807,153.70886,-0.017472,-2.295002,-1531.7592,0.0
0.0,0.0,0.0,0.0,0.0,0.0,0.0,1.00045616E8,1.00045616E8,1.00045632E8,1.00045632E8,1.0004568E8,1.00045712E8,63.991837,-22.605427,146.22946,0.102367,4.952976,180.01312,50.449806,2.13886,-0.069084,-6.0E-6,7.594553,409.84387,21.948538,12.0,40.0,0.0,0.0,20.000143,20.0,146.22946,3.0E-5,-6.71E-4,12.876752,282.89807,149.65474,-0.01752,-2.305833,-1543.2135,0.0
0.0,0.0,0.0,0.0,0.0,0.0,0.0,1.00045616E8,1.00045616E8,1.00045632E8,1.00045632E8,1.0004568E8,1.00045712E8,63.991837,-22.605427,146.22945,0.102479,4.953014,180.01314,49.427055,2.135598,-0.060569,-5.0E-6,7.619685,407.2607,19.365376,12.0,40.0,0.0,0.0,20.000143,20.0,146.22945,2.9E-5,-6.04E-4,12.876752,282.89807,146.36996,-0.017544,-2.314549,-1551.4086,0.0
0.0,0.0,0.0,0.0,0.0,0.0,0.0,1.00045616E8,1.00045616E8,1.00045632E8,1.00045632E8,1.0004568E8,1.00045712E8,63.991837,-22.605427,146.22945,0.102598,4.953053,180.01315,48.308117,2.132818,-0.050417,-4.0E-6,7.631406,404.42633,16.530983,12.0,40.0,0.0,0.0,20.000143,20.0,146.22945,2.9E-5,-5.37E-4,12.876752,282.89807,142.9426,-0.01758,-2.323612,-1560.3666,0.0
0.0,0.0,0.0,0.0,0.0,0.0,0.0,1.00045616E8,1.00045616E8,1.00045632E8,1.00045632E8,1.0004568E8,1.00045712E8,63.991837,-22.605427,146.22945,0.102712,4.953091,180.01315,47.18664,2.130852,-0.039557,-3.0E-6,7.638364,401.59174,13.696381,12.0,40.0,0.0,0.0,20.000143,20.0,146.22945,2.8E-5,-4.36E-4,12.876752,282.89807,139.68149,-0.017614,-2.332232,-1568.683,0.0
0.0,0.0,0.0,0.0,0.0,0.0,0.0,1.00045616E8,1.00045616E8,1.00045632E8,1.00045632E8,1.0004568E8,1.00045712E8,63.991837,-22.605427,146.22945,0.102805,4.95312,180.01317,46.250767,2.12984,-0.029284,-2.0E-6,7.636623,399.1762,11.280863,12.0,40.0,0.0,0.0,10.000142,10.0,146.22945,2.8E-5,-4.03E-4,12.876752,282.89807,137.09323,-0.017647,-2.339093,-1577.2491,0.0
0.0,0.0,0.0,0.0,0.0,0.0,0.0,1.00045616E8,1.00045616E8,1.00045632E8,1.00045632E8,1.0004568E8,1.00045712E8,63.991837,-22.605427,146.22945,0.102932,4.95316,180.01317,44.93951,2.129377,-0.014215,-1.0E-6,7.48801,395.8218,7.926468,12.0,40.0,0.0,0.0,10.000142,10.0,146.22945,2.7E-5,-3.02E-4,12.876752,282.89807,133.6704,-0.017678,-2.348229,-1587.0696,0.0
0.0,0.0,0.0,0.0,0.0,0.0,0.0,1.00045616E8,1.00045616E8,1.00045632E8,1.00045632E8,1.0004568E8,1.00045712E8,63.991837,-22.605427,146.22945,0.103043,4.953194,180.01318,43.72194,2.129946,9.51E-4,0.0,7.572256,392.80026,4.904905,12.0,40.0,0.0,0.0,10.000142,10.0,146.22945,2.6E-5,-2.68E-4,12.876752,282.89807,130.70474,-0.017715,-2.356248,-1592.053,0.0
0.0,0.0,0.0,0.0,0.0,0.0,0.0,1.00045616E8,1.00045616E8,1.00045632E8,1.00045632E8,1.0004568E8,1.00045712E8,63.991837,-22.605427,146.22945,0.103134,4.95322,180.01318,42.69255,2.131179,0.015692,1.0E-6,7.596838,390.19235,2.296997,12.0,40.0,0.0,0.0,1.42E-4,0.0,146.22945,2.6E-5,-2.01E-4,12.876752,282.89807,128.35724,-0.017735,-2.362701,-1597.9788,0.0
0.0,0.0,0.0,0.0,0.0,0.0,0.0,1.00045616E8,1.00045616E8,1.00045632E8,1.00045632E8,1.0004568E8,1.00045712E8,63.991837,-22.605427,146.22945,0.103229,4.953248,180.0132,41.57129,2.133307,0.032792,2.0E-6,7.636519,387.42007,-0.475259,12.0,40.0,0.0,0.0,1.42E-4,0.0,146.22945,2.5E-5,-1.01E-4,12.876752,282.89807,125.9671,-0.017762,-2.369411,-1602.1348,0.0
0.0,0.0,0.0,0.0,0.0,0.0,0.0,1.00045616E8,1.00045616E8,1.00045632E8,1.00045632E8,1.0004568E8,1.00045712E8,63.991837,-22.605427,146.22945,0.103321,4.953273,180.0132,40.452656,2.13625,0.049434,3.0E-6,7.655895,384.6956,-3.199758,12.0,40.0,0.0,0.0,1.42E-4,0.0,146.22945,2.5E-5,-6.7E-5,12.876752,282.89807,123.75632,-0.017788,-2.375793,-1608.4119,0.0
0.0,0.0,0.0,0.0,0.0,0.0,0.0,1.00045616E8,1.00045616E8,1.00045632E8,1.00045632E8,1.0004568E8,1.00045712E8,63.991837,-22.605427,146.22945,0.103403,4.953294,180.01321,39.430256,2.139662,0.066699,4.0E-6,7.662631,382.225,-5.670339,12.0,40.0,0.0,0.0,1.42E-4,0.0,146.22945,2.4E-5,6.7E-5,12.876752,282.89807,121.88805,-0.017813,-2.381368,-1612.7097,0.0
0.0,0.0,0.0,0.0,0.0,0.0,0.0,1.00045616E8,1.00045616E8,1.00045632E8,1.00045632E8,1.0004568E8,1.00045712E8,63.991837,-22.605427,146.22945,0.10349,4.953316,180.01321,38.31899,2.144158,0.084469,5.0E-6,7.674573,379.3814,-8.51394,12.0,40.0,0.0,0.0,-9.999858,-10.0,146.22945,2.4E-5,2.01E-4,12.876752,282.89807,120.023026,-0.017836,-2.387166,-1622.9441,0.0
0.0,0.0,0.0,0.0,0.0,0.0,0.0,1.00045616E8,1.00045616E8,1.00045632E8,1.00045632E8,1.0004568E8,1.00045712E8,63.991837,-22.605427,146.22945,0.103588,4.95334,180.01323,37.028896,2.150419,0.113991,7.0E-6,7.611499,376.22617,-11.66919,12.0,40.0,0.0,0.0,-9.999858,-10.0,146.22945,2.3E-5,1.68E-4,12.876752,282.89807,118.075584,-0.017866,-2.393572,-1627.6172,0.0
0.0,0.0,0.0,0.0,0.0,0.0,0.0,1.00045616E8,1.00045616E8,1.00045632E8,1.00045632E8,1.0004568E8,1.00045712E8,63.991837,-22.605427,146.22945,0.10365,4.953354,180.01323,36.203762,2.155017,0.124819,7.0E-6,7.408628,373.93762,-13.957733,12.0,40.0,0.0,0.0,-9.999858,-10.0,146.22945,2.3E-5,3.35E-4,12.876752,282.89807,116.953384,-0.01788,-2.397497,-1640.6088,0.0
0.0,0.0,0.0,0.0,0.0,0.0,0.0,1.00045616E8,1.00045616E8,1.00045632E8,1.00045632E8,1.0004568E8,1.00045712E8,63.991837,-22.605427,146.22945,0.103747,4.953375,180.01324,34.836758,2.163666,0.163585,9.0E-6,7.385824,370.80826,-17.087097,12.0,40.0,0.0,0.0,-9.999858,-10.0,146.22945,2.3E-5,3.35E-4,12.876752,282.89807,115.30782,-0.017908,-2.40372,-1634.1893,0.0
0.0,0.0,0.0,0.0,0.0,0.0,0.0,1.00045616E8,1.00045616E8,1.00045632E8,1.00045632E8,1.0004568E8,1.00045712E8,63.991837,-22.605427,146.22945,0.10382,4.953389,180.01324,33.75146,2.171467,0.182099,9.0E-6,7.635548,368.1976,-19.697731,12.0,40.0,0.0,0.0,-19.999857,-20.0,146.22945,2.2E-5,5.7E-4,12.876752,282.89807,114.19258,-0.017929,-2.408426,-1633.7617,0.0
0.0,0.0,0.0,0.0,0.0,0.0,0.0,1.00045616E8,1.00045616E8,1.00045632E8,1.00045632E8,1.0004568E8,1.00045712E8,63.991837,-22.605427,146.22945,0.103885,4.953401,180.01324,32.76372,2.179298,0.21542,1.1E-5,7.667032,365.76437,-22.130962,12.0,40.0,0.0,0.0,-19.999857,-20.0,146.22945,2.2E-5,6.04E-4,12.876752,282.89807,113.32618,-0.017941,-2.412536,-1634.9913,0.0
0.0,0.0,0.0,0.0,0.0,0.0,0.0,1.00045616E8,1.00045616E8,1.00045632E8,1.00045632E8,1.0004568E8,1.00045712E8,63.991837,-22.605427,146.22945,0.103959,4.953413,180.01326,31.605875,2.189381,0.253669,1.2E-5,7.678601,362.85754,-25.037794,12.0,40.0,0.0,0.0,-19.999857,-20.0,146.22945,2.1E-5,5.37E-4,12.876752,282.89807,112.49273,-0.017966,-2.417157,-1637.5333,0.0
0.0,0.0,0.0,0.0,0.0,0.0,0.0,1.00045616E8,1.00045616E8,1.00045632E8,1.00045632E8,1.0004568E8,1.00045712E8,63.991837,-22.605427,146.22946,0.104025,4.953424,180.01326,30.54687,2.199476,0.287689,1.4E-5,7.725162,360.18106,-27.714272,12.0,40.0,0.0,0.0,-29.999857,-30.0,146.22946,2.1E-5,5.37E-4,12.876752,282.89807,111.90449,-0.017983,-2.421206,-1639.4822,0.0
0.0,0.0,0.0,0.0,0.0,0.0,0.0,1.00045616E8,1.00045616E8,1.00045632E8,1.00045632E8,1.0004568E8,1.00045712E8,63.991837,-22.605427,146.22946,0.104084,4.953431,180.01326,29.584879,2.209384,0.318033,1.5E-5,7.754025,357.71646,-30.178873,12.0,40.0,0.0,0.0,-29.999857,-30.0,146.22946,2.0E-5,6.04E-4,12.876752,282.89807,111.516,-0.017995,-2.424743,-1641.6027,0.0
0.0,0.0,0.0,0.0,0.0,0.0,0.0,1.00045616E8,1.00045616E8,1.00045632E8,1.00045632E8,1.0004568E8,1.00045712E8,63.991837,-22.605427,146.22946,0.104146,4.953438,180.01328,28.545511,2.220896,0.352617,1.6E-5,7.764887,355.01538,-32.87997,12.0,40.0,0.0,0.0,-29.999857,-30.0,146.22946,2.0E-5,6.71E-4,12.876752,282.89807,111.25425,-0.018013,-2.428421,-1644.2457,0.0
0.0,0.0,0.0,0.0,0.0,0.0,0.0,1.00045616E8,1.00045616E8,1.00045632E8,1.00045632E8,1.0004568E8,1.00045712E8,63.991837,-22.605427,146.22946,0.104207,4.953444,180.01328,27.517159,2.233132,0.387503,1.7E-5,7.773783,352.3136,-35.581745,12.0,40.0,0.0,0.0,-29.999857,-30.0,146.22946,2.0E-5,7.38E-4,12.876752,282.89807,111.158844,-0.018029,-2.431919,-1646.7375,0.0
0.0,0.0,0.0,0.0,0.0,0.0,0.0,1.00045616E8,1.00045616E8,1.00045632E8,1.00045632E8,1.0004568E8,1.00045712E8,63.991837,-22.605427,146.22946,0.104266,4.953448,180.01328,26.5003,2.24608,0.423092,1.8E-5,7.782331,349.61157,-38.28377,12.0,40.0,0.0,0.0,-39.99986,-40.0,146.22946,1.9E-5,8.05E-4,12.876752,282.89807,111.22667,-0.018046,-2.435246,-1649.0712,0.0
0.0,0.0,0.0,0.0,0.0,0.0,0.0,1.00045616E8,1.00045616E8,1.00045632E8,1.00045632E8,1.0004568E8,1.00045712E8,63.991837,-22.605427,146.22946,0.104323,4.953452,180.01329,25.49537,2.259728,0.458743,2.0E-5,7.79081,346.90945,-40.985897,12.0,40.0,0.0,0.0,-39.99986,-40.0,146.22946,1.9E-5,8.72E-4,12.876752,282.89807,111.45435,-0.018061,-2.438411,-1651.2515,0.0
0.0,0.0,0.0,0.0,0.0,0.0,0.0,1.00045616E8,1.00045616E8,1.00045632E8,1.00045632E8,1.0004568E8,1.00045712E8,63.991837,-22.605427,146.22946,0.104378,4.953453,180.01329,24.502773,2.274064,0.494593,2.1E-5,7.799317,344.20728,-43.688065,12.0,40.0,0.0,0.0,-39.99986,-40.0,146.22946,1.8E-5,8.72E-4,12.876752,282.89807,111.83829,-0.018076,-2.44142,-1653.2865,0.0
0.0,0.0,0.0,0.0,0.0,0.0,0.0,1.00045616E8,1.00045616E8,1.00045632E8,1.00045632E8,1.0004568E8,1.00045712E8,63.991837,-22.605427,146.22946,0.104432,4.953454,180.01329,23.522863,2.289073,0.530377,2.2E-5,7.807886,341.5051,-46.39026,12.0,40.0,0.0,0.0,-39.99986,-40.0,146.22946,1.8E-5,0.001006,12.876752,282.89807,112.3746,-0.01809,-2.444283,-1655.1853,0.0
0.0,0.0,0.0,0.0,0.0,0.0,0.0,1.00045616E8,1.00045616E8,1.00045632E8,1.00045632E8,1.0004568E8,1.00045712E8,63.991837,-22.605427,146.22946,0.104485,4.953453,180.01329,22.555971,2.304744,0.554086,2.3E-5,7.726696,338.66672,-49.22862,12.0,40.0,0.0,0.0,-49.99986,-50.0,146.22946,1.8E-5,0.001174,12.876752,282.89807,113.059235,-0.018104,-2.447006,-1662.2306,0.0
0.0,0.0,0.0,0.0,0.0,0.0,0.0,1.00045616E8,1.00045616E8,1.00045632E8,1.00045632E8,1.0004568E8,1.00045712E8,63.991837,-22.605427,146.22948,0.104541,4.95345,180.0133,21.523495,2.322451,0.599749,2.4E-5,7.752589,335.83685,-52.058495,12.0,40.0,0.0,0.0,-49.99986,-50.0,146.22948,1.7E-5,0.001208,12.876752,282.89807,113.96328,-0.018121,-2.449806,-1659.8657,0.0
0.0,0.0,0.0,0.0,0.0,0.0,0.0,1.00045616E8,1.00045616E8,1.00045632E8,1.00045632E8,1.0004568E8,1.00045712E8,63.991837,-22.605427,146.22948,0.10459,4.953446,180.0133,20.58456,2.339457,0.635492,2.6E-5,7.81038,333.1596,-54.735725,12.0,40.0,0.0,0.0,-49.99986,-50.0,146.22948,1.7E-5,0.001208,12.876752,282.89807,114.94285,-0.018133,-2.452259,-1660.35,0.0
0.0,0.0,0.0,0.0,0.0,0.0,0.0,1.00045616E8,1.00045616E8,1.00045632E8,1.00045632E8,1.0004568E8,1.00045712E8,63.991837,-22.605427,146.22948,0.104635,4.953442,180.0133,19.735975,2.355591,0.64988,2.7E-5,7.839466,330.69467,-57.20067,12.0,40.0,0.0,0.0,-49.99986,-50.0,146.22948,1.7E-5,0.001275,12.876752,282.89807,115.959,-0.018141,-2.454402,-1661.1931,0.0
0.0,0.0,0.0,0.0,0.0,0.0,0.0,1.00045616E8,1.00045616E8,1.00045632E8,1.00045632E8,1.0004568E8,1.00045712E8,63.991837,-22.605427,146.22948,0.104689,4.953439,180.01332,18.823689,2.373771,0.59065,2.8E-5,7.850953,327.99335,-59.902004,12.0,40.0,0.0,0.0,-59.99986,-60.0,146.22948,1.6E-5,0.001308,12.876752,282.89807,117.19196,-0.018151,-2.45663,-1662.5201,0.0
0.0,0.0,0.0,0.0,0.0,0.0,0.0,1.00045616E8,1.00045616E8,1.00045632E8,1.00045632E8,1.0004568E8,1.00045712E8,63.991837,-22.605427,146.22948,0.104753,4.953441,180.01332,17.92546,2.392545,0.543719,2.9E-5,7.860587,325.29138,-62.603966,12.0,40.0,0.0,0.0,-59.99986,-60.0,146.22948,1.6E-5,0.001375,12.876752,282.89807,118.54987,-0.018161,-2.45875,-1663.7806,0.0
0.0,0.0,0.0,0.0,0.0,0.0,0.0,1.00045616E8,1.00045616E8,1.00045632E8,1.00045632E8,1.0004568E8,1.00045712E8,63.991837,-22.605427,146.22948,0.104825,4.953447,180.01332,17.041376,2.411899,0.517421,3.1E-5,7.869907,322.5892,-65.30616,12.0,40.0,0.0,0.0,-59.99986,-60.0,146.22948,1.6E-5,0.001375,12.876752,282.89807,120.02758,-0.018172,-2.460766,-1664.9636,0.0
0.0,0.0,0.0,0.0,0.0,0.0,0.0,1.00045616E8,1.00045616E8,1.00045632E8,1.00045632E8,1.0004568E8,1.00045712E8,63.991837,-22.605427,146.22949,0.104903,4.953456,180.01334,16.171513,2.431818,0.504399,3.2E-5,7.87917,319.8869,-68.00844,12.0,40.0,0.0,0.0,-69.999855,-70.0,146.22949,1.5E-5,0.00151,12.876752,282.89807,121.619774,-0.018183,-2.462683,-1666.0685,0.0
0.0,0.0,0.0,0.0,0.0,0.0,0.0,1.00045616E8,1.00045616E8,1.00045632E8,1.00045632E8,1.0004568E8,1.00045712E8,63.991837,-22.605427,146.22949,0.104987,4.953467,180.01334,15.31593,2.452291,0.500027,3.3E-5,7.888463,317.18457,-70.71077,12.0,40.0,0.0,0.0,-69.999855,-70.0,146.22949,1.5E-5,0.00151,12.876752,282.89807,123.32104,-0.018195,-2.464507,-1667.0985,0.0
0.0,0.0,0.0,0.0,0.0,0.0,0.0,1.00045616E8,1.00045616E8,1.00045632E8,1.00045632E8,1.0004568E8,1.00045712E8,63.991837,-22.605427,146.22949,0.105074,4.953477,180.01335,14.474655,2.473302,0.500954,3.5E-5,7.897818,314.48224,-73.41312,12.0,40.0,0.0,0.0,-69.999855,-70.0,146.22949,1.5E-5,0.00161,12.876752,282.89807,125.12583,-0.018208,-2.466241,-1668.0576,0.0
0.0,0.0,0.0,0.0,0.0,0.0,0.0,1.00045616E8,1.00045616E8,1.00045632E8,1.00045632E8,1.0004568E8,1.00045712E8,63.991837,-22.605427,146.22949,0.105165,4.953486,180.01335,13.647696,2.494839,0.500255,3.6E-5,7.900219,311.72906,-76.16628,12.0,40.0,0.0,0.0,-69.999855,-70.0,146.22949,1.5E-5,0.001778,12.876752,282.89807,127.02853,-0.01822,-2.467891,-1670.9288,0.0
0.0,0.0,0.0,0.0,0.0,0.0,0.0,1.00045616E8,1.00045616E8,1.00045632E8,1.00045632E8,1.0004568E8,1.00045712E8,63.991837,-22.605427,146.22949,0.105258,4.953494,180.01337,12.835009,2.516888,0.509092,3.7E-5,7.838635,309.02945,-78.86589,12.0,40.0,0.0,0.0,-79.999855,-80.0,146.22949,1.4E-5,0.001644,12.876752,282.89807,129.02342,-0.018234,-2.46946,-1671.4557,0.0
0.0,0.0,0.0,0.0,0.0,0.0,0.0,1.00045616E8,1.00045616E8,1.00045632E8,1.00045632E8,1.0004568E8,1.00045712E8,63.991837,-22.605427,146.2295,0.105361,4.953499,180.01337,11.970668,2.541335,0.492584,3.6E-5,7.950233,306.11038,-81.784966,12.0,40.0,0.0,0.0,-79.999855,-80.0,146.2295,1.4E-5,0.002549,12.876752,282.89807,131.2819,-0.018253,-2.471074,-1671.8721,0.0
0.0,0.0,0.0,0.0,0.0,0.0,0.0,1.00045616E8,1.00045616E8,1.00045632E8,1.00045632E8,1.0004568E8,1.00045712E8,63.991837,-22.605427,146.2295,0.105449,4.9535,180.01338,11.252302,2.562467,0.516147,3.9E-5,7.999417,303.60236,-84.292984,12.0,40.0,0.0,0.0,-79.999855,-80.0,146.2295,1.4E-5,0.001845,12.876752,282.89807,133.26663,-0.018261,-2.472372,-1673.6929,0.0
0.0,0.0,0.0,0.0,0.0,0.0,0.0,1.00045616E8,1.00045616E8,1.00045632E8,1.00045632E8,1.0004568E8,1.00045712E8,63.991837,-22.605427,146.2295,0.105531,4.9535,180.01338,10.609496,2.582022,0.528919,4.1E-5,7.894813,301.39117,-86.50417,12.0,40.0,0.0,0.0,-79.999855,-80.0,146.2295,1.3E-5,0.001946,12.876752,282.89807,135.12553,-0.018276,-2.473502,-1672.5312,0.0
0.0,0.0,0.0,0.0,0.0,0.0,0.0,1.00045616E8,1.00045616E8,1.00045632E8,1.00045632E8,1.0004568E8,1.00045712E8,63.991837,-22.605427,146.2295,0.105648,4.953495,180.0134,9.725896,2.609936,0.536115,4.2E-5,7.898233,298.23373,-89.66161,12.0,40.0,0.0,0.0,-89.999855,-90.0,146.2295,1.3E-5,0.001946,12.876752,282.89807,137.80862,-0.018291,-2.475007,-1673.3004,0.0
0.0,0.0,0.0,0.0,0.0,0.0,0.0,1.00045616E8,1.00045616E8,1.00045632E8,1.00045632E8,1.0004568E8,1.00045712E8,63.991837,-22.605427,146.22952,0.105749,4.953488,180.0134,8.990848,2.632228,0.529158,4.2E-5,7.943882,295.5533,-92.342026,12.0,40.0,0.0,0.0,-89.999855,-90.0,146.22952,1.3E-5,0.002046,12.876752,282.89807,140.17688,-0.018306,-2.476228,-1672.973,0.0
0.0,0.0,0.0,0.0,0.0,0.0,0.0,1.00045616E8,1.00045616E8,1.00045632E8,1.00045632E8,1.0004568E8,1.00045712E8,63.991837,-22.605427,146.22952,0.105853,4.953478,180.01341,8.354267,2.627819,0.369165,2.9E-5,7.958812,292.8586,-95.03675,12.0,40.0,0.0,0.0,-89.999855,-90.0,146.22952,1.3E-5,0.001744,12.876752,282.89807,142.60205,-0.018321,-2.47739,-1673.2134,0.0
0.0,0.0,0.0,0.0,0.0,0.0,0.0,1.00045616E8,1.00045616E8,1.00045632E8,1.00045632E8,1.0004568E8,1.00045712E8,63.991837,-22.605427,146.22952,0.105962,4.953468,180.01341,7.7156,2.623735,0.252236,2.0E-5,7.963945,290.15884,-97.73651,12.0,40.0,0.0,0.0,-99.999855,-100.0,146.22952,1.2E-5,0.001208,12.876752,282.89807,145.07822,-0.018336,-2.478495,-1673.6274,0.0
0.0,0.0,0.0,0.0,0.0,0.0,0.0,1.00045616E8,1.00045616E8,1.00045632E8,1.00045632E8,1.0004568E8,1.00045712E8,63.991837,-22.605427,146.22952,0.106075,4.95346,180.01343,7.074984,2.619977,0.16944,1.4E-5,7.965928,287.45728,-100.438065,12.0,40.0,0.0,0.0,-99.999855,-100.0,146.22952,1.2E-5,8.05E-4,12.876752,282.89807,147.59944,-0.018352,-2.479546,-1674.078,0.0
0.0,0.0,0.0,0.0,0.0,0.0,0.0,1.00045616E8,1.00045616E8,1.00045632E8,1.00045632E8,1.0004568E8,1.00045712E8,63.991837,-22.605427,146.22952,0.10619,4.953453,180.01343,6.432574,2.616549,0.112221,9.0E-6,7.966791,284.7551,-103.14026,12.0,40.0,0.0,0.0,-99.999855,-100.0,146.22952,1.2E-5,5.03E-4,12.876752,282.89807,150.15987,-0.018369,-2.480545,-1674.5183,0.0
0.0,0.0,0.0,0.0,0.0,0.0,0.0,1.00045616E8,1.00045616E8,1.00045632E8,1.00045632E8,1.0004568E8,1.00045712E8,63.991837,-22.605427,146.22952,0.106307,4.953444,180.01344,5.788527,2.61345,0.073087,6.0E-6,7.967246,282.05264,-105.84269,12.0,40.0,0.0,0.0,-99.999855,-100.0,146.22952,1.2E-5,3.02E-4,12.876752,282.89807,152.75363,-0.018386,-2.481496,-1674.9335,0.0
0.0,0.0,0.0,0.0,0.0,0.0,0.0,1.00045616E8,1.00045616E8,1.00045632E8,1.00045632E8,1.0004568E8,1.00045712E8,63.991837,-22.605427,146.22952,0.106424,4.953436,180.01346,5.143003,2.610682,0.046643,4.0E-6,7.967542,279.35013,-108.54521,12.0,40.0,0.0,0.0,-109.999855,-110.0,146.22952,1.1E-5,1.34E-4,12.876752,282.89807,155.37492,-0.018404,-2.4824,-1675.3196,0.0
0.0,0.0,0.0,0.0,0.0,0.0,0.0,1.00045616E8,1.00045616E8,1.00045632E8,1.00045632E8,1.0004568E8,1.00045712E8,63.991837,-22.605427,146.22952,0.106542,4.953427,180.01346,4.496161,2.608246,0.029529,2.0E-6,7.967769,276.64758,-111.24777,12.0,40.0,0.0,0.0,-109.999855,-110.0,146.22952,1.1E-5,6.7E-5,12.876752,282.89807,158.01802,-0.018422,-2.48326,-1675.6765,0.0
0.0,0.0,0.0,0.0,0.0,0.0,0.0,1.00045616E8,1.00045616E8,1.00045632E8,1.00045632E8,1.0004568E8,1.00045712E8,63.991837,-22.605427,146.22952,0.10666,4.953415,180.01347,3.848166,2.606143,0.019196,2.0E-6,7.967957,273.94498,-113.95036,12.0,40.0,0.0,0.0,-109.999855,-110.0,146.22952,1.1E-5,3.4E-5,12.876752,282.89807,160.67725,-0.018441,-2.484078,-1676.0054,0.0
0.0,0.0,0.0,0.0,0.0,0.0,0.0,1.00045616E8,1.00045616E8,1.00045632E8,1.00045632E8,1.0004568E8,1.00045712E8,63.991837,-22.605427,146.22952,0.106778,4.953403,180.01347,3.199182,2.604375,0.013569,1.0E-6,7.968117,271.24237,-116.65298,12.0,40.0,0.0,0.0,-109.999855,-110.0,146.22952,1.1E-5,0.0,12.876752,282.89807,163.34702,-0.018459,-2.484857,-1676.3077,0.0
0.0,0.0,0.0,0.0,0.0,0.0,0.0,1.00045616E8,1.00045616E8,1.00045632E8,1.00045632E8,1.0004568E8,1.00045712E8,63.991837,-22.605427,146.22952,0.106896,4.953387,180.01349,2.549373,2.602941,0.011454,1.0E-6,7.968253,268.53973,-119.3556,12.0,40.0,0.0,0.0,-119.999855,-120.0,146.22952,1.1E-5,-0.0,12.876752,282.89807,166.02184,-0.018478,-2.485597,-1676.5851,0.0
0.0,0.0,0.0,0.0,0.0,0.0,0.0,1.00045616E8,1.00045616E8,1.00045632E8,1.00045632E8,1.0004568E8,1.00045712E8,63.991837,-22.605427,146.22952,0.107015,4.95337,180.0135,1.898907,2.601842,0.012294,1.0E-6,7.920596,265.80124,-122.09412,12.0,40.0,0.0,0.0,-119.999855,-120.0,146.22952,1.0E-5,-3.4E-5,12.876752,282.89807,168.69629,-0.018496,-2.4863,-1678.1752,0.0
0.0,0.0,0.0,0.0,0.0,0.0,0.0,1.00045616E8,1.00045616E8,1.00045632E8,1.00045632E8,1.0004568E8,1.00045712E8,63.991837,-22.605427,146.22952,0.107132,4.953351,180.0135,1.247945,2.601078,0.01458,1.0E-6,7.9463,263.12183,-124.77353,12.0,40.0,0.0,0.0,-119.999855,-120.0,146.22952,1.0E-5,0.0,12.876752,282.89807,171.36511,-0.018516,-2.48697,-1677.4261,0.0
0.0,0.0,0.0,0.0,0.0,0.0,0.0,1.00045616E8,1.00045616E8,1.00045632E8,1.00045632E8,1.0004568E8,1.00045712E8,63.991837,-22.605427,146.22952,0.107248,4.953329,180.01352,0.596663,2.600651,0.018503,2.0E-6,7.960698,260.4273,-127.468025,12.0,40.0,0.0,0.0,-129.99986,-130.0,146.22952,1.0E-5,3.4E-5,12.876752,282.89807,174.0231,-0.018535,-2.487607,-1677.2994,0.0
0.0,0.0,0.0,0.0,0.0,0.0,0.0,1.00045616E8,1.00045616E8,1.00045632E8,1.00045632E8,1.0004568E8,1.00045712E8,63.991837,-22.605427,146.22952,0.107365,4.953305,180.01352,-0.054762,2.600559,0.023561,2.0E-6,8.049325,257.66705,-130.22829,12.0,40.0,0.0,0.0,-129.99986,-130.0,146.22952,1.0E-5,3.4E-5,12.876752,282.89807,176.66522,-0.018555,-2.488212,-1679.7582,0.0
0.0,0.0,0.0,0.0,0.0,0.0,0.0,1.00045616E8,1.00045616E8,1.00045632E8,1.00045632E8,1.0004568E8,1.00045712E8,63.991837,-22.605427,146.22952,0.107462,4.953285,180.01353,-0.597634,2.600737,0.026772,2.0E-6,7.925667,255.45084,-132.4445,12.0,40.0,0.0,0.0,-129.99986,-130.0,146.22952,1.0E-5,3.4E-5,12.876752,282.89807,178.85132,-0.018575,-2.488694,-1678.3846,0.0
0.0,0.0,0.0,0.0,0.0,0.0,0.0,1.00045616E8,1.00045616E8,1.00045632E8,1.00045632E8,1.0004568E8,1.00045712E8,63.991837,-22.605427,146.22952,0.107597,4.953268,180.01355,-1.35744,2.601375,0.031123,3.0E-6,7.913227,252.29063,-135.6047,12.0,40.0,0.0,0.0,-129.99986,-130.0,146.22952,9.0E-6,0.0,12.876752,282.89807,181.88231,-0.018594,-2.489336,-1678.7021,0.0
0.0,0.0,0.0,0.0,0.0,0.0,0.0,1.00045616E8,1.00045616E8,1.00045632E8,1.00045632E8,1.0004568E8,1.00045712E8,63.991837,-22.605427,146.22952,0.107712,4.953265,180.01355,-2.008334,2.602287,0.035332,3.0E-6,7.948111,249.60928,-138.28606,12.0,40.0,0.0,0.0,-139.99986,-140.0,146.22952,9.0E-6,-0.0,12.876752,282.89807,184.44786,-0.018613,-2.489857,-1677.9615,0.0
0.0,0.0,0.0,0.0,0.0,0.0,0.0,1.00045616E8,1.00045616E8,1.00045632E8,1.00045632E8,1.0004568E8,1.00045712E8,63.991837,-22.605427,146.22952,0.107828,4.953271,180.01357,-2.658708,2.603536,0.040543,3.0E-6,7.96133,246.91406,-140.98128,12.0,40.0,0.0,0.0,-139.99986,-140.0,146.22952,9.0E-6,6.7E-5,12.876752,282.89807,186.97871,-0.018633,-2.490353,-1677.7961,0.0
0.0,0.0,0.0,0.0,0.0,0.0,0.0,1.00045616E8,1.00045616E8,1.00045632E8,1.00045632E8,1.0004568E8,1.00045712E8,63.991837,-22.605427,146.22952,0.107943,4.953282,180.01357,-3.308398,2.60512,0.046047,4.0E-6,7.965936,244.21394,-143.6814,12.0,40.0,0.0,0.0,-139.99986,-140.0,146.22952,9.0E-6,6.7E-5,12.876752,282.89807,189.47055,-0.018652,-2.490825,-1677.8234,0.0
0.0,0.0,0.0,0.0,0.0,0.0,0.0,1.00045616E8,1.00045616E8,1.00045632E8,1.00045632E8,1.0004568E8,1.00045712E8,63.991837,-22.605427,146.22952,0.10806,4.953297,180.01358,-3.957238,2.60704,0.052351,4.0E-6,7.967493,241.51208,-146.38326,12.0,40.0,0.0,0.0,-139.99986,-140.0,146.22952,9.0E-6,0.0,12.876752,282.89807,191.9192,-0.018672,-2.491273,-1677.909,0.0
0.0,0.0,0.0,0.0,0.0,0.0,0.0,1.00045616E8,1.00045616E8,1.00045632E8,1.00045632E8,1.0004568E8,1.00045712E8,63.991837,-22.605427,146.22952,0.108176,4.953314,180.0136,-4.605062,2.609295,0.058925,5.0E-6,7.967964,238.80962,-149.08572,12.0,40.0,0.0,0.0,-149.99986,-150.0,146.22952,8.0E-6,6.7E-5,12.876752,282.89807,194.3207,-0.018692,-2.491699,-1678.0066,0.0
0.0,0.0,0.0,0.0,0.0,0.0,0.0,1.00045616E8,1.00045616E8,1.00045632E8,1.00045632E8,1.0004568E8,1.00045712E8,63.991837,-22.605427,146.22952,0.108293,4.953331,180.0136,-5.251709,2.611883,0.065853,6.0E-6,7.968039,236.10692,-151.78842,12.0,40.0,0.0,0.0,-149.99986,-150.0,146.22952,8.0E-6,3.4E-5,12.876752,282.89807,196.67117,-0.018711,-2.492105,-1678.1002,0.0
0.0,0.0,0.0,0.0,0.0,0.0,0.0,1.00045616E8,1.00045616E8,1.00045632E8,1.00045632E8,1.0004568E8,1.00045712E8,63.991837,-22.605427,146.22952,0.108413,4.953348,180.01361,-5.897016,2.614804,0.071287,6.0E-6,7.869673,233.34233,-154.55301,12.0,40.0,0.0,0.0,-149.99986,-150.0,146.22952,8.0E-6,1.34E-4,12.876752,282.89807,198.96701,-0.01873,-2.492491,-1680.4792,0.0
0.0,0.0,0.0,0.0,0.0,0.0,0.0,1.00045616E8,1.00045616E8,1.00045632E8,1.00045632E8,1.0004568E8,1.00045712E8,63.991837,-22.605427,146.22952,0.108531,4.953363,180.01363,-6.540829,2.618056,0.080356,7.0E-6,7.929487,230.67953,-157.2158,12.0,40.0,0.0,0.0,-149.99986,-150.0,146.22952,8.0E-6,1.68E-4,12.876752,282.89807,201.20473,-0.01875,-2.492858,-1678.8656,0.0
0.0,0.0,0.0,0.0,0.0,0.0,0.0,1.00045616E8,1.00045616E8,1.00045632E8,1.00045632E8,1.0004568E8,1.00045712E8,63.991837,-22.605427,146.22952,0.10865,4.953377,180.01363,-7.182984,2.621638,0.08776,7.0E-6,7.954131,227.99077,-159.90457,12.0,40.0,0.0,0.0,-159.99986,-160.0,146.22952,8.0E-6,1.68E-4,12.876752,282.89807,203.38106,-0.01877,-2.493207,-1678.3475,0.0
0.0,0.0,0.0,0.0,0.0,0.0,0.0,1.00045616E8,1.00045616E8,1.00045632E8,1.00045632E8,1.0004568E8,1.00045712E8,63.991837,-22.605427,146.22952,0.108769,4.95339,180.01364,-7.82333,2.625548,0.094647,8.0E-6,7.962664,225.29286,-162.6025,12.0,40.0,0.0,0.0,-159.99986,-160.0,146.22952,8.0E-6,2.35E-4,12.876752,282.89807,205.4929,-0.01879,-2.493539,-1678.2083,0.0
0.0,0.0,0.0,0.0,0.0,0.0,0.0,1.00045616E8,1.00045616E8,1.00045632E8,1.00045632E8,1.0004568E8,1.00045712E8,63.991837,-22.605427,146.22952,0.10889,4.9534,180.01364,-8.461708,2.629786,0.101357,9.0E-6,7.958385,222.54091,-165.35445,12.0,40.0,0.0,0.0,-159.99986,-160.0,146.22952,8.0E-6,2.68E-4,12.876752,282.89807,207.53735,-0.018809,-2.493855,-1680.1641,0.0
0.0,0.0,0.0,0.0,0.0,0.0,0.0,1.00045616E8,1.00045616E8,1.00045632E8,1.00045632E8,1.0004568E8,1.00045712E8,63.991837,-22.605427,146.22952,0.109012,4.953408,180.01366,-9.097981,2.634349,0.108297,9.0E-6,8.01915,219.81107,-168.08427,12.0,40.0,0.0,0.0,-169.99986,-170.0,146.22952,7.0E-6,3.69E-4,12.876752,282.89807,209.51169,-0.01883,-2.494155,-1681.1743,0.0
0.0,0.0,0.0,0.0,0.0,0.0,0.0,1.00045616E8,1.00045616E8,1.00045632E8,1.00045632E8,1.0004568E8,1.00045712E8,63.991837,-22.605427,146.22952,0.109135,4.953413,180.01367,-9.732016,2.639236,0.116178,1.0E-5,7.918991,217.15912,-170.73622,12.0,40.0,0.0,0.0,-169.99986,-170.0,146.22952,7.0E-6,3.02E-4,12.876752,282.89807,211.4134,-0.018851,-2.494441,-1679.0659,0.0
0.0,0.0,0.0,0.0,0.0,0.0,0.0,1.00045616E8,1.00045616E8,1.00045632E8,1.00045632E8,1.0004568E8,1.00045712E8,63.991837,-22.605427,146.22952,0.109257,4.953417,180.01367,-10.363641,2.644446,0.123237,1.1E-5,7.949146,214.47412,-173.42122,12.0,40.0,0.0,0.0,-169.99986,-170.0,146.22952,7.0E-6,4.03E-4,12.876752,282.89807,213.24017,-0.018872,-2.494712,-1678.3564,0.0
0.0,0.0,0.0,0.0,0.0,0.0,0.0,1.00045616E8,1.00045616E8,1.00045632E8,1.00045632E8,1.0004568E8,1.00045712E8,63.991837,-22.605427,146.22954,0.109381,4.953419,180.01369,-10.992728,2.649975,0.129775,1.1E-5,7.959953,211.77748,-176.11786,12.0,40.0,0.0,0.0,-169.99986,-170.0,146.22954,7.0E-6,4.03E-4,12.876752,282.89807,214.98984,-0.018892,-2.494971,-1678.1338,0.0
0.0,0.0,0.0,0.0,0.0,0.0,0.0,1.00045616E8,1.00045616E8,1.00045632E8,1.00045632E8,1.0004568E8,1.00045712E8,63.991837,-22.605427,146.22954,0.109506,4.953418,180.0137,-11.619144,2.655823,0.135875,1.2E-5,7.963522,209.07674,-178.81862,12.0,40.0,0.0,0.0,-179.99986,-180.0,146.22954,7.0E-6,4.03E-4,12.876752,282.89807,216.66048,-0.018913,-2.495217,-1678.077,0.0
0.0,0.0,0.0,0.0,0.0,0.0,0.0,1.00045616E8,1.00045616E8,1.00045632E8,1.00045632E8,1.0004568E8,1.00045712E8,63.991837,-22.605427,146.22954,0.109644,4.953414,180.0137,-12.294593,2.662515,0.141653,1.3E-5,7.902583,206.10744,-181.7879,12.0,40.0,0.0,0.0,-179.99986,-180.0,146.22954,7.0E-6,4.7E-4,12.876752,282.89807,218.37914,-0.018939,-2.495469,-1679.5944,0.0
0.0,0.0,0.0,0.0,0.0,0.0,0.0,1.00045616E8,1.00045616E8,1.00045632E8,1.00045632E8,1.0004568E8,1.00045712E8,63.991837,-22.605427,146.22954,0.109761,4.953409,180.01372,-12.86344,2.668467,0.14461,1.3E-5,7.940943,203.63554,-184.2598,12.0,40.0,0.0,0.0,-179.99986,-180.0,146.22954,7.0E-6,7.04E-4,12.876752,282.89807,219.75789,-0.01895,-2.495673,-1679.3035,0.0
0.0,0.0,0.0,0.0,0.0,0.0,0.0,1.00045616E8,1.00045616E8,1.00045632E8,1.00045632E8,1.0004568E8,1.00045712E8,63.991837,-22.605427,146.22954,0.109889,4.953401,180.01373,-13.481067,2.675262,0.153777,1.4E-5,7.942142,200.95612,-186.93924,12.0,40.0,0.0,0.0,-179.99986,-180.0,146.22954,6.0E-6,6.04E-4,12.876752,282.89807,221.18176,-0.018972,-2.495884,-1678.3309,0.0
0.0,0.0,0.0,0.0,0.0,0.0,0.0,1.00045616E8,1.00045616E8,1.00045632E8,1.00045632E8,1.0004568E8,1.00045712E8,63.991837,-22.605427,146.22954,0.110018,4.95339,180.01373,-14.095517,2.682368,0.15948,1.5E-5,7.95609,198.26137,-189.63397,12.0,40.0,0.0,0.0,-189.99986,-190.0,146.22954,6.0E-6,6.04E-4,12.876752,282.89807,222.52081,-0.018994,-2.496085,-1678.0028,0.0
0.0,0.0,0.0,0.0,0.0,0.0,0.0,1.00045616E8,1.00045616E8,1.00045632E8,1.00045632E8,1.0004568E8,1.00045712E8,63.991837,-22.605427,146.22954,0.110149,4.953377,180.01375,-14.706675,2.689781,0.164378,1.5E-5,7.914278,195.5311,-192.36424,12.0,40.0,0.0,0.0,-189.99986,-190.0,146.22954,6.0E-6,7.04E-4,12.876752,282.89807,223.77403,-0.019016,-2.496277,-1678.9895,0.0
0.0,0.0,0.0,0.0,0.0,0.0,1.0,1.00045616E8,1.00045616E8,1.00045632E8,1.00045632E8,1.0004568E8,1.00045712E8,63.991837,-22.605427,146.22954,0.110259,4.953365,180.01376,-15.213369,2.696191,0.16697,1.6E-5,8.023599,193.23651,-194.65883,12.0,40.0,0.0,0.0,-189.99986,-190.0,146.22954,6.0E-6,7.38E-4,12.876752,282.89807,224.75227,-0.019037,-2.496429,-1680.6003,0.0
0.0,0.0,0.0,0.0,0.0,0.0,1.0,1.00045616E8,1.00045616E8,1.00045632E8,1.00045632E8,1.0004568E8,1.00045712E8,63.991837,-22.605427,146.22954,0.110427,4.953343,180.01376,-15.968874,2.706199,0.174419,1.7E-5,7.870387,189.87624,-198.0191,12.0,40.0,0.0,0.0,-199.99986,-200.0,146.22954,6.0E-6,8.05E-4,12.876752,282.89807,226.10614,-0.019063,-2.496646,-1679.5792,0.0
0.0,0.0,0.0,0.0,0.0,0.0,1.0,1.00045616E8,1.00045616E8,1.00045632E8,1.00045632E8,1.0004568E8,1.00045712E8,63.991837,-22.605427,146.22954,0.11055,4.953324,180.01378,-16.519318,2.713836,0.179044,1.7E-5,7.906807,187.42043,-200.47493,12.0,40.0,0.0,0.0,-199.99986,-200.0,146.22954,6.0E-6,8.05E-4,12.876752,282.89807,227.012,-0.019078,-2.496796,-1678.5992,0.0
0.0,0.0,0.0,0.0,0.0,0.0,1.0,1.00045616E8,1.00045616E8,1.00045632E8,1.00045632E8,1.0004568E8,1.00045712E8,63.991837,-22.605427,146.22954,0.110685,4.953302,180.0138,-17.11624,2.722452,0.18422,1.8E-5,7.940958,184.73878,-203.15656,12.0,40.0,0.0,0.0,-199.99986,-200.0,146.22954,6.0E-6,8.72E-4,12.876752,282.89807,227.91605,-0.019101,-2.496953,-1677.7147,0.0
0.0,0.0,0.0,0.0,0.0,0.0,1.0,1.00045616E8,1.00045616E8,1.00045632E8,1.00045632E8,1.0004568E8,1.00045712E8,63.991837,-22.605427,146.22954,0.110823,4.953277,180.01381,-17.709354,2.731361,0.187164,1.9E-5,7.892205,182.00388,-205.89146,12.0,40.0,0.0,0.0,-199.99986,-200.0,146.22954,6.0E-6,9.39E-4,12.876752,282.89807,228.73221,-0.019124,-2.497102,-1678.8534,0.0
0.0,0.0,0.0,0.0,0.0,0.0,1.0,1.00045616E8,1.00045616E8,1.00045632E8,1.00045632E8,1.0004568E8,1.00045712E8,63.991837,-22.605427,146.22955,0.110961,4.953249,180.01381,-18.298569,2.740562,0.190979,2.0E-5,7.926308,179.27808,-208.61726,12.0,40.0,0.0,0.0,-209.99986,-210.0,146.22955,5.0E-6,9.73E-4,12.876752,282.89807,229.46063,-0.019146,-2.497243,-1679.6523,0.0
0.0,0.0,0.0,0.0,0.0,0.0,1.0,1.00045616E8,1.00045616E8,1.00045632E8,1.00045632E8,1.0004568E8,1.00045712E8,63.991837,-22.605427,146.22955,0.111115,4.953217,180.01382,-18.932405,2.750855,0.195995,2.0E-5,7.837276,176.341,-211.55434,12.0,40.0,0.0,0.0,-209.99986,-210.0,146.22955,5.0E-6,0.001006,12.876752,282.89807,230.15108,-0.019175,-2.497389,-1679.6975,0.0
0.0,0.0,0.0,0.0,0.0,0.0,1.0,1.00045616E8,1.00045616E8,1.00045632E8,1.00045632E8,1.0004568E8,1.00045712E8,63.991837,-22.605427,146.22955,0.111255,4.953185,180.01384,-19.513248,2.760653,0.200829,2.1E-5,7.912621,173.68626,-214.20909,12.0,40.0,0.0,0.0,-209.99986,-210.0,146.22955,5.0E-6,0.00104,12.876752,282.89807,230.69785,-0.019194,-2.497517,-1677.6796,0.0
0.0,0.0,0.0,0.0,0.0,0.0,1.0,1.00045616E8,1.00045616E8,1.00045632E8,1.00045632E8,1.0004568E8,1.00045712E8,63.991837,-22.605427,146.22955,0.111398,4.95315,180.01384,-20.08995,2.770733,0.20372,2.1E-5,7.925045,170.9934,-216.90195,12.0,40.0,0.0,0.0,-209.99986,-210.0,146.22955,5.0E-6,0.001107,12.876752,282.89807,231.15831,-0.019215,-2.497638,-1677.231,0.0
0.0,0.0,0.0,0.0,0.0,0.0,1.0,1.00045616E8,1.00045616E8,1.00045632E8,1.00045632E8,1.0004568E8,1.00045712E8,63.991837,-22.605427,146.22955,0.111538,4.953115,180.01385,-20.662512,2.781092,0.220362,2.2E-5,7.947779,168.30054,-219.5948,12.0,40.0,0.0,0.0,-219.99986,-220.0,146.22955,5.0E-6,0.001073,12.876752,282.89807,231.53328,-0.019239,-2.497753,-1676.8243,0.0
0.0,0.0,0.0,0.0,0.0,0.0,1.0,1.00045616E8,1.00045616E8,1.00045632E8,1.00045632E8,1.0004568E8,1.00045712E8,63.991837,-22.605427,146.22955,0.111659,4.953085,180.01387,-21.183609,2.790829,0.233381,2.2E-5,7.95434,165.83238,-222.06296,12.0,40.0,0.0,0.0,-219.99986,-220.0,146.22955,5.0E-6,0.001275,12.876752,282.89807,231.80269,-0.019255,-2.497854,-1676.4559,0.0
0.0,0.0,0.0,0.0,0.0,0.0,1.0,1.00045616E8,1.00045616E8,1.00045632E8,1.00045632E8,1.0004568E8,1.00045712E8,63.991837,-22.605427,146.22955,0.111786,4.953056,180.01389,-21.747898,2.801713,0.25059,2.3E-5,7.958894,163.12643,-224.76892,12.0,40.0,0.0,0.0,-219.99986,-220.0,146.22955,5.0E-6,0.001141,12.876752,282.89807,232.01657,-0.01928,-2.497959,-1676.5907,0.0
0.0,0.0,0.0,0.0,0.0,0.0,1.0,1.00045616E8,1.00045616E8,1.00045632E8,1.00045632E8,1.0004568E8,1.00045712E8,63.991837,-22.605427,146.22955,0.111908,4.953031,180.01389,-22.307774,2.812868,0.263126,2.4E-5,7.956536,160.42221,-227.47313,12.0,40.0,0.0,0.0,-229.99986,-230.0,146.22955,5.0E-6,0.001107,12.876752,282.89807,232.14815,-0.019305,-2.498059,-1676.6432,0.0
0.0,0.0,0.0,0.0,0.0,0.0,1.0,1.00045616E8,1.00045616E8,1.00045632E8,1.00045632E8,1.0004568E8,1.00045712E8,63.991837,-22.605427,146.22957,0.112029,4.953008,180.0139,-22.863173,2.824289,0.27019,2.4E-5,8.038765,157.65814,-230.23721,12.0,40.0,0.0,0.0,-229.99986,-230.0,146.22957,5.0E-6,0.001141,12.876752,282.89807,232.19878,-0.019329,-2.498154,-1679.0427,0.0
0.0,0.0,0.0,0.0,0.0,0.0,1.0,1.00045616E8,1.00045616E8,1.00045632E8,1.00045632E8,1.0004568E8,1.00045712E8,63.991837,-22.605427,146.22957,0.112148,4.952986,180.0139,-23.41408,2.835975,0.281524,2.5E-5,7.917827,154.99391,-232.90143,12.0,40.0,0.0,0.0,-229.99986,-230.0,146.22957,5.0E-6,0.001141,12.876752,282.89807,232.16997,-0.019353,-2.498244,-1677.3846,0.0
0.0,0.0,0.0,0.0,0.0,0.0,0.2,1.00045616E8,1.00045616E8,1.00045632E8,1.00045632E8,1.0004568E8,1.00045712E8,63.991837,-22.605427,146.22957,0.112188,4.95298,180.01392,-23.596703,2.839928,0.284292,2.5E-5,7.927564,154.09904,-233.7963,12.0,40.0,0.0,0.0,-229.99986,-230.0,146.22957,5.0E-6,0.001141,12.867331,282.89807,232.14299,-0.019361,-2.498273,-1677.1202,0.0
0.0,0.0,0.0,0.0,0.0,0.0,0.2,1.00045616E8,1.00045616E8,1.00045632E8,1.00045632E8,1.0004568E8,1.00045712E8,63.991837,-22.605427,146.2296,0.113708,4.952736,180.01404,-28.709555,2.966847,0.335257,9.0E-6,2.527809,134.78374,-244.65112,12.0,40.0,0.0,0.0,-239.99986,-240.0,146.2296,4.0E-6,3.35E-4,12.867331,282.88867,227.8656,-0.01966,-2.49894,-1029.46,0.0
0.0,0.0,0.0,0.0,0.0,0.0,0.2,1.00045616E8,1.00045616E8,1.00045632E8,1.00045632E8,1.0004568E8,1.00045712E8,63.991837,-22.605427,146.2296,0.113748,4.952733,180.01404,-29.12538,2.978691,0.305695,1.3E-5,2.536253,134.7783,-244.65657,12.0,40.0,0.0,0.0,-239.99986,-240.0,146.2296,4.0E-6,8.05E-4,12.867331,282.88867,227.22305,-0.019668,-2.491974,-939.1812,30.865896
0.0,0.0,0.0,0.0,0.0,0.0,0.2,1.00045616E8,1.00045616E8,1.00045632E8,1.00045632E8,1.0004568E8,1.00045712E8,63.991837,-22.605427,146.2296,0.113822,4.952704,180.01404,-29.701794,2.995571,0.30992,2.4E-5,2.539058,134.7697,-244.66516,12.0,40.0,0.0,0.0,-239.99986,-240.0,146.2296,4.0E-6,0.001879,12.867331,282.88867,226.26157,-0.019691,-2.463033,-812.8487,71.558
0.0,0.0,0.0,0.0,0.0,0.0,0.2,1.00045616E8,1.00045616E8,1.00045632E8,1.00045632E8,1.0004568E8,1.00045712E8,63.991837,-22.605427,146.2296,0.113879,4.952547,180.01404,-29.96241,3.003389,0.172984,3.2E-5,2.538416,134.76147,-244.67339,12.0,40.0,0.0,0.0,-239.99986,-240.0,146.2296,4.0E-6,0.002583,12.867331,282.88867,225.38286,-0.019715,-2.423192,-704.6296,104.90662
0.0,0.0,0.0,0.0,0.0,0.0,0.2,1.00045616E8,1.00045616E8,1.00045632E8,1.00045632E8,1.0004568E8,1.00045712E8,63.991837,-22.605427,146.2296,0.113894,4.952238,180.01404,-29.962025,3.003392,0.108776,3.4E-5,2.538241,134.75394,-244.68092,12.0,40.0,0.0,0.0,-239.99986,-240.0,146.2296,3.0E-6,0.003489,12.867331,282.88867,224.53558,-0.019736,-2.376601,-605.4335,134.13182
0.0,0.0,0.0,0.0,0.0,0.0,0.2,1.00045616E8,1.00045616E8,1.00045632E8,1.00045632E8,1.0004568E8,1.00045712E8,63.991837,-22.605427,146.22961,0.11385,4.951684,180.01404,-29.961506,3.003406,0.080774,3.9E-5,2.53815,134.74573,-244.68915,12.0,40.0,0.0,0.0,-239.99986,-240.0,146.22961,3.0E-6,0.004663,12.867331,282.88867,223.56827,-0.019766,-2.316774,-497.23105,164.48758
0.0,0.0,0.0,0.0,0.0,0.0,0.2,1.00045616E8,1.00045616E8,1.00045632E8,1.00045632E8,1.0004568E8,1.00045712E8,63.991837,-22.605427,146.22961,0.113748,4.950889,180.01404,-29.960903,3.003419,0.068161,4.5E-5,2.537966,134.7375,-244.69736,11.967488,39.891624,0.0,0.0,-239.99986,-240.0,146.22961,3.0E-6,0.005837,12.867331,282.88867,222.5588,-0.01979,-2.249438,-389.0492,193.2363
0.0,0.0,0.0,0.0,0.0,0.0,0.2,1.00045616E8,1.00045616E8,1.00045632E8,1.00045632E8,1.0004568E8,1.00045712E8,63.991837,-22.605427,146.22963,0.113595,4.949851,180.01402,-29.960285,3.00343,0.061572,5.1E-5,2.537988,134.72931,-244.70555,11.83644,39.4548,0.0,0.0,-239.99986,-240.0,146.22963,3.0E-6,0.007078,12.867331,282.88867,221.51006,-0.019808,-2.176335,-280.90683,220.36996
