aileron,elevator,rudder,flaps,slats,speedbrake,throttle,engine-pump0,engine-pump1,electric-pump0,electric-pump1,external-power,APU-generator,latitude-deg,longitude-deg,altitude-ft,roll-deg,pitch-deg,heading-deg,side-slip-deg,airspeed-kt,glideslope,vertical-speed-fps,airspeed-indicator_indicated-speed-kt,altimeter_indicated-altitude-ft,altimeter_pressure-alt-ft,attitude-indicator_indicated-pitch-deg,attitude-indicator_indicated-roll-deg,attitude-indicator_internal-pitch-deg,attitude-indicator_internal-roll-deg,encoder_indicated-altitude-ft,encoder_pressure-alt-ft,gps_indicated-altitude-ft,gps_indicated-ground-speed-kt,gps_indicated-vertical-speed,indicated-heading-deg,magnetic-compass_indicated-heading-deg,slip-skid-ball_indicated-slip-skid,turn-indicator_indicated-turn-rate,vertical-speed-indicator_indicated-speed-fpm,engine_rpm
0.0,0.0,0.0,0.0,0.0,0.0,0.0,2.33624368E8,2.33624368E8,2.33624384E8,2.33624384E8,2.33624432E8,2.33624464E8,63.985043,-22.592484,-9999.0,0.0,0.424,270.02136,0.0,0.0,0.0,0.0,0.0,0.0,0.0,0.0,0.0,0.0,0.0,0.0,0.0,0.0,0.0,0.0,0.0,0.0,0.0,0.0,0.0,0.0
0.0,0.0,0.0,0.0,0.0,0.0,0.0,2.33624368E8,2.33624368E8,2.33624384E8,2.33624384E8,2.33624432E8,2.33624464E8,63.985043,-22.592484,-9999.0,0.0,0.424,270.02136,0.0,0.0,0.0,0.0,0.0,177.4758,1.193444,12.0,40.0,0.0,0.0,0.0,0.0,0.0,0.0,0.0,282.91263,0.0,0.0,0.0,0.0,0.0
0.0,0.0,0.0,0.0,0.0,0.0,0.0,2.33624368E8,2.33624368E8,2.33624384E8,2.33624384E8,2.33624432E8,2.33624464E8,63.991837,-22.605425,-9999.0,0.0,0.424,180.01839,0.0,0.0,0.0,0.0,0.0,177.4758,1.193444,12.0,40.0,0.0,0.0,0.0,0.0,0.0,0.0,0.0,282.91263,0.0,0.0,0.0,0.0,0.0
0.0,0.0,0.0,0.0,0.0,0.0,0.0,2.33624368E8,2.33624368E8,2.33624384E8,2.33624384E8,2.33624432E8,2.33624464E8,63.991837,-22.605425,-9999.0,0.0,0.424,180.01839,0.0,0.0,0.0,0.0,0.0,177.4758,1.193444,12.0,40.0,0.0,0.0,0.0,0.0,0.0,0.0,0.0,282.91263,0.0,0.0,0.0,0.0,0.0
0.0,0.0,0.0,0.0,0.0,0.0,0.0,2.33624368E8,2.33624368E8,2.33624384E8,2.33624384E8,2.33624432E8,2.33624464E8,63.991837,-22.605425,-9999.0,0.0,0.424,180.01839,0.0,0.0,0.0,0.0,0.0,177.4758,1.193444,12.0,40.0,0.0,0.0,0.0,0.0,0.0,0.0,0.0,282.91263,0.0,0.0,0.0,0.0,0.0
0.0,0.0,0.0,0.0,0.0,0.0,0.0,2.33624368E8,2.33624368E8,2.33624384E8,2.33624384E8,2.33624432E8,2.33624464E8,63.991837,-22.605425,-9999.0,0.0,0.424,180.01839,0.0,0.0,0.0,0.0,0.0,177.4758,1.193444,12.0,40.0,0.0,0.0,0.0,0.0,0.0,0.0,0.0,282.91263,0.0,0.0,0.0,0.0,0.0
0.0,0.0,0.0,0.0,0.0,0.0,0.0,2.33624368E8,2.33624368E8,2.33624384E8,2.33624384E8,2.33624432E8,2.33624464E8,63.991837,-22.605425,-9999.0,0.0,0.424,180.01839,0.0,0.0,0.0,0.0,0.0,177.4758,1.193444,12.0,40.0,0.0,0.0,0.0,0.0,0.0,0.0,0.0,282.91263,0.0,0.0,0.0,0.0,0.0
0.0,0.0,0.0,0.0,0.0,0.0,0.0,2.33624368E8,2.33624368E8,2.33624384E8,2.33624384E8,2.33624432E8,2.33624464E8,63.991837,-22.605425,-9999.0,0.0,0.424,180.01839,0.0,0.0,0.0,0.0,0.0,177.4758,1.193444,12.0,40.0,0.0,0.0,0.0,0.0,0.0,0.0,0.0,282.91263,0.0,0.0,0.0,0.0,0.0
0.0,0.0,0.0,0.0,0.0,0.0,0.0,2.33624368E8,2.33624368E8,2.33624384E8,2.33624384E8,2.33624432E8,2.33624464E8,63.991837,-22.605425,-9999.0,0.0,0.424,180.01839,0.0,0.0,0.0,0.0,0.0,177.4758,1.193444,12.0,40.0,0.0,0.0,0.0,0.0,0.0,0.0,0.0,282.91263,0.0,0.0,0.0,0.0,0.0
0.0,0.0,0.0,0.0,0.0,0.0,0.0,2.33624368E8,2.33624368E8,2.33624384E8,2.33624384E8,2.33624432E8,2.33624464E8,63.991837,-22.605425,-9999.0,0.0,0.424,180.01839,0.0,0.0,0.0,0.0,0.0,177.4758,1.193444,12.0,40.0,0.0,0.0,0.0,0.0,0.0,0.0,0.0,282.91263,0.0,0.0,0.0,0.0,0.0
0.0,0.0,0.0,0.0,0.0,0.0,0.0,2.33624368E8,2.33624368E8,2.33624384E8,2.33624384E8,2.33624432E8,2.33624464E8,63.991837,-22.605425,-9999.0,0.0,0.424,180.01839,0.0,0.0,0.0,0.0,0.0,177.4758,1.193444,12.0,40.0,0.0,0.0,0.0,0.0,0.0,0.0,0.0,282.91263,0.0,0.0,0.0,0.0,0.0
0.0,0.0,0.0,0.0,0.0,0.0,0.0,2.33624368E8,2.33624368E8,2.33624384E8,2.33624384E8,2.33624432E8,2.33624464E8,63.991837,-22.605425,-9999.0,0.0,0.424,180.01839,0.0,0.0,0.0,0.0,0.0,177.4758,1.193444,12.0,40.0,0.0,0.0,0.0,0.0,0.0,0.0,0.0,282.91263,0.0,0.0,0.0,0.0,0.0
0.0,0.0,0.0,0.0,0.0,0.0,0.0,2.33624368E8,2.33624368E8,2.33624384E8,2.33624384E8,2.33624432E8,2.33624464E8,63.991837,-22.605425,-9999.0,0.0,0.424,180.01839,0.0,0.0,0.0,0.0,0.0,177.4758,1.193444,12.0,40.0,0.0,0.0,0.0,0.0,0.0,0.0,0.0,282.91263,0.0,0.0,0.0,0.0,0.0
0.0,0.0,0.0,0.0,0.0,0.0,0.0,2.33624368E8,2.33624368E8,2.33624384E8,2.33624384E8,2.33624432E8,2.33624464E8,63.991837,-22.605425,-9999.0,0.0,0.424,180.01839,0.0,0.0,0.0,0.0,0.0,177.4758,1.193444,12.0,40.0,0.0,0.0,0.0,0.0,0.0,0.0,0.0,282.91263,0.0,0.0,0.0,0.0,0.0
0.0,0.0,0.0,0.0,0.0,0.0,0.0,2.33624368E8,2.33624368E8,2.33624384E8,2.33624384E8,2.33624432E8,2.33624464E8,63.991837,-22.605425,-9999.0,0.0,0.424,180.01839,0.0,0.0,0.0,0.0,0.0,177.4758,1.193444,12.0,40.0,0.0,0.0,0.0,0.0,0.0,0.0,0.0,282.91263,0.0,0.0,0.0,0.0,0.0
0.0,0.0,0.0,0.0,0.0,0.0,0.0,2.33624368E8,2.33624368E8,2.33624384E8,2.33624384E8,2.33624432E8,2.33624464E8,63.991837,-22.605425,-9999.0,0.0,0.424,180.01839,0.0,0.0,0.0,0.0,0.0,177.4758,1.193444,12.0,40.0,0.0,0.0,0.0,0.0,0.0,0.0,0.0,282.91263,0.0,0.0,0.0,0.0,0.0
0.0,0.0,0.0,0.0,0.0,0.0,0.0,2.33624368E8,2.33624368E8,2.33624384E8,2.33624384E8,2.33624432E8,2.33624464E8,63.991837,-22.605425,-9999.0,0.0,0.424,180.01839,0.0,0.0,0.0,0.0,0.0,177.4758,1.193444,12.0,40.0,0.0,0.0,0.0,0.0,0.0,0.0,0.0,282.91263,0.0,0.0,0.0,0.0,0.0
0.0,0.0,0.0,0.0,0.0,0.0,0.0,2.33624368E8,2.33624368E8,2.33624384E8,2.33624384E8,2.33624432E8,2.33624464E8,63.991837,-22.605425,-9999.0,0.0,0.424,180.01839,0.0,0.0,0.0,0.0,0.0,177.4758,1.193444,12.0,40.0,0.0,0.0,0.0,0.0,0.0,0.0,0.0,282.91263,0.0,0.0,0.0,0.0,0.0
0.0,0.0,0.0,0.0,0.0,0.0,0.0,2.33624368E8,2.33624368E8,2.33624384E8,2.33624384E8,2.33624432E8,2.33624464E8,63.991837,-22.605425,-9999.0,0.0,0.424,180.01839,0.0,0.0,0.0,0.0,0.0,177.4758,1.193444,12.0,40.0,0.0,0.0,0.0,0.0,0.0,0.0,0.0,282.91263,0.0,0.0,0.0,0.0,0.0
0.0,0.0,0.0,0.0,0.0,0.0,0.0,2.33624368E8,2.33624368E8,2.33624384E8,2.33624384E8,2.33624432E8,2.33624464E8,63.991837,-22.605425,-9999.0,0.0,0.424,180.01839,0.0,0.0,0.0,0.0,0.0,177.4758,1.193444,12.0,40.0,0.0,0.0,0.0,0.0,0.0,0.0,0.0,282.91263,0.0,0.0,0.0,0.0,0.0
0.0,0.0,0.0,0.0,0.0,0.0,0.0,2.33624368E8,2.33624368E8,2.33624384E8,2.33624384E8,2.33624432E8,2.33624464E8,63.991837,-22.605425,-9999.0,0.0,0.424,180.01839,0.0,0.0,0.0,0.0,0.0,177.4758,1.193444,12.0,40.0,0.0,0.0,0.0,0.0,0.0,0.0,0.0,282.91263,0.0,0.0,0.0,0.0,0.0
0.0,0.0,0.0,0.0,0.0,0.0,0.0,2.33624368E8,2.33624368E8,2.33624384E8,2.33624384E8,2.33624432E8,2.33624464E8,63.991837,-22.605425,-9999.0,0.0,0.424,180.01839,0.0,0.0,0.0,0.0,0.0,177.4758,1.193444,12.0,40.0,0.0,0.0,0.0,0.0,0.0,0.0,0.0,282.91263,0.0,0.0,0.0,0.0,0.0
0.0,0.0,0.0,0.0,0.0,0.0,0.0,2.33624368E8,2.33624368E8,2.33624384E8,2.33624384E8,2.33624432E8,2.33624464E8,63.991837,-22.605425,-9999.0,0.0,0.424,180.01839,0.0,0.0,0.0,0.0,0.0,177.4758,1.193444,12.0,40.0,0.0,0.0,0.0,0.0,0.0,0.0,0.0,282.91263,0.0,0.0,0.0,0.0,0.0
0.0,0.0,0.0,0.0,0.0,0.0,0.0,2.33624368E8,2.33624368E8,2.33624384E8,2.33624384E8,2.33624432E8,2.33624464E8,63.991837,-22.605425,-9999.0,0.0,0.424,180.01839,0.0,0.0,0.0,0.0,0.0,177.4758,1.193444,12.0,40.0,0.0,0.0,0.0,0.0,0.0,0.0,0.0,282.91263,0.0,0.0,0.0,0.0,0.0
0.0,0.0,0.0,0.0,0.0,0.0,0.0,2.33624368E8,2.33624368E8,2.33624384E8,2.33624384E8,2.33624432E8,2.33624464E8,63.991837,-22.605425,-9999.0,0.0,0.424,180.01839,0.0,0.0,0.0,0.0,0.0,177.4758,1.193444,12.0,40.0,0.0,0.0,0.0,0.0,0.0,0.0,0.0,282.91263,0.0,0.0,0.0,0.0,0.0
0.0,0.0,0.0,0.0,0.0,0.0,0.0,2.33624368E8,2.33624368E8,2.33624384E8,2.33624384E8,2.33624432E8,2.33624464E8,63.991837,-22.605425,-9999.0,0.0,0.424,180.01839,0.0,0.0,0.0,0.0,0.0,177.4758,1.193444,12.0,40.0,0.0,0.0,0.0,0.0,0.0,0.0,0.0,282.91263,0.0,0.0,0.0,0.0,0.0
0.0,0.0,0.0,0.0,0.0,0.0,0.0,2.33624368E8,2.33624368E8,2.33624384E8,2.33624384E8,2.33624432E8,2.33624464E8,63.991837,-22.605425,-9999.0,0.0,0.424,180.01839,0.0,0.0,0.0,0.0,0.0,177.4758,1.193444,12.0,40.0,0.0,0.0,0.0,0.0,0.0,0.0,0.0,282.91263,0.0,0.0,0.0,0.0,0.0
0.0,0.0,0.0,0.0,0.0,0.0,0.0,2.33624368E8,2.33624368E8,2.33624384E8,2.33624384E8,2.33624432E8,2.33624464E8,63.991837,-22.605425,-9999.0,0.0,0.424,180.01839,0.0,0.0,0.0,0.0,0.0,177.4758,1.193444,12.0,40.0,0.0,0.0,0.0,0.0,0.0,0.0,0.0,282.91263,0.0,0.0,0.0,0.0,0.0
0.0,0.0,0.0,0.0,0.0,0.0,0.0,2.33624368E8,2.33624368E8,2.33624384E8,2.33624384E8,2.33624432E8,2.33624464E8,63.991837,-22.605425,-9999.0,0.0,0.424,180.01839,0.0,0.0,0.0,0.0,0.0,177.4758,1.193444,12.0,40.0,0.0,0.0,0.0,0.0,0.0,0.0,0.0,282.91263,0.0,0.0,0.0,0.0,0.0
0.0,0.0,0.0,0.0,0.0,0.0,0.0,2.33624368E8,2.33624368E8,2.33624384E8,2.33624384E8,2.33624432E8,2.33624464E8,63.991837,-22.605425,-9999.0,0.0,0.424,180.01839,0.0,0.0,0.0,0.0,0.0,177.4758,1.193444,12.0,40.0,0.0,0.0,0.0,0.0,0.0,0.0,0.0,282.91263,0.0,0.0,0.0,0.0,0.0
0.0,0.0,0.0,0.0,0.0,0.0,0.0,2.33624368E8,2.33624368E8,2.33624384E8,2.33624384E8,2.33624432E8,2.33624464E8,63.991837,-22.605425,-9999.0,0.0,0.424,180.01839,0.0,0.0,0.0,0.0,0.0,177.4758,1.193444,12.0,40.0,0.0,0.0,0.0,0.0,0.0,0.0,0.0,282.91263,0.0,0.0,0.0,0.0,0.0
0.0,0.0,0.0,0.0,0.0,0.0,0.0,2.33624368E8,2.33624368E8,2.33624384E8,2.33624384E8,2.33624432E8,2.33624464E8,63.991837,-22.605425,-9999.0,0.0,0.424,180.01839,0.0,0.0,0.0,0.0,0.0,177.4758,1.193444,12.0,40.0,0.0,0.0,0.0,0.0,0.0,0.0,0.0,282.91263,0.0,0.0,0.0,0.0,0.0
0.0,0.0,0.0,0.0,0.0,0.0,0.0,2.33624368E8,2.33624368E8,2.33624384E8,2.33624384E8,2.33624432E8,2.33624464E8,63.991837,-22.605425,-9999.0,0.0,0.424,180.01839,0.0,0.0,0.0,0.0,0.0,177.4758,1.193444,12.0,40.0,0.0,0.0,0.0,0.0,0.0,0.0,0.0,282.91263,0.0,0.0,0.0,0.0,0.0
0.0,0.0,0.0,0.0,0.0,0.0,0.0,2.33624368E8,2.33624368E8,2.33624384E8,2.33624384E8,2.33624432E8,2.33624464E8,63.991837,-22.605425,-9999.0,0.0,0.424,180.01839,0.0,0.0,0.0,0.0,0.0,177.4758,1.193444,12.0,40.0,0.0,0.0,0.0,0.0,0.0,0.0,0.0,282.91263,0.0,0.0,0.0,0.0,0.0
0.0,0.0,0.0,0.0,0.0,0.0,0.0,2.33624368E8,2.33624368E8,2.33624384E8,2.33624384E8,2.33624432E8,2.33624464E8,63.991837,-22.605425,-9999.0,0.0,0.424,180.01839,0.0,0.0,0.0,0.0,0.0,177.4758,1.193444,12.0,40.0,0.0,0.0,0.0,0.0,0.0,0.0,0.0,282.91263,0.0,0.0,0.0,0.0,0.0
0.0,0.0,0.0,0.0,0.0,0.0,0.0,2.33624368E8,2.33624368E8,2.33624384E8,2.33624384E8,2.33624432E8,2.33624464E8,63.991837,-22.605425,-9999.0,0.0,0.424,180.01839,0.0,0.0,0.0,0.0,0.0,177.4758,1.193444,12.0,40.0,0.0,0.0,0.0,0.0,0.0,0.0,0.0,282.91263,0.0,0.0,0.0,0.0,0.0
0.0,0.0,0.0,0.0,0.0,0.0,0.0,2.33624368E8,2.33624368E8,2.33624384E8,2.33624384E8,2.33624432E8,2.33624464E8,63.991837,-22.605425,-9999.0,0.0,0.424,180.01839,0.0,0.0,0.0,0.0,0.0,177.4758,1.193444,12.0,40.0,0.0,0.0,0.0,0.0,0.0,0.0,0.0,282.91263,0.0,0.0,0.0,0.0,0.0
0.0,0.0,0.0,0.0,0.0,0.0,0.0,2.33624368E8,2.33624368E8,2.33624384E8,2.33624384E8,2.33624432E8,2.33624464E8,63.991837,-22.605425,-9999.0,0.0,0.424,180.01839,0.0,0.0,0.0,0.0,0.0,177.4758,1.193444,12.0,40.0,0.0,0.0,0.0,0.0,0.0,0.0,0.0,282.91263,0.0,0.0,0.0,0.0,0.0
0.0,0.0,0.0,0.0,0.0,0.0,0.0,2.33624368E8,2.33624368E8,2.33624384E8,2.33624384E8,2.33624432E8,2.33624464E8,63.991837,-22.605425,-9999.0,0.0,0.424,180.01839,0.0,0.0,0.0,0.0,0.0,177.4758,1.193444,12.0,40.0,0.0,0.0,0.0,0.0,0.0,0.0,0.0,282.91263,0.0,0.0,0.0,0.0,0.0
0.0,0.0,0.0,0.0,0.0,0.0,0.0,2.33624368E8,2.33624368E8,2.33624384E8,2.33624384E8,2.33624432E8,2.33624464E8,63.991837,-22.605425,-9999.0,0.0,0.424,180.01839,0.0,0.0,0.0,0.0,0.0,177.4758,1.193444,12.0,40.0,0.0,0.0,0.0,0.0,0.0,0.0,0.0,282.91263,0.0,0.0,0.0,0.0,0.0
0.0,0.0,0.0,0.0,0.0,0.0,0.0,2.33624368E8,2.33624368E8,2.33624384E8,2.33624384E8,2.33624432E8,2.33624464E8,63.991837,-22.605425,-9999.0,0.0,0.424,180.01839,0.0,0.0,0.0,0.0,0.0,177.4758,1.193444,12.0,40.0,0.0,0.0,0.0,0.0,0.0,0.0,0.0,282.91263,0.0,0.0,0.0,0.0,0.0
0.0,0.0,0.0,0.0,0.0,0.0,0.0,2.33624368E8,2.33624368E8,2.33624384E8,2.33624384E8,2.33624432E8,2.33624464E8,63.991837,-22.605425,-9999.0,0.0,0.424,180.01839,0.0,0.0,0.0,0.0,0.0,177.4758,1.193444,12.0,40.0,0.0,0.0,0.0,0.0,0.0,0.0,0.0,282.91263,0.0,0.0,0.0,0.0,0.0
0.0,0.0,0.0,0.0,0.0,0.0,0.0,2.33624368E8,2.33624368E8,2.33624384E8,2.33624384E8,2.33624432E8,2.33624464E8,63.991837,-22.605425,-9999.0,0.0,0.424,180.01839,0.0,0.0,0.0,0.0,0.0,177.4758,1.193444,12.0,40.0,0.0,0.0,0.0,0.0,0.0,0.0,0.0,282.91263,0.0,0.0,0.0,0.0,0.0
0.0,0.0,0.0,0.0,0.0,0.0,0.0,2.33624368E8,2.33624368E8,2.33624384E8,2.33624384E8,2.33624432E8,2.33624464E8,63.991837,-22.605425,-9999.0,0.0,0.424,180.01839,0.0,0.0,0.0,0.0,0.0,177.4758,1.193444,12.0,40.0,0.0,0.0,0.0,0.0,0.0,0.0,0.0,282.91263,0.0,0.0,0.0,0.0,0.0
0.0,0.0,0.0,0.0,0.0,0.0,0.0,2.33624368E8,2.33624368E8,2.33624384E8,2.33624384E8,2.33624432E8,2.33624464E8,63.991837,-22.605425,-9999.0,0.0,0.424,180.01839,0.0,0.0,0.0,0.0,0.0,177.4758,1.193444,12.0,40.0,0.0,0.0,0.0,0.0,0.0,0.0,0.0,282.91263,0.0,0.0,0.0,0.0,0.0
0.0,0.0,0.0,0.0,0.0,0.0,0.0,2.33624368E8,2.33624368E8,2.33624384E8,2.33624384E8,2.33624432E8,2.33624464E8,63.991837,-22.605425,-9999.0,0.0,0.424,180.01839,0.0,0.0,0.0,0.0,0.0,177.4758,1.193444,12.0,40.0,0.0,0.0,0.0,0.0,0.0,0.0,0.0,282.91263,0.0,0.0,0.0,0.0,0.0
0.0,0.0,0.0,0.0,0.0,0.0,0.0,2.33624368E8,2.33624368E8,2.33624384E8,2.33624384E8,2.33624432E8,2.33624464E8,63.991837,-22.605425,-9999.0,0.0,0.424,180.01839,0.0,0.0,0.0,0.0,0.0,177.4758,1.193444,12.0,40.0,0.0,0.0,0.0,0.0,0.0,0.0,0.0,282.91263,0.0,0.0,0.0,0.0,0.0
0.0,0.0,0.0,0.0,0.0,0.0,0.0,2.33624368E8,2.33624368E8,2.33624384E8,2.33624384E8,2.33624432E8,2.33624464E8,63.991837,-22.605425,-9999.0,0.0,0.424,180.01839,0.0,0.0,0.0,0.0,0.0,177.4758,1.193444,12.0,40.0,0.0,0.0,0.0,0.0,0.0,0.0,0.0,282.91263,0.0,0.0,0.0,0.0,0.0
0.0,0.0,0.0,0.0,0.0,0.0,0.0,2.33624368E8,2.33624368E8,2.33624384E8,2.33624384E8,2.33624432E8,2.33624464E8,63.991837,-22.605425,-9999.0,0.0,0.424,180.01839,0.0,0.0,0.0,0.0,0.0,177.4758,1.193444,12.0,40.0,0.0,0.0,0.0,0.0,0.0,0.0,0.0,282.91263,0.0,0.0,0.0,0.0,0.0
0.0,0.0,0.0,0.0,0.0,0.0,0.0,2.33624368E8,2.33624368E8,2.33624384E8,2.33624384E8,2.33624432E8,2.33624464E8,63.991837,-22.605425,-9999.0,0.0,0.424,180.01839,0.0,0.0,0.0,0.0,0.0,177.4758,1.193444,12.0,40.0,0.0,0.0,0.0,0.0,0.0,0.0,0.0,282.91263,0.0,0.0,0.0,0.0,0.0
0.0,0.0,0.0,0.0,0.0,0.0,0.0,2.33624368E8,2.33624368E8,2.33624384E8,2.33624384E8,2.33624432E8,2.33624464E8,63.991837,-22.605425,-9999.0,0.0,0.424,180.01839,0.0,0.0,0.0,0.0,0.0,177.4758,1.193444,12.0,40.0,0.0,0.0,0.0,0.0,0.0,0.0,0.0,282.91263,0.0,0.0,0.0,0.0,0.0
0.0,0.0,0.0,0.0,0.0,0.0,0.0,2.33624368E8,2.33624368E8,2.33624384E8,2.33624384E8,2.33624432E8,2.33624464E8,63.991837,-22.605425,-9999.0,0.0,0.424,180.01839,0.0,0.0,0.0,0.0,0.0,177.4758,1.193444,12.0,40.0,0.0,0.0,0.0,0.0,0.0,0.0,0.0,282.91263,0.0,0.0,0.0,0.0,0.0
0.0,0.0,0.0,0.0,0.0,0.0,0.0,2.33624368E8,2.33624368E8,2.33624384E8,2.33624384E8,2.33624432E8,2.33624464E8,63.991837,-22.605425,-9999.0,0.0,0.424,180.01839,0.0,0.0,0.0,0.0,0.0,177.4758,1.193444,12.0,40.0,0.0,0.0,0.0,0.0,0.0,0.0,0.0,282.91263,0.0,0.0,0.0,0.0,0.0
0.0,0.0,0.0,0.0,0.0,0.0,0.0,2.33624368E8,2.33624368E8,2.33624384E8,2.33624384E8,2.33624432E8,2.33624464E8,63.991837,-22.605425,-9999.0,0.0,0.424,180.01839,0.0,0.0,0.0,0.0,0.0,177.4758,1.193444,12.0,40.0,0.0,0.0,0.0,0.0,0.0,0.0,0.0,282.91263,0.0,0.0,0.0,0.0,0.0
0.0,0.0,0.0,0.0,0.0,0.0,0.0,2.33624368E8,2.33624368E8,2.33624384E8,2.33624384E8,2.33624432E8,2.33624464E8,63.991837,-22.605425,-9999.0,0.0,0.424,180.01839,0.0,0.0,0.0,0.0,0.0,177.4758,1.193444,12.0,40.0,0.0,0.0,0.0,0.0,0.0,0.0,0.0,282.91263,0.0,0.0,0.0,0.0,0.0
0.0,0.0,0.0,0.0,0.0,0.0,0.0,2.33624368E8,2.33624368E8,2.33624384E8,2.33624384E8,2.33624432E8,2.33624464E8,63.991837,-22.605425,-9999.0,0.0,0.424,180.01839,0.0,0.0,0.0,0.0,0.0,177.4758,1.193444,12.0,40.0,0.0,0.0,0.0,0.0,0.0,0.0,0.0,282.91263,0.0,0.0,0.0,0.0,0.0
0.0,0.0,0.0,0.0,0.0,0.0,0.0,2.33624368E8,2.33624368E8,2.33624384E8,2.33624384E8,2.33624432E8,2.33624464E8,63.991837,-22.605425,-9999.0,0.0,0.424,180.01839,0.0,0.0,0.0,0.0,0.0,177.4758,1.193444,12.0,40.0,0.0,0.0,0.0,0.0,0.0,0.0,0.0,282.91263,0.0,0.0,0.0,0.0,0.0
0.0,0.0,0.0,0.0,0.0,0.0,0.0,2.33624368E8,2.33624368E8,2.33624384E8,2.33624384E8,2.33624432E8,2.33624464E8,63.991837,-22.605425,-9999.0,0.0,0.424,180.01839,0.0,0.0,0.0,0.0,0.0,177.4758,1.193444,12.0,40.0,0.0,0.0,0.0,0.0,0.0,0.0,0.0,282.91263,0.0,0.0,0.0,0.0,0.0
0.0,0.0,0.0,0.0,0.0,0.0,0.0,2.33624368E8,2.33624368E8,2.33624384E8,2.33624384E8,2.33624432E8,2.33624464E8,63.991837,-22.605425,-9999.0,0.0,0.424,180.01839,0.0,0.0,0.0,0.0,0.0,177.4758,1.193444,12.0,40.0,0.0,0.0,0.0,0.0,0.0,0.0,0.0,282.91263,0.0,0.0,0.0,0.0,0.0
0.0,0.0,0.0,0.0,0.0,0.0,0.0,2.33624368E8,2.33624368E8,2.33624384E8,2.33624384E8,2.33624432E8,2.33624464E8,63.991837,-22.605425,-9999.0,0.0,0.424,180.01839,0.0,0.0,0.0,0.0,0.0,177.4758,1.193444,12.0,40.0,0.0,0.0,0.0,0.0,0.0,0.0,0.0,282.91263,0.0,0.0,0.0,0.0,0.0
0.0,0.0,0.0,0.0,0.0,0.0,0.0,2.33624368E8,2.33624368E8,2.33624384E8,2.33624384E8,2.33624432E8,2.33624464E8,63.991837,-22.605425,-9999.0,0.0,0.424,180.01839,0.0,0.0,0.0,0.0,0.0,177.4758,1.193444,12.0,40.0,0.0,0.0,0.0,0.0,0.0,0.0,0.0,282.91263,0.0,0.0,0.0,0.0,0.0
0.0,0.0,0.0,0.0,0.0,0.0,0.0,2.33624368E8,2.33624368E8,2.33624384E8,2.33624384E8,2.33624432E8,2.33624464E8,63.991837,-22.605425,-9999.0,0.0,0.424,180.01839,0.0,0.0,0.0,0.0,0.0,177.4758,1.193444,12.0,40.0,0.0,0.0,0.0,0.0,0.0,0.0,0.0,282.91263,0.0,0.0,0.0,0.0,0.0
0.0,0.0,0.0,0.0,0.0,0.0,0.0,2.33624368E8,2.33624368E8,2.33624384E8,2.33624384E8,2.33624432E8,2.33624464E8,63.991837,-22.605425,-9999.0,0.0,0.424,180.01839,0.0,0.0,0.0,0.0,0.0,177.4758,1.193444,12.0,40.0,0.0,0.0,0.0,0.0,0.0,0.0,0.0,282.91263,0.0,0.0,0.0,0.0,0.0
0.0,0.0,0.0,0.0,0.0,0.0,0.0,2.33624368E8,2.33624368E8,2.33624384E8,2.33624384E8,2.33624432E8,2.33624464E8,63.991837,-22.605425,-9999.0,0.0,0.424,180.01839,0.0,0.0,0.0,0.0,0.0,177.4758,1.193444,12.0,40.0,0.0,0.0,0.0,0.0,0.0,0.0,0.0,282.91263,0.0,0.0,0.0,0.0,0.0
0.0,0.0,0.0,0.0,0.0,0.0,0.0,2.33624368E8,2.33624368E8,2.33624384E8,2.33624384E8,2.33624432E8,2.33624464E8,63.991837,-22.605425,-9999.0,0.0,0.424,180.01839,0.0,0.0,0.0,0.0,0.0,177.4758,1.193444,12.0,40.0,0.0,0.0,0.0,0.0,0.0,0.0,0.0,282.91263,0.0,0.0,0.0,0.0,0.0
0.0,0.0,0.0,0.0,0.0,0.0,0.0,2.33624368E8,2.33624368E8,2.33624384E8,2.33624384E8,2.33624432E8,2.33624464E8,63.991837,-22.605427,146.22931,0.104756,4.954411,180.01334,0.0,0.0,0.0,0.0,0.0,177.4758,1.193444,12.0,40.0,0.0,0.0,0.0,0.0,0.0,0.0,0.0,282.91263,0.0,0.0,0.0,0.0,0.0
0.0,0.0,0.0,0.0,0.0,0.0,0.0,2.33624368E8,2.33624368E8,2.33624384E8,2.33624384E8,2.33624432E8,2.33624464E8,63.991837,-22.605427,146.22926,0.096999,4.969505,180.01273,89.85593,3.011986,-0.00128,-4.0E-6,0.0,322.98254,146.7002,12.0,40.0,0.0,0.0,130.00014,130.0,146.22926,7.4E-5,-0.012143,282.91257,357.95178,-0.005122,-0.402125,4001.5757,0.0
0.0,0.0,0.0,0.0,0.0,0.0,0.0,2.33624368E8,2.33624368E8,2.33624384E8,2.33624384E8,2.33624432E8,2.33624464E8,63.991837,-22.605427,146.22954,0.095433,4.95129,180.01259,83.88324,2.733597,0.145183,3.2E-5,0.0,298.50812,122.22577,12.0,40.0,0.0,0.0,120.000145,120.0,146.22954,6.1E-5,0.003791,282.91257,332.70438,-0.012279,-1.228903,2500.21,0.0
0.0,0.0,0.0,0.0,0.0,0.0,0.0,2.33624368E8,2.33624368E8,2.33624384E8,2.33624384E8,2.33624432E8,2.33624464E8,63.991837,-22.605427,146.22954,0.095471,4.951047,180.01259,83.25452,2.70981,0.053154,8.0E-6,4.903746,296.90753,120.625175,12.0,40.0,0.0,0.0,120.000145,120.0,146.22954,5.9E-5,0.00208,282.91257,329.19394,-0.012671,-1.285963,2359.5005,0.0
0.0,0.0,0.0,0.0,0.0,0.0,0.0,2.33624368E8,2.33624368E8,2.33624384E8,2.33624384E8,2.33624432E8,2.33624464E8,63.991837,-22.605427,146.22954,0.095792,4.95081,180.01262,81.84336,2.659062,0.087078,1.1E-5,4.516492,291.06744,114.7851,12.0,40.0,0.0,0.0,120.000145,120.0,146.22954,5.7E-5,6.37E-4,282.91257,320.97855,-0.013386,-1.401723,1974.0465,0.0
0.0,0.0,0.0,0.0,0.0,0.0,0.0,2.33624368E8,2.33624368E8,2.33624384E8,2.33624384E8,2.33624432E8,2.33624464E8,63.991837,-22.605427,146.22954,0.095861,4.950786,180.01262,81.542404,2.648686,0.068948,8.0E-6,5.207439,290.48126,114.198906,12.0,40.0,0.0,0.0,120.000145,120.0,146.22954,5.7E-5,2.35E-4,282.91257,319.1776,-0.013499,-1.424414,1909.8259,0.0
0.0,0.0,0.0,0.0,0.0,0.0,0.0,2.33624368E8,2.33624368E8,2.33624384E8,2.33624384E8,2.33624432E8,2.33624464E8,63.991837,-22.605427,146.22954,0.095945,4.950764,180.01262,81.17818,2.63634,0.022458,3.0E-6,6.197282,289.49707,113.21474,12.0,40.0,0.0,0.0,110.000145,110.0,146.22954,5.6E-5,3.02E-4,282.91257,316.9785,-0.013705,-1.451025,1822.1603,0.0
0.0,0.0,0.0,0.0,0.0,0.0,0.0,2.33624368E8,2.33624368E8,2.33624384E8,2.33624384E8,2.33624432E8,2.33624464E8,63.991837,-22.605427,146.22954,0.09603,4.950754,180.01263,80.81057,2.624093,-0.109883,-1.3E-5,6.733897,288.33685,112.0545,12.0,40.0,0.0,0.0,110.000145,110.0,146.22954,5.5E-5,-0.00104,282.91257,314.7393,-0.013805,-1.476978,1726.3776,0.0
0.0,0.0,0.0,0.0,0.0,0.0,0.0,2.33624368E8,2.33624368E8,2.33624384E8,2.33624384E8,2.33624432E8,2.33624464E8,63.991837,-22.605427,146.22954,0.096116,4.950755,180.01263,80.43949,2.611962,-0.120854,-1.5E-5,7.033026,287.07214,110.7898,12.0,40.0,0.0,0.0,110.000145,110.0,146.22954,5.5E-5,-9.39E-4,282.91257,312.46158,-0.013993,-1.502288,1624.1049,0.0
0.0,0.0,0.0,0.0,0.0,0.0,0.0,2.33624368E8,2.33624368E8,2.33624384E8,2.33624384E8,2.33624432E8,2.33624464E8,63.991837,-22.605427,146.22954,0.096208,4.950764,180.01265,80.064926,2.599943,-0.120678,-1.7E-5,7.204575,285.74548,109.46313,12.0,40.0,0.0,0.0,110.000145,110.0,146.22954,5.4E-5,-0.001107,282.91257,310.14688,-0.014082,-1.526973,1516.0386,0.0
0.0,0.0,0.0,0.0,0.0,0.0,0.0,2.33624368E8,2.33624368E8,2.33624384E8,2.33624384E8,2.33624432E8,2.33624464E8,63.991837,-22.605427,146.22954,0.096306,4.95078,180.01265,79.68686,2.588035,-0.119553,-1.8E-5,7.304703,284.38202,108.09968,12.0,40.0,0.0,0.0,110.000145,110.0,146.22954,5.4E-5,-0.001208,282.91257,307.79666,-0.014253,-1.551046,1402.2083,0.0
0.0,0.0,0.0,0.0,0.0,0.0,0.0,2.33624368E8,2.33624368E8,2.33624384E8,2.33624384E8,2.33624432E8,2.33624464E8,63.991837,-22.605427,146.22954,0.09641,4.950802,180.01266,79.305275,2.576241,-0.118912,-1.9E-5,7.363827,282.99677,106.71441,12.0,40.0,0.0,0.0,110.000145,110.0,146.22954,5.3E-5,-0.001241,282.91257,305.41248,-0.014335,-1.574525,1282.0743,0.0
0.0,0.0,0.0,0.0,0.0,0.0,0.0,2.33624368E8,2.33624368E8,2.33624384E8,2.33624384E8,2.33624432E8,2.33624464E8,63.991837,-22.605427,146.22954,0.096446,4.950811,180.01266,79.1773,2.572335,-0.118842,-1.9E-5,7.377631,282.5318,106.249466,12.0,40.0,0.0,0.0,110.000145,110.0,146.22954,5.3E-5,-0.001275,282.91257,304.61047,-0.014414,-1.582221,1240.4493,0.0
0.0,0.0,0.0,0.0,0.0,0.0,0.0,2.33624368E8,2.33624368E8,2.33624384E8,2.33624384E8,2.33624432E8,2.33624464E8,63.991837,-22.605427,146.22949,0.099532,4.95185,180.01291,70.77318,2.363551,-0.450342,-1.2E-5,0.0,251.74393,75.46158,12.0,40.0,0.0,0.0,80.000145,80.0,146.22949,4.3E-5,-7.72E-4,282.91257,252.01648,-0.016286,-1.94392,-618.7545,0.0
0.0,0.0,0.0,0.0,0.0,0.0,0.0,2.33624368E8,2.33624368E8,2.33624384E8,2.33624384E8,2.33624432E8,2.33624464E8,63.991837,-22.605427,146.22948,0.100635,4.952283,180.013,64.81107,2.26258,-0.230553,-1.1E-5,0.053174,234.0539,57.771538,12.0,40.0,0.0,0.0,60.00014,60.0,146.22948,3.8E-5,-8.05E-4,282.91257,217.92372,-0.016854,-2.093429,-1011.3602,0.0
0.0,0.0,0.0,0.0,0.0,0.0,0.0,2.33624368E8,2.33624368E8,2.33624384E8,2.33624384E8,2.33624432E8,2.33624464E8,63.991837,-22.605427,146.22948,0.100676,4.952307,180.013,64.14513,2.253329,-0.212265,-1.2E-5,4.687864,233.09326,56.810913,12.0,40.0,0.0,0.0,60.00014,60.0,146.22948,3.8E-5,-8.39E-4,282.91257,214.37384,-0.0169,-2.106785,-1000.4592,0.0
0.0,0.0,0.0,0.0,0.0,0.0,0.0,2.33624368E8,2.33624368E8,2.33624384E8,2.33624384E8,2.33624432E8,2.33624464E8,63.991837,-22.605427,146.22948,0.100693,4.952315,180.013,63.893982,2.249938,-0.201617,-1.1E-5,5.207124,232.71106,56.428707,12.0,40.0,0.0,0.0,60.00014,60.0,146.22948,3.8E-5,-0.001006,282.91257,213.04964,-0.016922,-2.11168,-998.01556,0.0
0.0,0.0,0.0,0.0,0.0,0.0,0.0,2.33624368E8,2.33624368E8,2.33624384E8,2.33624384E8,2.33624432E8,2.33624464E8,63.991837,-22.605427,146.22948,0.101285,4.952525,180.01305,60.039997,2.204364,-0.163896,-1.2E-5,2.351284,221.03764,44.755287,12.0,40.0,0.0,0.0,50.00014,50.0,146.22948,3.5E-5,-9.39E-4,282.91257,193.75212,-0.017131,-2.178197,-1209.4635,0.0
0.0,0.0,0.0,0.0,0.0,0.0,0.0,2.33624368E8,2.33624368E8,2.33624384E8,2.33624384E8,2.33624432E8,2.33624464E8,63.991837,-22.605427,146.22946,0.101428,4.952591,180.01306,58.544827,2.189816,-0.141499,-1.1E-5,5.580502,218.13795,41.8556,12.0,40.0,0.0,0.0,40.00014,40.0,146.22946,3.4E-5,-0.00104,282.91257,186.79445,-0.01722,-2.200248,-1208.7865,0.0
0.0,0.0,0.0,0.0,0.0,0.0,0.0,2.33624368E8,2.33624368E8,2.33624384E8,2.33624384E8,2.33624432E8,2.33624464E8,63.991837,-22.605427,146.22946,0.101485,4.952616,180.01306,57.923523,2.184263,-0.142845,-1.1E-5,6.396939,217.00876,40.726402,12.0,40.0,0.0,0.0,40.00014,40.0,146.22946,3.4E-5,-0.001006,282.91257,183.99152,-0.017236,-2.208882,-1205.9122,0.0
0.0,0.0,0.0,0.0,0.0,0.0,0.0,2.33624368E8,2.33624368E8,2.33624384E8,2.33624384E8,2.33624432E8,2.33624464E8,63.991837,-22.605427,146.22946,0.101535,4.952637,180.01308,57.38853,2.179709,-0.138462,-1.1E-5,6.910454,215.83865,39.5563,12.0,40.0,0.0,0.0,40.00014,40.0,146.22946,3.3E-5,-8.39E-4,282.91257,181.61948,-0.017266,-2.216084,-1214.025,0.0
0.0,0.0,0.0,0.0,0.0,0.0,0.0,2.33624368E8,2.33624368E8,2.33624384E8,2.33624384E8,2.33624432E8,2.33624464E8,63.991837,-22.605427,146.22946,0.101588,4.952658,180.01308,56.851337,2.175345,-0.124471,-1.0E-5,7.243052,214.52345,38.241104,12.0,40.0,0.0,0.0,40.00014,40.0,146.22946,3.3E-5,-9.73E-4,282.91257,179.27652,-0.01728,-2.223109,-1229.1339,0.0
0.0,0.0,0.0,0.0,0.0,0.0,0.0,2.33624368E8,2.33624368E8,2.33624384E8,2.33624384E8,2.33624432E8,2.33624464E8,63.991837,-22.605427,146.22946,0.101644,4.952679,180.01308,56.312046,2.171177,0.060624,6.0E-6,7.320499,213.21129,36.928944,12.0,40.0,0.0,0.0,40.00014,40.0,146.22946,3.3E-5,-8.39E-4,282.91257,176.96353,-0.017309,-2.229959,-1243.2867,0.0
0.0,0.0,0.0,0.0,0.0,0.0,0.0,2.33624368E8,2.33624368E8,2.33624384E8,2.33624384E8,2.33624432E8,2.33624464E8,63.991837,-22.605427,146.22946,0.101709,4.952697,180.01309,55.7707,2.167204,0.030261,3.0E-6,7.427137,211.85637,35.574024,12.0,40.0,0.0,0.0,40.00014,40.0,146.22946,3.2E-5,-2.01E-4,282.91257,174.68135,-0.017321,-2.23664,-1258.8195,0.0
0.0,0.0,0.0,0.0,0.0,0.0,0.0,2.33624368E8,2.33624368E8,2.33624384E8,2.33624384E8,2.33624432E8,2.33624464E8,63.991837,-22.605427,146.22946,0.101779,4.952713,180.01309,55.227356,2.16342,0.014895,2.0E-6,7.495857,210.47607,34.19373,12.0,40.0,0.0,0.0,40.00014,40.0,146.22946,3.2E-5,-1.34E-4,282.91257,172.4308,-0.017348,-2.243156,-1274.77,0.0
0.0,0.0,0.0,0.0,0.0,0.0,0.0,2.33624368E8,2.33624368E8,2.33624384E8,2.33624384E8,2.33624432E8,2.33624464E8,63.991837,-22.605427,146.22946,0.10185,4.952727,180.01309,54.68214,2.15983,0.003465,0.0,7.538002,209.08073,32.798386,12.0,40.0,0.0,0.0,40.00014,40.0,146.22946,3.2E-5,-1.34E-4,282.91257,170.21272,-0.017362,-2.249511,-1290.6051,0.0
0.0,0.0,0.0,0.0,0.0,0.0,0.0,2.33624368E8,2.33624368E8,2.33624384E8,2.33624384E8,2.33624432E8,2.33624464E8,63.991837,-22.605427,146.22946,0.101917,4.952743,180.0131,54.13509,2.156425,-0.163818,-1.5E-5,7.564207,207.67645,31.394104,12.0,40.0,0.0,0.0,30.000143,30.0,146.22946,3.1E-5,-6.04E-4,282.91257,168.02785,-0.017394,-2.255708,-1306.0393,0.0
0.0,0.0,0.0,0.0,0.0,0.0,0.0,2.33624368E8,2.33624368E8,2.33624384E8,2.33624384E8,2.33624432E8,2.33624464E8,63.991837,-22.605427,146.22946,0.101975,4.952763,180.0131,53.586426,2.153224,-0.155618,-1.3E-5,7.581004,206.26688,29.984524,12.0,40.0,0.0,0.0,30.000143,30.0,146.22946,3.1E-5,-9.39E-4,282.91257,165.87698,-0.017409,-2.261752,-1320.9299,0.0
0.0,0.0,0.0,0.0,0.0,0.0,0.0,2.33624368E8,2.33624368E8,2.33624384E8,2.33624384E8,2.33624432E8,2.33624464E8,63.991837,-22.605427,146.22946,0.101994,4.95277,180.0131,53.403187,2.152201,-0.152164,-1.3E-5,7.585232,205.79623,29.513887,12.0,40.0,0.0,0.0,30.000143,30.0,146.22946,3.1E-5,-0.001006,282.91257,165.1677,-0.017423,-2.263733,-1325.7604,0.0
0.0,0.0,0.0,0.0,0.0,0.0,0.0,2.33624368E8,2.33624368E8,2.33624384E8,2.33624384E8,2.33624432E8,2.33624464E8,63.991837,-22.605427,146.22946,0.102071,4.952801,180.0131,52.66853,2.148334,-0.133014,-1.2E-5,7.504987,203.76842,27.486065,12.0,40.0,0.0,0.0,30.000143,30.0,146.22946,3.0E-5,-9.39E-4,282.91257,162.36969,-0.017448,-2.271495,-1350.8206,0.0
0.0,0.0,0.0,0.0,0.0,0.0,0.0,2.33624368E8,2.33624368E8,2.33624384E8,2.33624384E8,2.33624432E8,2.33624464E8,63.991837,-22.605427,146.22946,0.102128,4.952826,180.01312,52.115826,2.145666,-0.12287,-1.1E-5,7.459755,202.35782,26.07547,12.0,40.0,0.0,0.0,30.000143,30.0,146.22946,3.0E-5,-9.39E-4,282.91257,160.31296,-0.01746,-2.277148,-1363.4916,0.0
0.0,0.0,0.0,0.0,0.0,0.0,0.0,2.33624368E8,2.33624368E8,2.33624384E8,2.33624384E8,2.33624432E8,2.33624464E8,63.991837,-22.605427,146.22946,0.102166,4.952841,180.01312,51.746597,2.143998,-0.115063,-1.0E-5,7.437095,201.44067,25.15832,12.0,40.0,0.0,0.0,30.000143,30.0,146.22946,3.0E-5,-8.72E-4,282.91257,158.96207,-0.017473,-2.280839,-1370.5457,0.0
0.0,0.0,0.0,0.0,0.0,0.0,0.0,2.33624368E8,2.33624368E8,2.33624384E8,2.33624384E8,2.33624432E8,2.33624464E8,63.991837,-22.605427,146.22946,0.102261,4.952881,180.01312,50.821136,2.14022,-0.099447,-9.0E-6,7.445484,199.0503,22.767946,12.0,40.0,0.0,0.0,30.000143,30.0,146.22946,2.9E-5,-7.72E-4,282.91257,155.65717,-0.01751,-2.289802,-1391.4863,0.0
0.0,0.0,0.0,0.0,0.0,0.0,0.0,2.33624368E8,2.33624368E8,2.33624384E8,2.33624384E8,2.33624432E8,2.33624464E8,63.991837,-22.605427,146.22946,0.102309,4.9529,180.01314,50.35722,2.138541,-0.092766,-8.0E-6,7.472323,197.89786,21.615509,12.0,40.0,0.0,0.0,20.000143,20.0,146.22946,2.9E-5,-8.39E-4,282.91257,154.04414,-0.017521,-2.294145,-1399.4834,0.0
0.0,0.0,0.0,0.0,0.0,0.0,0.0,2.33624368E8,2.33624368E8,2.33624384E8,2.33624384E8,2.33624432E8,2.33624464E8,63.991837,-22.605427,146.22946,0.102374,4.952926,180.01314,49.706566,2.136426,-0.084059,-7.0E-6,7.50494,196.27788,19.995523,12.0,40.0,0.0,0.0,20.000143,20.0,146.22946,2.9E-5,-6.71E-4,282.91257,151.83089,-0.017543,-2.300074,-1410.4762,0.0
0.0,0.0,0.0,0.0,0.0,0.0,0.0,2.33624368E8,2.33624368E8,2.33624384E8,2.33624384E8,2.33624432E8,2.33624464E8,63.991837,-22.605427,146.22946,0.10243,4.952947,180.01314,49.14788,2.134833,-0.076696,-6.0E-6,7.545827,194.89265,18.610308,12.0,40.0,0.0,0.0,20.000143,20.0,146.22946,2.9E-5,-6.37E-4,282.91257,149.9762,-0.017554,-2.305021,-1419.3215,0.0
0.0,0.0,0.0,0.0,0.0,0.0,0.0,2.33624368E8,2.33624368E8,2.33624384E8,2.33624384E8,2.33624432E8,2.33624464E8,63.991837,-22.605427,146.22946,0.10249,4.952966,180.01315,48.588486,2.133452,0.087828,8.0E-6,7.581294,193.49437,17.21202,12.0,40.0,0.0,0.0,20.000143,20.0,146.22946,2.8E-5,-2.35E-4,282.91257,148.1612,-0.017573,-2.309844,-1428.3593,0.0
0.0,0.0,0.0,0.0,0.0,0.0,0.0,2.33624368E8,2.33624368E8,2.33624384E8,2.33624384E8,2.33624432E8,2.33624464E8,63.991837,-22.605427,146.22946,0.102556,4.952981,180.01315,48.02832,2.132269,0.072252,7.0E-6,7.604453,192.08833,15.805979,12.0,40.0,0.0,0.0,20.000143,20.0,146.22946,2.8E-5,1.01E-4,282.91257,146.38638,-0.017583,-2.314549,-1437.3463,0.0
0.0,0.0,0.0,0.0,0.0,0.0,0.0,2.33624368E8,2.33624368E8,2.33624384E8,2.33624384E8,2.33624432E8,2.33624464E8,63.991837,-22.605427,146.22946,0.102623,4.952993,180.01315,47.467556,2.131286,0.063887,6.0E-6,7.619612,190.67769,14.395334,12.0,40.0,0.0,0.0,20.000143,20.0,146.22946,2.8E-5,2.01E-4,282.91257,144.65227,-0.017605,-2.319137,-1446.1484,0.0
0.0,0.0,0.0,0.0,0.0,0.0,0.0,2.33624368E8,2.33624368E8,2.33624384E8,2.33624384E8,2.33624432E8,2.33624464E8,63.991837,-22.605427,146.22946,0.102685,4.953005,180.01317,46.906246,2.130501,-0.078471,-6.0E-6,7.716992,189.2009,12.918548,12.0,40.0,0.0,0.0,20.000143,20.0,146.22946,2.7E-5,-0.001342,282.91257,142.95927,-0.017624,-2.323612,-1457.4299,0.0
0.0,0.0,0.0,0.0,0.0,0.0,0.0,2.33624368E8,2.33624368E8,2.33624384E8,2.33624384E8,2.33624432E8,2.33624464E8,63.991837,-22.605427,146.22946,0.102738,4.953021,180.01317,46.34464,2.129922,-0.099618,-7.0E-6,7.633993,187.76712,11.484776,12.0,40.0,0.0,0.0,10.000142,10.0,146.22946,2.7E-5,-8.05E-4,282.91257,141.30785,-0.017648,-2.327976,-1466.3641,0.0
0.0,0.0,0.0,0.0,0.0,0.0,0.0,2.33624368E8,2.33624368E8,2.33624384E8,2.33624384E8,2.33624432E8,2.33624464E8,63.991837,-22.605427,146.22946,0.102787,4.953038,180.01317,45.782803,2.129551,-0.089193,-6.0E-6,7.569251,186.38458,10.102233,12.0,40.0,0.0,0.0,10.000142,10.0,146.22946,2.7E-5,-6.04E-4,282.91257,139.69841,-0.017659,-2.332232,-1472.7507,0.0
0.0,0.0,0.0,0.0,0.0,0.0,0.0,2.33624368E8,2.33624368E8,2.33624384E8,2.33624384E8,2.33624432E8,2.33624464E8,63.991837,-22.605427,146.22946,0.102834,4.953057,180.01317,45.22082,2.129387,-0.074563,-5.0E-6,7.598541,184.98787,8.705523,12.0,40.0,0.0,0.0,10.000142,10.0,146.22946,2.7E-5,-5.7E-4,282.91257,138.13133,-0.017678,-2.336383,-1479.4827,0.0
0.0,0.0,0.0,0.0,0.0,0.0,0.0,2.33624368E8,2.33624368E8,2.33624384E8,2.33624384E8,2.33624432E8,2.33624464E8,63.991837,-22.605427,146.22946,0.102881,4.953075,180.01318,44.65879,2.129427,-0.059824,-4.0E-6,7.62271,183.58276,7.300406,12.0,40.0,0.0,0.0,10.000142,10.0,146.22946,2.6E-5,-5.37E-4,282.91257,136.60698,-0.017688,-2.340431,-1486.2991,0.0
0.0,0.0,0.0,0.0,0.0,0.0,0.0,2.33624368E8,2.33624368E8,2.33624384E8,2.33624384E8,2.33624432E8,2.33624464E8,63.991837,-22.605427,146.22946,0.102929,4.953093,180.01318,44.096905,2.12968,0.147398,1.2E-5,7.638897,182.17265,5.890299,12.0,40.0,0.0,0.0,10.000142,10.0,146.22946,2.6E-5,-7.38E-4,282.91257,135.12569,-0.017702,-2.344379,-1493.052,0.0
0.0,0.0,0.0,0.0,0.0,0.0,0.0,2.33624368E8,2.33624368E8,2.33624384E8,2.33624384E8,2.33624432E8,2.33624464E8,63.991837,-22.605427,146.22946,0.102986,4.953106,180.01318,43.535133,2.130135,0.122501,1.0E-5,7.649966,180.75958,4.477231,12.0,40.0,0.0,0.0,10.000142,10.0,146.22946,2.6E-5,3.35E-4,282.91257,133.68774,-0.017709,-2.348229,-1499.6595,0.0
0.0,0.0,0.0,0.0,0.0,0.0,0.0,2.33624368E8,2.33624368E8,2.33624384E8,2.33624384E8,2.33624432E8,2.33624464E8,63.991837,-22.605427,146.22946,0.103045,4.953116,180.0132,42.973595,2.130791,0.114578,1.0E-5,7.657983,179.34476,3.062404,12.0,40.0,0.0,0.0,10.000142,10.0,146.22946,2.6E-5,2.68E-4,282.91257,132.29346,-0.017727,-2.351984,-1506.0781,0.0
0.0,0.0,0.0,0.0,0.0,0.0,0.0,2.33624368E8,2.33624368E8,2.33624384E8,2.33624384E8,2.33624432E8,2.33624464E8,63.991837,-22.605427,146.22946,0.103102,4.953125,180.0132,42.41244,2.131651,0.110518,9.0E-6,7.664198,177.92888,1.646531,12.0,40.0,0.0,0.0,1.42E-4,0.0,146.22946,2.5E-5,2.68E-4,282.91257,130.94307,-0.017736,-2.355646,-1512.2874,0.0
0.0,0.0,0.0,0.0,0.0,0.0,0.0,2.33624368E8,2.33624368E8,2.33624384E8,2.33624384E8,2.33624432E8,2.33624464E8,63.991837,-22.605427,146.22946,0.103152,4.953135,180.0132,41.851673,2.132705,-0.062339,-4.0E-6,7.669353,176.51239,0.230037,12.0,40.0,0.0,0.0,1.42E-4,0.0,146.22946,2.5E-5,-7.72E-4,282.91257,129.63684,-0.017764,-2.359218,-1518.2793,0.0
0.0,0.0,0.0,0.0,0.0,0.0,0.0,2.33624368E8,2.33624368E8,2.33624384E8,2.33624384E8,2.33624432E8,2.33624464E8,63.991837,-22.605427,146.22946,0.103187,4.953146,180.0132,41.384914,2.133745,-0.068797,-4.0E-6,7.634002,175.38521,-0.897137,12.0,40.0,0.0,0.0,1.42E-4,0.0,146.22946,2.5E-5,-4.03E-4,282.91257,128.58217,-0.017774,-2.362126,-1522.7122,0.0
0.0,0.0,0.0,0.0,0.0,0.0,0.0,2.33624368E8,2.33624368E8,2.33624384E8,2.33624384E8,2.33624432E8,2.33624464E8,63.991837,-22.605427,146.22946,0.103235,4.953164,180.01321,40.732327,2.135441,-0.041046,-2.0E-6,7.611872,173.66582,-2.616532,12.0,40.0,0.0,0.0,1.42E-4,0.0,146.22946,2.5E-5,-2.68E-4,282.91257,127.15761,-0.017789,-2.366098,-1535.2917,0.0
0.0,0.0,0.0,0.0,0.0,0.0,0.0,2.33624368E8,2.33624368E8,2.33624384E8,2.33624384E8,2.33624432E8,2.33624464E8,63.991837,-22.605427,146.22946,0.103274,4.953179,180.01321,40.173817,2.137116,-0.017258,-1.0E-6,7.54973,172.36978,-3.912567,12.0,40.0,0.0,0.0,1.42E-4,0.0,146.22946,2.4E-5,-3.02E-4,282.91257,125.98496,-0.017797,-2.369411,-1538.081,0.0
0.0,0.0,0.0,0.0,0.0,0.0,0.0,2.33624368E8,2.33624368E8,2.33624384E8,2.33624384E8,2.33624432E8,2.33624464E8,63.991837,-22.605427,146.22946,0.103313,4.953194,180.01321,39.616226,2.138994,0.003284,0.0,7.600087,171.05139,-5.230952,12.0,40.0,0.0,0.0,1.42E-4,0.0,146.22946,2.4E-5,-2.68E-4,282.91257,124.85716,-0.017813,-2.372642,-1541.7256,0.0
0.0,0.0,0.0,0.0,0.0,0.0,0.2,2.33624368E8,2.33624368E8,2.33624384E8,2.33624384E8,2.33624432E8,2.33624464E8,63.991837,-22.605427,146.22946,0.103326,4.953199,180.01321,39.430584,2.139665,0.009866,1.0E-6,7.614645,170.60866,-5.673685,12.0,40.0,0.0,0.0,1.42E-4,0.0,146.22946,2.4E-5,-2.35E-4,282.91257,124.49122,-0.017813,-2.373701,-1543.0513,0.0
0.0,0.0,0.0,0.0,0.0,0.0,0.2,2.33624368E8,2.33624368E8,2.33624384E8,2.33624384E8,2.33624432E8,2.33624464E8,63.991837,-22.605427,146.22946,0.104256,4.953382,180.01329,28.63159,2.219903,-0.622918,-6.0E-6,1.888666,115.752785,-35.022636,12.0,40.0,0.0,0.0,-39.99986,-40.0,146.22946,2.0E-5,-5.37E-4,282.90027,111.65932,-0.018059,-2.423476,-1475.1703,0.0
0.0,0.0,0.0,0.0,0.0,0.0,0.2,2.33624368E8,2.33624368E8,2.33624384E8,2.33624384E8,2.33624432E8,2.33624464E8,63.991837,-22.605427,146.22946,0.10426,4.953388,180.01329,27.944155,2.22794,-0.102515,-1.0E-6,5.085341,115.00291,-35.772514,12.0,40.0,0.0,0.0,-39.99986,-40.0,146.22946,1.9E-5,-1.01E-4,282.90027,111.42869,-0.01807,-2.425594,-1437.7811,0.319368
0.0,0.0,0.0,0.0,0.0,0.0,0.2,2.33624368E8,2.33624368E8,2.33624384E8,2.33624384E8,2.33624432E8,2.33624464E8,63.991837,-22.605427,146.22946,0.104267,4.953396,180.01329,27.261848,2.236296,0.202407,3.0E-6,6.426149,113.57179,-37.203632,12.0,40.0,0.0,0.0,-39.99986,-40.0,146.22946,1.9E-5,6.7E-5,282.90027,111.27284,-0.018076,-2.421411,-1432.6769,30.860891
0.0,0.0,0.0,0.0,0.0,0.0,0.2,2.33624368E8,2.33624368E8,2.33624384E8,2.33624384E8,2.33624432E8,2.33624464E8,63.991837,-22.605427,146.22946,0.104273,4.953399,180.01329,26.837837,2.241687,0.485335,6.0E-6,6.761302,112.67271,-38.102715,12.0,40.0,0.0,0.0,-39.99986,-40.0,146.22946,1.9E-5,4.7E-4,282.90027,111.213036,-0.018085,-2.414929,-1429.8914,45.59624
0.0,0.0,0.0,0.0,0.0,0.0,0.2,2.33624368E8,2.33624368E8,2.33624384E8,2.33624384E8,2.33624432E8,2.33624464E8,63.991837,-22.605427,146.22946,0.10428,4.953377,180.01329,26.247427,2.249455,0.209179,1.3E-5,7.049875,111.407814,-39.36761,12.0,40.0,0.0,0.0,-39.99986,-40.0,146.22946,1.9E-5,8.39E-4,282.90027,111.17741,-0.01809,-2.401289,-1426.4728,65.83554
0.0,0.0,0.0,0.0,0.0,0.0,0.2,2.33624368E8,2.33624368E8,2.33624384E8,2.33624384E8,2.33624432E8,2.33624464E8,63.991837,-22.605427,146.22946,0.104282,4.953318,180.01329,25.744474,2.256312,0.148051,1.8E-5,7.341774,110.22282,-40.55261,12.0,40.0,0.0,0.0,-39.99986,-40.0,146.22946,1.9E-5,0.001409,282.90027,111.1911,-0.0181,-2.385705,-1428.3257,82.80475
0.0,0.0,0.0,0.0,0.0,0.0,0.2,2.33624368E8,2.33624368E8,2.33624384E8,2.33624384E8,2.33624432E8,2.33624464E8,63.991837,-22.605427,146.22946,0.10428,4.95323,180.01329,25.327593,2.262163,0.122464,2.3E-5,7.505625,109.18872,-41.586704,12.0,40.0,0.0,0.0,-39.99986,-40.0,146.22946,1.8E-5,0.002046,282.90027,111.23338,-0.018105,-2.370207,-1431.9733,96.66435
0.0,0.0,0.0,0.0,0.0,0.0,0.2,2.33624368E8,2.33624368E8,2.33624384E8,2.33624384E8,2.33624432E8,2.33624464E8,63.991837,-22.605427,146.22946,0.10427,4.953073,180.01329,24.830103,2.269346,0.106767,2.9E-5,7.63319,107.89883,-42.8766,12.0,40.0,0.0,0.0,-39.99986,-40.0,146.22946,1.8E-5,0.002751,282.90027,111.32081,-0.018117,-2.348848,-1438.4304,112.9472
0.0,0.0,0.0,0.0,0.0,0.0,0.2,2.33624368E8,2.33624368E8,2.33624384E8,2.33624384E8,2.33624432E8,2.33624464E8,63.991837,-22.605427,146.22948,0.104255,4.952851,180.01329,24.335865,2.27671,0.125913,4.7E-5,7.704831,106.58404,-44.191383,12.0,40.0,0.0,0.0,-39.99986,-40.0,146.22948,1.8E-5,0.005099,282.90027,111.44783,-0.018118,-2.32474,-1445.7572,128.84297
0.0,0.0,0.0,0.0,0.0,0.0,0.2,2.33624368E8,2.33624368E8,2.33624384E8,2.33624384E8,2.33624432E8,2.33624464E8,63.991837,-22.605427,146.22948,0.104235,4.952557,180.01329,23.844622,2.284238,0.117388,5.6E-5,7.748376,105.254486,-45.52094,12.0,40.0,0.0,0.0,-39.99986,-40.0,146.22948,1.8E-5,0.004898,282.90027,111.61399,-0.018129,-2.298149,-1453.4493,144.347
0.0,0.0,0.0,0.0,0.0,0.0,0.2,2.33624368E8,2.33624368E8,2.33624384E8,2.33624384E8,2.33624432E8,2.33624464E8,63.991837,-22.605427,146.22948,0.104208,4.952191,180.01329,23.35672,2.291938,0.103337,6.0E-5,7.775831,103.91617,-46.859257,12.0,40.0,0.0,0.0,-39.99986,-40.0,146.22948,1.8E-5,0.005837,282.90027,111.818825,-0.018132,-2.269328,-1461.2172,159.454
0.0,0.0,0.0,0.0,0.0,0.0,0.2,2.33624368E8,2.33624368E8,2.33624384E8,2.33624384E8,2.33624432E8,2.33624464E8,63.991837,-22.605427,146.22949,0.104175,4.951751,180.01328,22.872038,2.299801,0.094032,6.4E-5,7.793848,102.57265,-48.20278,12.0,40.0,0.0,0.0,-49.99986,-50.0,146.22949,1.8E-5,0.00681,282.90027,112.06183,-0.018141,-2.238519,-1468.8964,174.16028
0.0,0.0,0.0,0.0,0.0,0.0,0.2,2.33624368E8,2.33624368E8,2.33624384E8,2.33624384E8,2.33624432E8,2.33624464E8,63.991837,-22.605427,146.22949,0.104117,4.951149,180.01328,22.31063,2.309172,0.078589,6.3E-5,7.795333,100.98445,-49.79097,11.976321,39.92107,0.0,0.0,-49.99986,-50.0,146.22949,1.7E-5,0.005065,282.90027,112.39292,-0.01815,-2.200366,-1478.3589,190.80843
0.0,0.0,0.0,0.0,0.0,0.0,0.2,2.33624368E8,2.33624368E8,2.33624384E8,2.33624384E8,2.33624432E8,2.33624464E8,63.991837,-22.605427,146.22949,0.104062,4.950664,180.01328,21.912586,2.316003,0.087066,7.6E-5,7.799029,99.87296,-50.90246,11.935282,39.78427,0.0,0.0,-49.99986,-50.0,146.22949,1.7E-5,0.007984,282.90027,112.66037,-0.018154,-2.171839,-1483.8375,202.36363
0.0,0.0,0.0,0.0,0.0,0.0,0.2,2.33624368E8,2.33624368E8,2.33624384E8,2.33624384E8,2.33624432E8,2.33624464E8,63.991837,-22.605427,146.2295,0.103991,4.950019,180.01326,21.438068,2.324347,0.086307,8.4E-5,7.801015,98.5123,-52.263126,11.866109,39.553696,0.0,0.0,-49.99986,-50.0,146.2295,1.7E-5,0.007447,282.90027,113.014854,-0.018159,-2.13639,-1491.3439,215.86038
0.0,0.0,0.0,0.0,0.0,0.0,0.2,2.33624368E8,2.33624368E8,2.33624384E8,2.33624384E8,2.33624432E8,2.33624464E8,63.991837,-22.605427,146.2295,0.103914,4.94931,180.01326,20.966976,2.332845,0.065223,6.9E-5,7.812565,97.16853,-53.60689,11.778431,39.261436,0.0,0.0,-49.99986,-50.0,146.2295,1.7E-5,0.009661,282.90027,113.40543,-0.018167,-2.099797,-1497.8105,228.95557
0.0,0.0,0.0,0.0,0.0,0.0,0.2,2.33624368E8,2.33624368E8,2.33624384E8,2.33624384E8,2.33624432E8,2.33624464E8,63.991837,-22.605427,146.22952,0.103825,4.948542,180.01324,20.49934,2.341496,0.079719,9.1E-5,7.824332,95.82177,-54.95365,11.684333,38.947777,0.0,0.0,-49.99986,-50.0,146.22952,1.7E-5,0.009896,282.90027,113.83156,-0.01817,-2.062245,-1504.1519,241.65178
0.0,0.0,0.0,0.0,0.0,0.0,0.2,2.33624368E8,2.33624368E8,2.33624384E8,2.33624384E8,2.33624432E8,2.33624464E8,63.991837,-22.605427,146.22954,0.103731,4.947717,180.01324,20.035322,2.350303,0.076584,9.3E-5,7.833383,94.473236,-56.30219,11.585433,38.618107,0.0,0.0,-49.99986,-50.0,146.22954,1.7E-5,0.010936,282.90027,114.292656,-0.018167,-2.023905,-1510.3206,253.95242
0.0,0.0,0.0,0.0,0.0,0.0,0.2,2.33624368E8,2.33624368E8,2.33624384E8,2.33624384E8,2.33624432E8,2.33624464E8,63.991837,-22.605427,146.22954,0.103633,4.946838,180.01323,19.574692,2.359255,0.067461,8.7E-5,7.824547,93.11062,-57.664803,11.482117,38.273724,0.0,0.0,-59.99986,-60.0,146.22954,1.6E-5,0.009795,282.90027,114.78815,-0.018165,-1.984939,-1516.8514,265.8618
0.0,0.0,0.0,0.0,0.0,0.0,0.2,2.33624368E8,2.33624368E8,2.33624384E8,2.33624384E8,2.33624432E8,2.33624464E8,63.991837,-22.605427,146.22955,0.103522,4.945917,180.01323,19.117693,2.368354,0.075964,1.02E-4,7.833486,91.7657,-59.009727,11.37436,37.914536,0.0,0.0,-59.99986,-60.0,146.22955,1.6E-5,0.011271,282.90027,115.31745,-0.018159,-1.945498,-1522.3678,277.3848
0.0,0.0,0.0,0.0,0.0,0.0,0.2,2.33624368E8,2.33624368E8,2.33624384E8,2.33624384E8,2.33624432E8,2.33624464E8,63.991837,-22.605427,146.22955,0.103412,4.944955,180.01321,18.664383,2.377604,0.073794,1.03E-4,7.844041,90.41824,-60.357178,11.262543,37.54181,0.0,0.0,-59.99986,-60.0,146.22955,1.6E-5,0.012378,282.90027,115.87996,-0.018154,-1.905725,-1527.7808,288.52704
0.0,0.0,0.0,0.0,0.0,0.0,0.2,2.33624368E8,2.33624368E8,2.33624384E8,2.33624384E8,2.33624432E8,2.33624464E8,63.991837,-22.605427,146.22957,0.103303,4.943956,180.0132,18.214563,2.386996,0.072637,1.05E-4,7.85243,89.06929,-61.70613,11.1469,37.156334,0.0,0.0,-59.99986,-60.0,146.22957,1.6E-5,0.012948,282.90027,116.47506,-0.018146,-1.865752,-1533.0509,299.2946
0.0,0.0,0.0,0.0,0.0,0.0,0.2,2.33624368E8,2.33624368E8,2.33624384E8,2.33624384E8,2.33624432E8,2.33624464E8,63.991837,-22.605427,146.22958,0.103193,4.942926,180.0132,17.7683,2.396529,0.071806,1.07E-4,7.859286,87.719444,-63.055977,11.027665,36.758884,0.0,0.0,-59.99986,-60.0,146.22958,1.6E-5,0.013284,282.90027,117.10214,-0.018142,-1.8257,-1538.1582,309.69403
0.0,0.0,0.0,0.0,0.0,0.0,0.2,2.33624368E8,2.33624368E8,2.33624384E8,2.33624384E8,2.33624432E8,2.33624464E8,63.991837,-22.605427,146.2296,0.103079,4.941869,180.01318,17.325617,2.406204,0.071184,1.08E-4,7.86522,86.36907,-64.40635,10.905066,36.350216,0.0,0.0,-59.99986,-60.0,146.2296,1.6E-5,0.013485,282.90027,117.760574,-0.018133,-1.785684,-1543.0947,319.73242
0.0,0.0,0.0,0.0,0.0,0.0,0.2,2.33624368E8,2.33624368E8,2.33624384E8,2.33624384E8,2.33624432E8,2.33624464E8,63.991837,-22.605427,146.2296,0.102963,4.940791,180.01317,16.88653,2.416017,0.070747,1.1E-4,7.870614,85.01838,-65.75704,10.77932,35.931065,0.0,0.0,-59.99986,-60.0,146.2296,1.5E-5,0.013753,282.90024,118.44971,-0.018129,-1.745808,-1547.8584,329.41705
0.0,0.0,0.0,0.0,0.0,0.0,0.2,2.33624368E8,2.33624368E8,2.33624384E8,2.33624384E8,2.33624432E8,2.33624464E8,63.991837,-22.605427,146.22961,0.102845,4.939695,180.01317,16.451044,2.425968,0.070459,1.11E-4,7.875694,83.667496,-67.107925,10.650644,35.502148,0.0,0.0,-59.99986,-60.0,146.22961,1.5E-5,0.013888,282.90024,119.16889,-0.018118,-1.706168,-1552.4515,338.75555
0.0,0.0,0.0,0.0,0.0,0.0,0.2,2.33624368E8,2.33624368E8,2.33624384E8,2.33624384E8,2.33624432E8,2.33624464E8,63.991837,-22.605427,146.22963,0.102727,4.938587,180.01315,16.019169,2.436056,0.070219,1.11E-4,7.87353,82.26571,-68.50971,10.519629,35.065426,1.0E-6,0.0,-69.999855,-70.0,146.22963,1.5E-5,0.014055,282.90024,119.91749,-0.018112,-1.666851,-1558.994,347.75583
0.0,0.0,0.0,0.0,0.0,0.0,0.2,2.33624368E8,2.33624368E8,2.33624384E8,2.33624384E8,2.33624432E8,2.33624464E8,63.991837,-22.605427,146.22964,0.102604,4.93747,180.01314,15.590823,2.446275,0.072951,1.16E-4,7.923675,80.874855,-69.900566,10.386069,34.620228,2.0E-6,0.0,-69.999855,-70.0,146.22964,1.5E-5,0.012579,282.90024,120.69481,-0.018096,-1.627936,-1564.8596,356.42596
0.0,0.0,0.0,0.0,0.0,0.0,0.2,2.33624368E8,2.33624368E8,2.33624384E8,2.33624384E8,2.33624432E8,2.33624464E8,63.991837,-22.605427,146.22966,0.10248,4.936348,180.01314,15.166205,2.456632,0.071018,1.14E-4,7.810477,79.560585,-71.214836,10.249826,34.16608,3.0E-6,0.0,-69.999855,-70.0,146.22966,1.5E-5,0.013955,282.9002,121.50019,-0.018087,-1.589493,-1567.2822,364.77414
0.0,0.0,0.0,0.0,0.0,0.0,0.2,2.33624368E8,2.33624368E8,2.33624384E8,2.33624384E8,2.33624432E8,2.33624464E8,63.991837,-22.605427,146.22966,0.102358,4.935222,180.01312,14.745157,2.467119,0.070919,1.14E-4,7.839358,78.23131,-72.54411,10.111451,33.704823,5.0E-6,0.0,-69.999855,-70.0,146.22966,1.5E-5,0.014156,282.90018,122.33296,-0.018071,-1.551585,-1570.2491,372.80875
0.0,0.0,0.0,0.0,0.0,0.0,0.2,2.33624368E8,2.33624368E8,2.33624384E8,2.33624384E8,2.33624432E8,2.33624464E8,63.991837,-22.605427,146.22968,0.102237,4.934097,180.0131,14.327595,2.477733,0.06465,1.03E-4,7.821514,76.88362,-73.8918,9.971209,33.237335,8.0E-6,0.0,-69.999855,-70.0,146.22968,1.5E-5,0.012579,282.90015,123.19242,-0.018064,-1.514268,-1573.8616,380.53818
0.0,0.0,0.0,0.0,0.0,0.0,0.2,2.33624368E8,2.33624368E8,2.33624384E8,2.33624384E8,2.33624432E8,2.33624464E8,63.991837,-22.605427,146.22969,0.102113,4.932977,180.01309,13.913795,2.488479,0.071111,1.13E-4,7.827603,75.53451,-75.24091,9.829192,32.76393,1.3E-5,0.0,-69.999855,-70.0,146.22969,1.4E-5,0.013955,282.90005,124.07788,-0.018042,-1.477589,-1577.4022,387.9709
0.0,0.0,0.0,0.0,0.0,0.0,0.2,2.33624368E8,2.33624368E8,2.33624384E8,2.33624384E8,2.33624432E8,2.33624464E8,63.991837,-22.605427,146.2297,0.101994,4.931863,180.01309,13.503566,2.499352,0.072119,1.14E-4,7.963535,74.13361,-76.64181,9.685782,32.285877,2.0E-5,0.0,-69.999855,-70.0,146.2297,1.4E-5,0.014089,282.89996,124.98864,-0.018031,-1.441589,-1582.9948,395.11548
0.0,0.0,0.0,0.0,0.0,0.0,0.2,2.33624368E8,2.33624368E8,2.33624384E8,2.33624384E8,2.33624432E8,2.33624464E8,63.991837,-22.605427,146.2297,0.101878,4.930757,180.01308,13.096879,2.51035,0.072219,1.13E-4,7.832608,72.802444,-77.972984,9.540728,31.802324,3.1E-5,1.0E-6,-79.999855,-80.0,146.2297,1.4E-5,0.014223,282.89978,125.923996,-0.018013,-1.4063,-1585.4646,401.98257
0.0,0.0,0.0,0.0,0.0,0.0,0.2,2.33624368E8,2.33624368E8,2.33624384E8,2.33624384E8,2.33624432E8,2.33624464E8,63.991837,-22.605427,146.22972,0.101759,4.929663,180.01306,12.69372,2.521469,0.074808,1.16E-4,7.86096,71.47407,-79.30135,9.394333,31.31429,4.6E-5,1.0E-6,-79.999855,-80.0,146.22972,1.4E-5,0.012479,282.89957,126.88324,-0.017999,-1.371748,-1587.7451,408.58136
0.0,0.0,0.0,0.0,0.0,0.0,0.2,2.33624368E8,2.33624368E8,2.33624384E8,2.33624384E8,2.33624432E8,2.33624464E8,63.991837,-22.605427,146.22972,0.101721,4.929302,180.01306,12.560163,2.525203,0.074362,1.14E-4,7.871175,71.028984,-79.74644,9.345279,31.150753,5.3E-5,1.0E-6,-79.999855,-80.0,146.22972,1.4E-5,0.013317,282.89944,127.20817,-0.017988,-1.360398,-1588.5833,410.72275
0.0,0.0,0.0,0.0,0.0,0.0,0.2,2.33624368E8,2.33624368E8,2.33624384E8,2.33624384E8,2.33624432E8,2.33624464E8,63.991837,-22.605427,146.22975,0.101512,4.927346,180.01305,11.832551,2.545981,0.074388,1.11E-4,7.727773,68.47312,-82.3023,9.074199,30.246977,1.07E-4,2.0E-6,-79.999855,-80.0,146.22975,1.4E-5,0.013686,282.89862,129.04012,-0.017969,-1.2995,-1597.2125,421.99655
0.0,0.0,0.0,0.0,0.0,0.0,0.2,2.33624368E8,2.33624368E8,2.33624384E8,2.33624384E8,2.33624432E8,2.33624464E8,63.991837,-22.605427,146.22975,0.101423,4.926474,180.01303,11.505788,2.555561,0.074431,1.1E-4,7.770228,67.39372,-83.38171,8.949696,29.83184,1.44E-4,3.0E-6,-79.999855,-80.0,146.22975,1.4E-5,0.014055,282.89807,129.8971,-0.017948,-1.27268,-1597.6276,426.84863
0.0,0.0,0.0,0.0,0.0,0.0,0.2,2.33624368E8,2.33624368E8,2.33624384E8,2.33624384E8,2.33624432E8,2.33624464E8,63.991837,-22.605427,146.22977,0.101304,4.925274,180.01303,11.052369,2.569107,0.070967,1.02E-4,7.928382,65.82071,-84.95472,8.774727,29.248371,2.16E-4,4.0E-6,-79.999855,-80.0,146.22977,1.3E-5,0.016169,282.89697,131.12128,-0.017937,-1.236036,-1600.7477,433.36697
0.0,0.0,0.0,0.0,0.0,0.0,0.2,2.33624368E8,2.33624368E8,2.33624384E8,2.33624384E8,2.33624432E8,2.33624464E8,63.991837,-22.605427,146.22978,0.101217,4.924435,180.01302,10.731301,2.578877,0.068409,9.7E-5,7.889962,64.72102,-86.0544,8.649219,28.82978,2.86E-4,6.0E-6,-79.999855,-80.0,146.22978,1.3E-5,0.012613,282.8959,132.01254,-0.017925,-1.210504,-1601.9092,437.83307
0.0,0.0,0.0,0.0,0.0,0.0,0.2,2.33624368E8,2.33624368E8,2.33624384E8,2.33624384E8,2.33624432E8,2.33624464E8,63.991837,-22.605427,146.2298,0.101111,4.923449,180.01302,10.349368,2.590708,0.07048,9.7E-5,7.91585,63.38215,-87.39328,8.498263,28.326235,3.95E-4,8.0E-6,-79.999855,-80.0,146.2298,1.3E-5,0.01221,282.89426,133.09993,-0.017915,-1.180559,-1604.0455,442.99048
0.0,0.0,0.0,0.0,0.0,0.0,0.2,2.33624368E8,2.33624368E8,2.33624384E8,2.33624384E8,2.33624432E8,2.33624464E8,63.991837,-22.605427,146.2298,0.101013,4.922483,180.013,9.971144,2.60266,0.081364,1.1E-4,7.933647,62.03825,-88.737175,8.34702,27.821613,5.4E-4,1.1E-5,-89.999855,-90.0,146.2298,1.3E-5,0.013116,282.89203,134.20612,-0.017886,-1.151355,-1606.3135,447.93466
0.0,0.0,0.0,0.0,0.0,0.0,0.2,2.33624368E8,2.33624368E8,2.33624384E8,2.33624384E8,2.33624432E8,2.33624464E8,63.991837,-22.605427,146.22981,0.100926,4.921537,180.013,9.596241,2.614722,0.082688,1.1E-4,7.94624,60.691372,-90.08405,8.195615,27.316296,7.3E-4,1.5E-5,-89.999855,-90.0,146.22981,1.3E-5,0.012546,282.88913,135.33035,-0.017874,-1.122872,-1608.6241,452.67307
0.0,0.0,0.0,0.0,0.0,0.0,0.2,2.33624368E8,2.33624368E8,2.33624384E8,2.33624384E8,2.33624432E8,2.33624464E8,63.991837,-22.605427,146.22983,0.100843,4.920612,180.01299,9.224658,2.626891,0.077171,1.0E-4,7.955725,59.342724,-91.4327,8.044168,26.810654,9.78E-4,2.0E-5,-89.999855,-90.0,146.22983,1.3E-5,0.010466,282.88538,136.47192,-0.017857,-1.095095,-1610.9264,457.21286
0.0,0.0,0.0,0.0,0.0,0.0,0.2,2.33624368E8,2.33624368E8,2.33624384E8,2.33624384E8,2.33624432E8,2.33624464E8,63.991837,-22.605427,146.22983,0.10076,4.919711,180.01299,8.880301,2.632183,0.070166,8.8E-5,7.961906,57.993023,-92.7824,7.8928,26.305037,0.001297,2.7E-5,-89.999855,-90.0,146.22983,1.3E-5,0.011573,282.8805,137.63008,-0.017844,-1.068004,-1613.1912,461.56122
0.0,0.0,0.0,0.0,0.0,0.0,0.2,2.33624368E8,2.33624368E8,2.33624384E8,2.33624384E8,2.33624432E8,2.33624464E8,63.991837,-22.605427,146.22984,0.100679,4.918835,180.01297,8.562367,2.629947,0.075976,9.3E-5,7.964035,56.6427,-94.13272,7.74163,25.799784,0.001705,3.5E-5,-89.999855,-90.0,146.22984,1.2E-5,0.012479,282.87427,138.80406,-0.017823,-1.041584,-1615.4023,465.72598
0.0,0.0,0.0,0.0,0.0,0.0,0.2,2.33624368E8,2.33624368E8,2.33624384E8,2.33624384E8,2.33624432E8,2.33624464E8,63.991837,-22.605427,146.22986,0.100608,4.917982,180.01297,8.243885,2.627793,0.073675,8.8E-5,7.965169,55.292,-95.48342,7.590775,25.295218,0.002223,4.6E-5,-89.999855,-90.0,146.22986,1.2E-5,0.011238,282.86636,139.99315,-0.017811,-1.015817,-1617.5515,469.714
0.0,0.0,0.0,0.0,0.0,0.0,0.2,2.33624368E8,2.33624368E8,2.33624384E8,2.33624384E8,2.33624432E8,2.33624464E8,63.991837,-22.605427,146.22986,0.100544,4.917153,180.01295,7.92484,2.625719,0.070341,8.1E-5,7.950098,53.92806,-96.84737,7.440385,24.791752,0.002877,5.9E-5,-89.999855,-90.0,146.22986,1.2E-5,0.010567,282.8564,141.1966,-0.01779,-0.990687,-1620.1586,473.53177
0.0,0.0,0.0,0.0,0.0,0.0,0.2,2.33624368E8,2.33624368E8,2.33624384E8,2.33624384E8,2.33624432E8,2.33624464E8,63.991837,-22.605427,146.22987,0.100484,4.916348,180.01295,7.605287,2.623726,0.066995,7.5E-5,7.953335,52.5823,-98.19312,7.290512,24.289467,0.003694,7.6E-5,-99.999855,-100.0,146.22987,1.2E-5,0.009996,282.84393,142.41365,-0.017779,-0.966179,-1621.9414,477.18567
0.0,0.0,0.0,0.0,0.0,0.0,0.2,2.33624368E8,2.33624368E8,2.33624384E8,2.33624384E8,2.33624432E8,2.33624464E8,63.991837,-22.605427,146.22987,0.100428,4.915569,180.01295,7.285243,2.621814,0.064216,7.0E-5,7.958674,51.234303,-99.54112,7.141307,23.788752,0.00471,9.6E-5,-99.999855,-100.0,146.22987,1.2E-5,0.009527,282.82843,143.64357,-0.017758,-0.942277,-1623.7534,486.28067
0.0,0.0,0.0,0.0,0.0,0.0,0.2,2.33624368E8,2.33624368E8,2.33624384E8,2.33624384E8,2.33624432E8,2.33624464E8,63.991837,-22.605427,146.22989,0.100352,4.914737,180.01294,6.962786,2.620194,0.059118,8.4E-5,7.962213,49.88498,-100.89044,6.988051,23.273727,0.005969,1.22E-4,-99.999855,-100.0,146.22989,1.2E-5,0.012915,282.8092,144.88564,-0.01778,-0.918967,-1625.5565,522.552
0.0,0.0,0.0,0.0,0.0,0.0,0.2,2.33624368E8,2.33624368E8,2.33624384E8,2.33624384E8,2.33624432E8,2.33624464E8,63.991837,-22.605427,146.2299,0.100188,4.913544,180.01292,6.638911,2.618874,0.064229,1.38E-4,7.964477,48.53487,-102.240555,6.826582,22.730303,0.007538,1.54E-4,-99.999855,-100.0,146.2299,1.2E-5,0.021066,282.78525,146.13908,-0.017833,-0.896238,-1627.3293,557.4291
0.0,0.0,0.0,0.0,0.0,0.0,0.2,2.33624368E8,2.33624368E8,2.33624384E8,2.33624384E8,2.33624432E8,2.33624464E8,63.991837,-22.605427,146.22992,0.099922,4.911787,180.01291,6.314282,2.617734,0.057231,1.74E-4,8.049471,47.12384,-103.65159,6.658897,22.16485,0.009501,1.94E-4,-99.999855,-100.0,146.22992,1.2E-5,0.025897,282.75528,147.4032,-0.017865,-0.874075,-1631.5079,590.79877
0.0,0.0,0.0,0.0,0.0,0.0,0.2,2.33624368E8,2.33624368E8,2.33624384E8,2.33624384E8,2.33624432E8,2.33624464E8,63.991837,-22.605427,146.22993,0.099549,4.909394,180.01288,5.989496,2.616704,0.05566,2.21E-4,7.902913,45.78663,-104.9888,6.484189,21.574327,0.011963,2.44E-4,-99.999855,-100.0,146.22993,1.2E-5,0.030459,282.71765,148.67722,-0.017901,-0.852465,-1632.5411,622.5805
0.0,0.0,0.0,0.0,0.0,0.0,0.2,2.33624368E8,2.33624368E8,2.33624384E8,2.33624384E8,2.33624432E8,2.33624464E8,63.991837,-22.605427,146.22998,0.098999,4.905794,180.01283,5.610756,2.615581,0.056368,2.81E-4,7.88556,44.141766,-106.63366,6.275222,20.865562,0.015649,3.19E-4,-99.999855,-100.0,146.22998,4.1E-5,0.038174,282.6613,150.17514,-0.017916,-0.827932,-1637.065,657.5782
0.0,0.0,0.0,0.0,0.0,0.0,0.2,2.33624368E8,2.33624368E8,2.33624384E8,2.33624384E8,2.33624432E8,2.33624464E8,63.991837,-22.605427,146.23,0.098638,4.903368,180.0128,5.394345,2.614963,0.055008,3.04E-4,7.846544,43.274963,-107.50046,6.152292,20.447195,0.018245,3.71E-4,-109.999855,-110.0,146.23,6.3E-5,0.042066,282.62155,151.03627,-0.017926,-0.814233,-1636.6393,676.5526
0.0,0.0,0.0,0.0,0.0,0.0,0.2,2.33624368E8,2.33624368E8,2.33624384E8,2.33624384E8,2.33624432E8,2.33624464E8,63.991837,-22.605427,146.23006,0.097835,4.897807,180.01273,4.961644,2.613754,0.048555,3.14E-4,7.857767,41.4716,-109.303825,5.903113,19.59488,0.0248,5.02E-4,-109.999855,-110.0,146.23006,1.14E-4,0.052431,282.52115,152.76878,-0.017923,-0.787516,-1638.5674,712.2454
0.0,0.0,0.0,0.0,0.0,0.0,0.2,2.33624368E8,2.33624368E8,2.33624384E8,2.33624384E8,2.33624432E8,2.33624464E8,63.991837,-22.605427,146.2301,0.097171,4.893107,180.01266,4.637349,2.612867,0.050261,3.53E-4,7.884412,40.15428,-110.62114,5.713326,18.941002,0.031214,6.3E-4,-109.999855,-110.0,146.2301,1.56E-4,0.057228,282.42276,154.0763,-0.017896,-0.768058,-1638.5728,737.0449
0.0,0.0,0.0,0.0,0.0,0.0,0.2,2.33624368E8,2.33624368E8,2.33624384E8,2.33624384E8,2.33624432E8,2.33624464E8,63.991837,-22.605427,146.23015,0.096468,4.888049,180.0126,4.313111,2.611995,0.051074,3.81E-4,7.917567,38.82316,-111.95226,5.52277,18.279135,0.039266,7.89E-4,-109.999855,-110.0,146.23015,2.01E-4,0.055081,282.29913,155.38997,-0.017879,-0.749083,-1639.1328,760.1727
0.0,0.0,0.0,0.0,0.0,0.0,0.2,2.33624368E8,2.33624368E8,2.33624384E8,2.33624384E8,2.33624432E8,2.33624464E8,63.991837,-22.605427,146.2302,0.09574,4.882713,180.01254,3.988973,2.611139,0.050455,3.93E-4,7.938642,37.48385,-113.29157,5.332572,17.611746,0.049345,9.87E-4,-109.999855,-110.0,146.2302,2.48E-4,0.056523,282.14413,156.70909,-0.017829,-0.730579,-1640.003,781.6563
0.0,0.0,0.0,0.0,0.0,0.0,0.2,2.33624368E8,2.33624368E8,2.33624384E8,2.33624384E8,2.33624432E8,2.33624464E8,63.991837,-22.605427,146.23024,0.094993,4.877244,180.01248,3.66401,2.610815,0.042431,3.76E-4,7.951368,36.13968,-114.63574,5.143897,16.941162,0.061918,0.001233,-109.999855,-110.0,146.23024,2.98E-4,0.058704,281.95047,158.03296,-0.017801,-0.712532,-1641.0386,801.532
0.0,0.0,0.0,0.0,0.0,0.0,0.2,2.33624368E8,2.33624368E8,2.33624384E8,2.33624384E8,2.33624432E8,2.33624464E8,63.991837,-22.605427,146.23029,0.094237,4.872159,180.0124,3.33754,2.611744,0.03282,3.91E-4,8.05267,34.691307,-116.084114,4.95873,16.27217,0.07754,0.001536,-109.999855,-110.0,146.23029,3.59E-4,0.055819,281.7095,159.36086,-0.017728,-0.694937,-1646.2089,819.8422
0.0,0.0,0.0,0.0,0.0,0.0,0.2,2.33624368E8,2.33624368E8,2.33624384E8,2.33624384E8,2.33624432E8,2.33624464E8,63.991837,-22.605427,146.23033,0.093486,4.867758,180.01231,3.010447,2.613847,0.022734,3.82E-4,7.880485,33.383743,-117.39168,4.77925,15.609963,0.096833,0.001907,-109.999855,-110.0,146.23033,4.43E-4,0.051659,281.4114,160.69211,-0.017676,-0.677777,-1645.5675,836.63806
0.0,0.0,0.0,0.0,0.0,0.0,0.2,2.33624368E8,2.33624368E8,2.33624384E8,2.33624384E8,2.33624432E8,2.33624464E8,63.991837,-22.605427,146.23038,0.092734,4.864076,180.01222,2.682638,2.617053,0.018341,4.3E-4,7.907283,32.058403,-118.71702,4.607309,14.95838,0.120503,0.002359,-119.999855,-120.0,146.23038,5.59E-4,0.047835,281.04514,162.02599,-0.017553,-0.661043,-1645.6592,851.9723
0.0,0.0,0.0,0.0,0.0,0.0,0.2,2.33624368E8,2.33624368E8,2.33624384E8,2.33624384E8,2.33624432E8,2.33624464E8,63.991837,-22.605427,146.23041,0.091994,4.861055,180.01212,2.355248,2.62129,0.01476,4.67E-4,8.018286,30.662052,-120.11337,4.443957,14.318308,0.149337,0.002906,-119.999855,-120.0,146.23041,7.18E-4,0.043474,280.59824,163.36182,-0.017485,-0.644723,-1648.5931,865.90155
0.0,0.0,0.0,0.0,0.0,0.0,0.2,2.33624368E8,2.33624368E8,2.33624384E8,2.33624384E8,2.33624432E8,2.33624464E8,63.991837,-22.605427,146.23044,0.091399,4.85898,180.01201,2.083551,2.625555,0.012554,4.98E-4,7.866239,29.574203,-121.20122,4.314992,13.793608,0.177943,0.003445,-119.999855,-120.0,146.23044,8.89E-4,0.041294,280.15417,164.47601,-0.017322,-0.631433,-1647.9141,876.48
