aileron,elevator,rudder,flaps,slats,speedbrake,throttle,engine-pump0,engine-pump1,electric-pump0,electric-pump1,external-power,APU-generator,latitude-deg,longitude-deg,altitude-ft,roll-deg,pitch-deg,heading-deg,side-slip-deg,airspeed-kt,glideslope,vertical-speed-fps,airspeed-indicator_indicated-speed-kt,altimeter_indicated-altitude-ft,altimeter_pressure-alt-ft,attitude-indicator_indicated-pitch-deg,attitude-indicator_indicated-roll-deg,attitude-indicator_internal-pitch-deg,attitude-indicator_internal-roll-deg,encoder_indicated-altitude-ft,encoder_pressure-alt-ft,gps_indicated-altitude-ft,gps_indicated-ground-speed-kt,gps_indicated-vertical-speed,indicated-heading-deg,magnetic-compass_indicated-heading-deg,slip-skid-ball_indicated-slip-skid,turn-indicator_indicated-turn-rate,vertical-speed-indicator_indicated-speed-fpm,engine_rpm
0.0,0.0,0.0,0.0,0.0,0.0,1.0,1.21549616E8,1.21549616E8,1.21549632E8,1.21549632E8,1.2154968E8,1.21549712E8,63.985043,-22.592484,-9999.0,0.0,0.424,270.02136,0.0,0.0,0.0,0.0,0.0,0.0,0.0,0.0,0.0,0.0,0.0,0.0,0.0,0.0,0.0,0.0,0.0,0.0,0.0,0.0,0.0,0.0
0.0,0.0,0.0,0.0,0.0,0.0,1.0,1.21549616E8,1.21549616E8,1.21549632E8,1.21549632E8,1.2154968E8,1.21549712E8,63.985043,-22.592484,-9999.0,0.0,0.424,270.02136,0.0,0.0,0.0,0.0,0.0,389.08878,1.193444,12.0,40.0,0.0,0.0,0.0,0.0,0.0,0.0,0.0,282.89813,0.0,0.0,0.0,0.0,0.0
0.0,0.0,0.0,0.0,0.0,0.0,1.0,1.21549616E8,1.21549616E8,1.21549632E8,1.21549632E8,1.2154968E8,1.21549712E8,63.991837,-22.605425,-9999.0,0.0,0.424,180.01839,0.0,0.0,0.0,0.0,0.0,389.08878,1.193444,12.0,40.0,0.0,0.0,0.0,0.0,0.0,0.0,0.0,282.89813,0.0,0.0,0.0,0.0,0.0
0.0,0.0,0.0,0.0,0.0,0.0,1.0,1.21549616E8,1.21549616E8,1.21549632E8,1.21549632E8,1.2154968E8,1.21549712E8,63.991837,-22.605425,-9999.0,0.0,0.424,180.01839,0.0,0.0,0.0,0.0,0.0,389.08878,1.193444,12.0,40.0,0.0,0.0,0.0,0.0,0.0,0.0,0.0,282.89813,0.0,0.0,0.0,0.0,0.0
0.0,0.0,0.0,0.0,0.0,0.0,1.0,1.21549616E8,1.21549616E8,1.21549632E8,1.21549632E8,1.2154968E8,1.21549712E8,63.991837,-22.605425,-9999.0,0.0,0.424,180.01839,0.0,0.0,0.0,0.0,0.0,389.08878,1.193444,12.0,40.0,0.0,0.0,0.0,0.0,0.0,0.0,0.0,282.89813,0.0,0.0,0.0,0.0,0.0
0.0,0.0,0.0,0.0,0.0,0.0,1.0,1.21549616E8,1.21549616E8,1.21549632E8,1.21549632E8,1.2154968E8,1.21549712E8,63.991837,-22.605425,-9999.0,0.0,0.424,180.01839,0.0,0.0,0.0,0.0,0.0,389.08878,1.193444,12.0,40.0,0.0,0.0,0.0,0.0,0.0,0.0,0.0,282.89813,0.0,0.0,0.0,0.0,0.0
0.0,0.0,0.0,0.0,0.0,0.0,1.0,1.21549616E8,1.21549616E8,1.21549632E8,1.21549632E8,1.2154968E8,1.21549712E8,63.991837,-22.605425,-9999.0,0.0,0.424,180.01839,0.0,0.0,0.0,0.0,0.0,389.08878,1.193444,12.0,40.0,0.0,0.0,0.0,0.0,0.0,0.0,0.0,282.89813,0.0,0.0,0.0,0.0,0.0
0.0,0.0,0.0,0.0,0.0,0.0,1.0,1.21549616E8,1.21549616E8,1.21549632E8,1.21549632E8,1.2154968E8,1.21549712E8,63.991837,-22.605425,-9999.0,0.0,0.424,180.01839,0.0,0.0,0.0,0.0,0.0,389.08878,1.193444,12.0,40.0,0.0,0.0,0.0,0.0,0.0,0.0,0.0,282.89813,0.0,0.0,0.0,0.0,0.0
0.0,0.0,0.0,0.0,0.0,0.0,1.0,1.21549616E8,1.21549616E8,1.21549632E8,1.21549632E8,1.2154968E8,1.21549712E8,63.991837,-22.605425,-9999.0,0.0,0.424,180.01839,0.0,0.0,0.0,0.0,0.0,389.08878,1.193444,12.0,40.0,0.0,0.0,0.0,0.0,0.0,0.0,0.0,282.89813,0.0,0.0,0.0,0.0,0.0
0.0,0.0,0.0,0.0,0.0,0.0,1.0,1.21549616E8,1.21549616E8,1.21549632E8,1.21549632E8,1.2154968E8,1.21549712E8,63.991837,-22.605425,-9999.0,0.0,0.424,180.01839,0.0,0.0,0.0,0.0,0.0,389.08878,1.193444,12.0,40.0,0.0,0.0,0.0,0.0,0.0,0.0,0.0,282.89813,0.0,0.0,0.0,0.0,0.0
0.0,0.0,0.0,0.0,0.0,0.0,1.0,1.21549616E8,1.21549616E8,1.21549632E8,1.21549632E8,1.2154968E8,1.21549712E8,63.991837,-22.605425,-9999.0,0.0,0.424,180.01839,0.0,0.0,0.0,0.0,0.0,389.08878,1.193444,12.0,40.0,0.0,0.0,0.0,0.0,0.0,0.0,0.0,282.89813,0.0,0.0,0.0,0.0,0.0
0.0,0.0,0.0,0.0,0.0,0.0,1.0,1.21549616E8,1.21549616E8,1.21549632E8,1.21549632E8,1.2154968E8,1.21549712E8,63.991837,-22.605425,-9999.0,0.0,0.424,180.01839,0.0,0.0,0.0,0.0,0.0,389.08878,1.193444,12.0,40.0,0.0,0.0,0.0,0.0,0.0,0.0,0.0,282.89813,0.0,0.0,0.0,0.0,0.0
0.0,0.0,0.0,0.0,0.0,0.0,1.0,1.21549616E8,1.21549616E8,1.21549632E8,1.21549632E8,1.2154968E8,1.21549712E8,63.991837,-22.605425,-9999.0,0.0,0.424,180.01839,0.0,0.0,0.0,0.0,0.0,389.08878,1.193444,12.0,40.0,0.0,0.0,0.0,0.0,0.0,0.0,0.0,282.89813,0.0,0.0,0.0,0.0,0.0
0.0,0.0,0.0,0.0,0.0,0.0,1.0,1.21549616E8,1.21549616E8,1.21549632E8,1.21549632E8,1.2154968E8,1.21549712E8,63.991837,-22.605425,-9999.0,0.0,0.424,180.01839,0.0,0.0,0.0,0.0,0.0,389.08878,1.193444,12.0,40.0,0.0,0.0,0.0,0.0,0.0,0.0,0.0,282.89813,0.0,0.0,0.0,0.0,0.0
0.0,0.0,0.0,0.0,0.0,0.0,1.0,1.21549616E8,1.21549616E8,1.21549632E8,1.21549632E8,1.2154968E8,1.21549712E8,63.991837,-22.605425,-9999.0,0.0,0.424,180.01839,0.0,0.0,0.0,0.0,0.0,389.08878,1.193444,12.0,40.0,0.0,0.0,0.0,0.0,0.0,0.0,0.0,282.89813,0.0,0.0,0.0,0.0,0.0
0.0,0.0,0.0,0.0,0.0,0.0,1.0,1.21549616E8,1.21549616E8,1.21549632E8,1.21549632E8,1.2154968E8,1.21549712E8,63.991837,-22.605425,-9999.0,0.0,0.424,180.01839,0.0,0.0,0.0,0.0,0.0,389.08878,1.193444,12.0,40.0,0.0,0.0,0.0,0.0,0.0,0.0,0.0,282.89813,0.0,0.0,0.0,0.0,0.0
0.0,0.0,0.0,0.0,0.0,0.0,1.0,1.21549616E8,1.21549616E8,1.21549632E8,1.21549632E8,1.2154968E8,1.21549712E8,63.991837,-22.605425,-9999.0,0.0,0.424,180.01839,0.0,0.0,0.0,0.0,0.0,389.08878,1.193444,12.0,40.0,0.0,0.0,0.0,0.0,0.0,0.0,0.0,282.89813,0.0,0.0,0.0,0.0,0.0
0.0,0.0,0.0,0.0,0.0,0.0,1.0,1.21549616E8,1.21549616E8,1.21549632E8,1.21549632E8,1.2154968E8,1.21549712E8,63.991837,-22.605425,-9999.0,0.0,0.424,180.01839,0.0,0.0,0.0,0.0,0.0,389.08878,1.193444,12.0,40.0,0.0,0.0,0.0,0.0,0.0,0.0,0.0,282.89813,0.0,0.0,0.0,0.0,0.0
0.0,0.0,0.0,0.0,0.0,0.0,1.0,1.21549616E8,1.21549616E8,1.21549632E8,1.21549632E8,1.2154968E8,1.21549712E8,63.991837,-22.605425,-9999.0,0.0,0.424,180.01839,0.0,0.0,0.0,0.0,0.0,389.08878,1.193444,12.0,40.0,0.0,0.0,0.0,0.0,0.0,0.0,0.0,282.89813,0.0,0.0,0.0,0.0,0.0
0.0,0.0,0.0,0.0,0.0,0.0,1.0,1.21549616E8,1.21549616E8,1.21549632E8,1.21549632E8,1.2154968E8,1.21549712E8,63.991837,-22.605425,-9999.0,0.0,0.424,180.01839,0.0,0.0,0.0,0.0,0.0,389.08878,1.193444,12.0,40.0,0.0,0.0,0.0,0.0,0.0,0.0,0.0,282.89813,0.0,0.0,0.0,0.0,0.0
0.0,0.0,0.0,0.0,0.0,0.0,1.0,1.21549616E8,1.21549616E8,1.21549632E8,1.21549632E8,1.2154968E8,1.21549712E8,63.991837,-22.605425,-9999.0,0.0,0.424,180.01839,0.0,0.0,0.0,0.0,0.0,389.08878,1.193444,12.0,40.0,0.0,0.0,0.0,0.0,0.0,0.0,0.0,282.89813,0.0,0.0,0.0,0.0,0.0
0.0,0.0,0.0,0.0,0.0,0.0,1.0,1.21549616E8,1.21549616E8,1.21549632E8,1.21549632E8,1.2154968E8,1.21549712E8,63.991837,-22.605425,-9999.0,0.0,0.424,180.01839,0.0,0.0,0.0,0.0,0.0,389.08878,1.193444,12.0,40.0,0.0,0.0,0.0,0.0,0.0,0.0,0.0,282.89813,0.0,0.0,0.0,0.0,0.0
0.0,0.0,0.0,0.0,0.0,0.0,1.0,1.21549616E8,1.21549616E8,1.21549632E8,1.21549632E8,1.2154968E8,1.21549712E8,63.991837,-22.605425,-9999.0,0.0,0.424,180.01839,0.0,0.0,0.0,0.0,0.0,389.08878,1.193444,12.0,40.0,0.0,0.0,0.0,0.0,0.0,0.0,0.0,282.89813,0.0,0.0,0.0,0.0,0.0
0.0,0.0,0.0,0.0,0.0,0.0,1.0,1.21549616E8,1.21549616E8,1.21549632E8,1.21549632E8,1.2154968E8,1.21549712E8,63.991837,-22.605425,-9999.0,0.0,0.424,180.01839,0.0,0.0,0.0,0.0,0.0,389.08878,1.193444,12.0,40.0,0.0,0.0,0.0,0.0,0.0,0.0,0.0,282.89813,0.0,0.0,0.0,0.0,0.0
0.0,0.0,0.0,0.0,0.0,0.0,1.0,1.21549616E8,1.21549616E8,1.21549632E8,1.21549632E8,1.2154968E8,1.21549712E8,63.991837,-22.605425,-9999.0,0.0,0.424,180.01839,0.0,0.0,0.0,0.0,0.0,389.08878,1.193444,12.0,40.0,0.0,0.0,0.0,0.0,0.0,0.0,0.0,282.89813,0.0,0.0,0.0,0.0,0.0
0.0,0.0,0.0,0.0,0.0,0.0,1.0,1.21549616E8,1.21549616E8,1.21549632E8,1.21549632E8,1.2154968E8,1.21549712E8,63.991837,-22.605425,-9999.0,0.0,0.424,180.01839,0.0,0.0,0.0,0.0,0.0,389.08878,1.193444,12.0,40.0,0.0,0.0,0.0,0.0,0.0,0.0,0.0,282.89813,0.0,0.0,0.0,0.0,0.0
0.0,0.0,0.0,0.0,0.0,0.0,1.0,1.21549616E8,1.21549616E8,1.21549632E8,1.21549632E8,1.2154968E8,1.21549712E8,63.991837,-22.605425,-9999.0,0.0,0.424,180.01839,0.0,0.0,0.0,0.0,0.0,389.08878,1.193444,12.0,40.0,0.0,0.0,0.0,0.0,0.0,0.0,0.0,282.89813,0.0,0.0,0.0,0.0,0.0
0.0,0.0,0.0,0.0,0.0,0.0,1.0,1.21549616E8,1.21549616E8,1.21549632E8,1.21549632E8,1.2154968E8,1.21549712E8,63.991837,-22.605425,-9999.0,0.0,0.424,180.01839,0.0,0.0,0.0,0.0,0.0,389.08878,1.193444,12.0,40.0,0.0,0.0,0.0,0.0,0.0,0.0,0.0,282.89813,0.0,0.0,0.0,0.0,0.0
0.0,0.0,0.0,0.0,0.0,0.0,1.0,1.21549616E8,1.21549616E8,1.21549632E8,1.21549632E8,1.2154968E8,1.21549712E8,63.991837,-22.605425,-9999.0,0.0,0.424,180.01839,0.0,0.0,0.0,0.0,0.0,389.08878,1.193444,12.0,40.0,0.0,0.0,0.0,0.0,0.0,0.0,0.0,282.89813,0.0,0.0,0.0,0.0,0.0
0.0,0.0,0.0,0.0,0.0,0.0,1.0,1.21549616E8,1.21549616E8,1.21549632E8,1.21549632E8,1.2154968E8,1.21549712E8,63.991837,-22.605425,-9999.0,0.0,0.424,180.01839,0.0,0.0,0.0,0.0,0.0,389.08878,1.193444,12.0,40.0,0.0,0.0,0.0,0.0,0.0,0.0,0.0,282.89813,0.0,0.0,0.0,0.0,0.0
0.0,0.0,0.0,0.0,0.0,0.0,1.0,1.21549616E8,1.21549616E8,1.21549632E8,1.21549632E8,1.2154968E8,1.21549712E8,63.991837,-22.605425,-9999.0,0.0,0.424,180.01839,0.0,0.0,0.0,0.0,0.0,389.08878,1.193444,12.0,40.0,0.0,0.0,0.0,0.0,0.0,0.0,0.0,282.89813,0.0,0.0,0.0,0.0,0.0
0.0,0.0,0.0,0.0,0.0,0.0,1.0,1.21549616E8,1.21549616E8,1.21549632E8,1.21549632E8,1.2154968E8,1.21549712E8,63.991837,-22.605425,-9999.0,0.0,0.424,180.01839,0.0,0.0,0.0,0.0,0.0,389.08878,1.193444,12.0,40.0,0.0,0.0,0.0,0.0,0.0,0.0,0.0,282.89813,0.0,0.0,0.0,0.0,0.0
0.0,0.0,0.0,0.0,0.0,0.0,1.0,1.21549616E8,1.21549616E8,1.21549632E8,1.21549632E8,1.2154968E8,1.21549712E8,63.991837,-22.605425,-9999.0,0.0,0.424,180.01839,0.0,0.0,0.0,0.0,0.0,389.08878,1.193444,12.0,40.0,0.0,0.0,0.0,0.0,0.0,0.0,0.0,282.89813,0.0,0.0,0.0,0.0,0.0
0.0,0.0,0.0,0.0,0.0,0.0,1.0,1.21549616E8,1.21549616E8,1.21549632E8,1.21549632E8,1.2154968E8,1.21549712E8,63.991837,-22.605425,-9999.0,0.0,0.424,180.01839,0.0,0.0,0.0,0.0,0.0,389.08878,1.193444,12.0,40.0,0.0,0.0,0.0,0.0,0.0,0.0,0.0,282.89813,0.0,0.0,0.0,0.0,0.0
0.0,0.0,0.0,0.0,0.0,0.0,1.0,1.21549616E8,1.21549616E8,1.21549632E8,1.21549632E8,1.2154968E8,1.21549712E8,63.991837,-22.605425,-9999.0,0.0,0.424,180.01839,0.0,0.0,0.0,0.0,0.0,389.08878,1.193444,12.0,40.0,0.0,0.0,0.0,0.0,0.0,0.0,0.0,282.89813,0.0,0.0,0.0,0.0,0.0
0.0,0.0,0.0,0.0,0.0,0.0,1.0,1.21549616E8,1.21549616E8,1.21549632E8,1.21549632E8,1.2154968E8,1.21549712E8,63.991837,-22.605425,-9999.0,0.0,0.424,180.01839,0.0,0.0,0.0,0.0,0.0,389.08878,1.193444,12.0,40.0,0.0,0.0,0.0,0.0,0.0,0.0,0.0,282.89813,0.0,0.0,0.0,0.0,0.0
0.0,0.0,0.0,0.0,0.0,0.0,1.0,1.21549616E8,1.21549616E8,1.21549632E8,1.21549632E8,1.2154968E8,1.21549712E8,63.991837,-22.605425,-9999.0,0.0,0.424,180.01839,0.0,0.0,0.0,0.0,0.0,389.08878,1.193444,12.0,40.0,0.0,0.0,0.0,0.0,0.0,0.0,0.0,282.89813,0.0,0.0,0.0,0.0,0.0
0.0,0.0,0.0,0.0,0.0,0.0,1.0,1.21549616E8,1.21549616E8,1.21549632E8,1.21549632E8,1.2154968E8,1.21549712E8,63.991837,-22.605425,-9999.0,0.0,0.424,180.01839,0.0,0.0,0.0,0.0,0.0,389.08878,1.193444,12.0,40.0,0.0,0.0,0.0,0.0,0.0,0.0,0.0,282.89813,0.0,0.0,0.0,0.0,0.0
0.0,0.0,0.0,0.0,0.0,0.0,1.0,1.21549616E8,1.21549616E8,1.21549632E8,1.21549632E8,1.2154968E8,1.21549712E8,63.991837,-22.605425,-9999.0,0.0,0.424,180.01839,0.0,0.0,0.0,0.0,0.0,389.08878,1.193444,12.0,40.0,0.0,0.0,0.0,0.0,0.0,0.0,0.0,282.89813,0.0,0.0,0.0,0.0,0.0
0.0,0.0,0.0,0.0,0.0,0.0,1.0,1.21549616E8,1.21549616E8,1.21549632E8,1.21549632E8,1.2154968E8,1.21549712E8,63.991837,-22.605425,-9999.0,0.0,0.424,180.01839,0.0,0.0,0.0,0.0,0.0,389.08878,1.193444,12.0,40.0,0.0,0.0,0.0,0.0,0.0,0.0,0.0,282.89813,0.0,0.0,0.0,0.0,0.0
0.0,0.0,0.0,0.0,0.0,0.0,1.0,1.21549616E8,1.21549616E8,1.21549632E8,1.21549632E8,1.2154968E8,1.21549712E8,63.991837,-22.605425,-9999.0,0.0,0.424,180.01839,0.0,0.0,0.0,0.0,0.0,389.08878,1.193444,12.0,40.0,0.0,0.0,0.0,0.0,0.0,0.0,0.0,282.89813,0.0,0.0,0.0,0.0,0.0
0.0,0.0,0.0,0.0,0.0,0.0,1.0,1.21549616E8,1.21549616E8,1.21549632E8,1.21549632E8,1.2154968E8,1.21549712E8,63.991837,-22.605425,-9999.0,0.0,0.424,180.01839,0.0,0.0,0.0,0.0,0.0,389.08878,1.193444,12.0,40.0,0.0,0.0,0.0,0.0,0.0,0.0,0.0,282.89813,0.0,0.0,0.0,0.0,0.0
0.0,0.0,0.0,0.0,0.0,0.0,0.0,1.21549616E8,1.21549616E8,1.21549632E8,1.21549632E8,1.2154968E8,1.21549712E8,63.991837,-22.605427,146.2295,0.104764,4.952322,180.01332,0.0,0.0,0.0,0.0,0.0,389.08878,1.193444,12.0,40.0,0.0,0.0,0.0,0.0,0.0,0.0,0.0,282.89813,0.0,0.0,0.0,0.0,0.0
0.0,0.0,0.0,0.0,0.0,0.0,0.0,1.21549616E8,1.21549616E8,1.21549632E8,1.21549632E8,1.2154968E8,1.21549712E8,63.991837,-22.605427,146.2293,0.09587,4.97149,180.01263,89.861374,3.012128,-0.068688,-1.71E-4,0.0,536.8417,148.94632,12.0,40.0,0.0,0.0,140.00014,140.0,146.2293,7.6E-5,-0.019993,282.89807,356.89465,-0.006118,-0.487915,3948.1538,0.0
0.0,0.0,0.0,0.0,0.0,0.0,0.0,1.21549616E8,1.21549616E8,1.21549632E8,1.21549632E8,1.2154968E8,1.21549712E8,63.991837,-22.605427,146.22954,0.09547,4.951219,180.01257,83.369514,2.714098,0.074653,1.3E-5,4.743378,508.9667,121.071365,12.0,40.0,0.0,0.0,120.000145,120.0,146.22954,6.1E-5,0.001442,282.89807,326.53574,-0.012969,-1.325845,2285.2578,0.0
0.0,0.0,0.0,0.0,0.0,0.0,0.0,1.21549616E8,1.21549616E8,1.21549632E8,1.21549632E8,1.2154968E8,1.21549712E8,63.991837,-22.605427,146.22954,0.095838,4.950932,180.0126,81.84326,2.659042,0.010374,1.0E-6,4.259619,502.59497,114.69964,12.0,40.0,0.0,0.0,120.000145,120.0,146.22954,5.9E-5,6.7E-5,282.89807,317.34558,-0.013628,-1.446636,1858.4141,0.0
0.0,0.0,0.0,0.0,0.0,0.0,0.0,1.21549616E8,1.21549616E8,1.21549632E8,1.21549632E8,1.2154968E8,1.21549712E8,63.991837,-22.605427,146.22954,0.095995,4.950887,180.01262,81.11706,2.634274,-0.043372,-5.0E-6,6.238492,500.89133,112.99597,12.0,40.0,0.0,0.0,110.000145,110.0,146.22954,5.7E-5,-2.01E-4,282.89807,312.84134,-0.013932,-1.498114,1688.9125,0.0
0.0,0.0,0.0,0.0,0.0,0.0,0.0,1.21549616E8,1.21549616E8,1.21549632E8,1.21549632E8,1.2154968E8,1.21549712E8,63.991837,-22.605427,146.22954,0.096176,4.950876,180.01263,80.37714,2.609943,-0.069492,-1.0E-5,7.044939,498.45508,110.559746,12.0,40.0,0.0,0.0,110.000145,110.0,146.22954,5.6E-5,-5.37E-4,282.89807,308.18802,-0.014201,-1.547076,1482.5054,0.0
0.0,0.0,0.0,0.0,0.0,0.0,0.0,1.21549616E8,1.21549616E8,1.21549632E8,1.21549632E8,1.2154968E8,1.21549712E8,63.991837,-22.605427,146.22954,0.096348,4.95089,180.01265,79.74992,2.590004,-0.082772,-1.3E-5,7.281933,496.2189,108.32355,12.0,40.0,0.0,0.0,110.000145,110.0,146.22954,5.5E-5,-8.39E-4,282.89807,304.20517,-0.014449,-1.586045,1289.0746,0.0
0.0,0.0,0.0,0.0,0.0,0.0,0.0,1.21549616E8,1.21549616E8,1.21549632E8,1.21549632E8,1.2154968E8,1.21549712E8,63.991837,-22.605427,146.2295,0.09832,4.951494,180.0128,74.872734,2.454366,-0.104658,-9.0E-6,0.05822,476.61707,88.72173,12.0,40.0,0.0,0.0,90.000145,90.0,146.2295,4.9E-5,-9.39E-4,282.89807,272.91287,-0.015672,-1.826169,-514.041,0.0
0.0,0.0,0.0,0.0,0.0,0.0,0.0,1.21549616E8,1.21549616E8,1.21549632E8,1.21549632E8,1.2154968E8,1.21549712E8,63.991837,-22.605427,146.2295,0.098448,4.951538,180.01282,73.948814,2.432208,-0.144386,-1.4E-5,5.82658,475.19614,87.30078,12.0,40.0,0.0,0.0,90.000145,90.0,146.2295,4.8E-5,-8.72E-4,282.89807,267.05637,-0.015814,-1.861769,-569.0331,0.0
0.0,0.0,0.0,0.0,0.0,0.0,0.0,1.21549616E8,1.21549616E8,1.21549632E8,1.21549632E8,1.2154968E8,1.21549712E8,63.991837,-22.605427,146.2295,0.098589,4.951581,180.01283,73.08121,2.412328,-0.142643,-1.7E-5,6.936788,472.8811,84.98576,12.0,40.0,0.0,0.0,90.000145,90.0,146.2295,4.7E-5,-0.001073,282.89807,261.60788,-0.015943,-1.89296,-696.42786,0.0
0.0,0.0,0.0,0.0,0.0,0.0,0.0,1.21549616E8,1.21549616E8,1.21549632E8,1.21549632E8,1.2154968E8,1.21549712E8,63.991837,-22.605427,146.2295,0.098753,4.951634,180.01283,72.19934,2.393008,-0.140197,-1.8E-5,7.284008,470.22958,82.33423,12.0,40.0,0.0,0.0,80.000145,80.0,146.2295,4.6E-5,-0.001275,282.89807,256.13058,-0.016063,-1.922626,-813.89166,0.0
0.0,0.0,0.0,0.0,0.0,0.0,0.0,1.21549616E8,1.21549616E8,1.21549632E8,1.21549632E8,1.2154968E8,1.21549712E8,63.991837,-22.605427,146.22949,0.098935,4.951696,180.01285,71.30326,2.37426,-0.127978,-1.8E-5,7.290409,467.38248,79.48712,12.0,40.0,0.0,0.0,80.000145,80.0,146.22949,4.5E-5,-0.00161,282.89807,250.63588,-0.016176,-1.950842,-916.85144,0.0
0.0,0.0,0.0,0.0,0.0,0.0,0.0,1.21549616E8,1.21549616E8,1.21549632E8,1.21549632E8,1.2154968E8,1.21549712E8,63.991837,-22.605427,146.22949,0.099126,4.951765,180.01286,70.39307,2.3561,-0.13721,-2.0E-5,7.346989,464.58914,76.693794,12.0,40.0,0.0,0.0,80.000145,80.0,146.22949,4.4E-5,-0.001442,282.89807,245.13503,-0.016284,-1.977679,-996.12067,0.0
0.0,0.0,0.0,0.0,0.0,0.0,0.0,1.21549616E8,1.21549616E8,1.21549632E8,1.21549632E8,1.2154968E8,1.21549712E8,63.991837,-22.605427,146.22949,0.09932,4.951837,180.01288,69.46889,2.338541,-0.137347,-2.0E-5,7.424734,461.8008,73.90547,12.0,40.0,0.0,0.0,80.000145,80.0,146.22949,4.3E-5,-0.001476,282.89807,239.63902,-0.016385,-2.003205,-1062.0931,0.0
0.0,0.0,0.0,0.0,0.0,0.0,0.0,1.21549616E8,1.21549616E8,1.21549632E8,1.21549632E8,1.2154968E8,1.21549712E8,63.991837,-22.605427,146.22949,0.099517,4.951911,180.0129,68.53093,2.321599,-0.135135,-2.0E-5,7.44771,458.92938,71.03403,12.0,40.0,0.0,0.0,70.000145,70.0,146.22949,4.3E-5,-0.001543,282.89807,234.15868,-0.016478,-2.027483,-1122.8439,0.0
0.0,0.0,0.0,0.0,0.0,0.0,0.0,1.21549616E8,1.21549616E8,1.21549632E8,1.21549632E8,1.2154968E8,1.21549712E8,63.991837,-22.605427,146.22949,0.099714,4.951986,180.01292,67.57937,2.305287,-0.135952,-2.0E-5,7.43445,456.1352,68.23986,12.0,40.0,0.0,0.0,70.000145,70.0,146.22949,4.2E-5,-0.00151,282.89807,228.70454,-0.016568,-2.050575,-1171.2716,0.0
0.0,0.0,0.0,0.0,0.0,0.0,0.0,1.21549616E8,1.21549616E8,1.21549632E8,1.21549632E8,1.2154968E8,1.21549712E8,63.991837,-22.605427,146.22949,0.099909,4.952061,180.01294,66.61447,2.289619,-0.13499,-2.0E-5,7.460993,453.31497,65.41961,12.0,40.0,0.0,0.0,70.000145,70.0,146.22949,4.1E-5,-0.001476,282.89807,223.2869,-0.016653,-2.072539,-1215.0518,0.0
0.0,0.0,0.0,0.0,0.0,0.0,0.0,1.21549616E8,1.21549616E8,1.21549632E8,1.21549632E8,1.2154968E8,1.21549712E8,63.991837,-22.605427,146.22948,0.10007,4.952123,180.01294,65.80041,2.277064,-0.132509,-1.9E-5,7.46253,450.90414,63.008785,12.0,40.0,0.0,0.0,70.000145,70.0,146.22948,4.0E-5,-0.001543,282.89807,218.8073,-0.016733,-2.090019,-1250.6029,0.0
0.0,0.0,0.0,0.0,0.0,0.0,0.0,1.21549616E8,1.21549616E8,1.21549632E8,1.21549632E8,1.2154968E8,1.21549712E8,63.991837,-22.605427,146.22948,0.100293,4.952209,180.01297,64.64581,2.260268,-0.130968,-1.9E-5,7.361138,447.56573,59.6704,12.0,40.0,0.0,0.0,60.00014,60.0,146.22948,3.9E-5,-0.001409,282.89807,212.60083,-0.016808,-2.113298,-1292.9668,0.0
0.0,0.0,0.0,0.0,0.0,0.0,0.0,1.21549616E8,1.21549616E8,1.21549632E8,1.21549632E8,1.2154968E8,1.21549712E8,63.991837,-22.605427,146.22948,0.100478,4.95228,180.01299,63.642708,2.246611,-0.129587,-1.8E-5,7.381905,444.74356,56.84822,12.0,40.0,0.0,0.0,60.00014,60.0,146.22948,3.8E-5,-0.001375,282.89807,207.35158,-0.01688,-2.132196,-1323.4644,0.0
0.0,0.0,0.0,0.0,0.0,0.0,0.0,1.21549616E8,1.21549616E8,1.21549632E8,1.21549632E8,1.2154968E8,1.21549712E8,63.991837,-22.605427,146.22948,0.100659,4.952349,180.01299,62.62761,2.233651,-0.127828,-1.7E-5,7.382524,441.92056,54.025215,12.0,40.0,0.0,0.0,60.00014,60.0,146.22948,3.8E-5,-0.001308,282.89807,202.17705,-0.016947,-2.15017,-1350.9583,0.0
0.0,0.0,0.0,0.0,0.0,0.0,0.0,1.21549616E8,1.21549616E8,1.21549632E8,1.21549632E8,1.2154968E8,1.21549712E8,63.991837,-22.605427,146.22948,0.100834,4.952416,180.013,61.600952,2.2214,-0.124316,-1.6E-5,7.434621,439.07443,51.179104,12.0,40.0,0.0,0.0,50.00014,50.0,146.22948,3.7E-5,-0.001308,282.89807,197.08606,-0.01701,-2.167267,-1376.9652,0.0
0.0,0.0,0.0,0.0,0.0,0.0,0.0,1.21549616E8,1.21549616E8,1.21549632E8,1.21549632E8,1.2154968E8,1.21549712E8,63.991837,-22.605427,146.22948,0.101005,4.952481,180.01302,60.56319,2.209868,-0.122447,-1.6E-5,7.437139,436.28912,48.39378,12.0,40.0,0.0,0.0,50.00014,50.0,146.22948,3.6E-5,-0.001208,282.89807,192.08702,-0.017072,-2.183527,-1397.9027,0.0
0.0,0.0,0.0,0.0,0.0,0.0,0.0,1.21549616E8,1.21549616E8,1.21549632E8,1.21549632E8,1.2154968E8,1.21549712E8,63.991837,-22.605427,146.22946,0.10117,4.952544,180.01303,59.514854,2.19907,-0.119217,-1.5E-5,7.544387,433.47192,45.57657,12.0,40.0,0.0,0.0,50.00014,50.0,146.22946,3.6E-5,-0.001174,282.89807,187.18802,-0.017129,-2.198993,-1418.3853,0.0
0.0,0.0,0.0,0.0,0.0,0.0,0.0,1.21549616E8,1.21549616E8,1.21549632E8,1.21549632E8,1.2154968E8,1.21549712E8,63.991837,-22.605427,146.22946,0.101331,4.952604,180.01305,58.456497,2.189014,-0.114862,-1.4E-5,7.517216,430.60583,42.710503,12.0,40.0,0.0,0.0,50.00014,50.0,146.22946,3.5E-5,-0.001141,282.89807,182.39677,-0.017183,-2.213703,-1439.1215,0.0
0.0,0.0,0.0,0.0,0.0,0.0,0.0,1.21549616E8,1.21549616E8,1.21549632E8,1.21549632E8,1.2154968E8,1.21549712E8,63.991837,-22.605427,146.22946,0.101487,4.952662,180.01306,57.388687,2.179711,-0.111117,-1.3E-5,7.554019,427.79782,39.902466,12.0,40.0,0.0,0.0,40.00014,40.0,146.22946,3.4E-5,-0.001073,282.89807,177.72067,-0.017236,-2.227695,-1455.7117,0.0
0.0,0.0,0.0,0.0,0.0,0.0,0.0,1.21549616E8,1.21549616E8,1.21549632E8,1.21549632E8,1.2154968E8,1.21549712E8,63.991837,-22.605427,146.22946,0.101639,4.952718,180.01308,56.312073,2.171172,-0.104542,-1.2E-5,7.663965,424.90918,37.01382,12.0,40.0,0.0,0.0,40.00014,40.0,146.22946,3.3E-5,-9.39E-4,282.89807,173.16666,-0.017285,-2.241002,-1474.3676,0.0
0.0,0.0,0.0,0.0,0.0,0.0,0.0,1.21549616E8,1.21549616E8,1.21549632E8,1.21549632E8,1.2154968E8,1.21549712E8,63.991837,-22.605427,146.22946,0.101785,4.952771,180.01308,55.22728,2.163404,-0.100595,-1.1E-5,7.550287,422.11896,34.223606,12.0,40.0,0.0,0.0,40.00014,40.0,146.22946,3.3E-5,-9.06E-4,282.89807,168.74138,-0.017333,-2.253659,-1487.3723,0.0
0.0,0.0,0.0,0.0,0.0,0.0,0.0,1.21549616E8,1.21549616E8,1.21549632E8,1.21549632E8,1.2154968E8,1.21549712E8,63.991837,-22.605427,146.22946,0.101927,4.952822,180.01309,54.135033,2.156417,-0.094383,-1.0E-5,7.582791,419.29996,31.404617,12.0,40.0,0.0,0.0,30.000143,30.0,146.22946,3.2E-5,-8.39E-4,282.89807,164.45102,-0.017378,-2.265698,-1500.5409,0.0
0.0,0.0,0.0,0.0,0.0,0.0,0.0,1.21549616E8,1.21549616E8,1.21549632E8,1.21549632E8,1.2154968E8,1.21549712E8,63.991837,-22.605427,146.22946,0.102064,4.952871,180.0131,53.036045,2.150219,-0.087701,-9.0E-6,7.59877,416.47083,28.575493,12.0,40.0,0.0,0.0,30.000143,30.0,146.22946,3.1E-5,-8.05E-4,282.89807,160.30142,-0.017421,-2.277148,-1513.1005,0.0
0.0,0.0,0.0,0.0,0.0,0.0,0.0,1.21549616E8,1.21549616E8,1.21549632E8,1.21549632E8,1.2154968E8,1.21549712E8,63.991837,-22.605427,146.22946,0.102197,4.952918,180.01312,51.93107,2.144816,-0.080163,-8.0E-6,7.608554,413.63812,25.742788,12.0,40.0,0.0,0.0,30.000143,30.0,146.22946,3.1E-5,-6.71E-4,282.89807,156.298,-0.017462,-2.288039,-1524.8424,0.0
0.0,0.0,0.0,0.0,0.0,0.0,0.0,1.21549616E8,1.21549616E8,1.21549632E8,1.21549632E8,1.2154968E8,1.21549712E8,63.991837,-22.605427,146.22946,0.102325,4.952961,180.01312,50.820885,2.140215,-0.072188,-7.0E-6,7.616217,410.80417,22.908813,12.0,40.0,0.0,0.0,30.000143,30.0,146.22946,3.0E-5,-6.37E-4,282.89807,152.44583,-0.017501,-2.298398,-1535.7474,0.0
0.0,0.0,0.0,0.0,0.0,0.0,0.0,1.21549616E8,1.21549616E8,1.21549632E8,1.21549632E8,1.2154968E8,1.21549712E8,63.991837,-22.605427,146.22946,0.102449,4.953004,180.01314,49.706295,2.13642,-0.063216,-6.0E-6,7.623188,407.96973,20.07438,12.0,40.0,0.0,0.0,20.000143,20.0,146.22946,3.0E-5,-6.37E-4,282.89807,148.74953,-0.017538,-2.30825,-1545.8566,0.0
0.0,0.0,0.0,0.0,0.0,0.0,0.0,1.21549616E8,1.21549616E8,1.21549632E8,1.21549632E8,1.2154968E8,1.21549712E8,63.991837,-22.605427,146.22945,0.102568,4.953044,180.01314,48.588123,2.133436,-0.053246,-5.0E-6,7.629971,405.13513,17.239777,12.0,40.0,0.0,0.0,20.000143,20.0,146.22945,2.9E-5,-5.37E-4,282.89807,145.21333,-0.017574,-2.317621,-1555.2268,0.0
0.0,0.0,0.0,0.0,0.0,0.0,0.0,1.21549616E8,1.21549616E8,1.21549632E8,1.21549632E8,1.2154968E8,1.21549712E8,63.991837,-22.605427,146.22945,0.102626,4.953063,180.01315,48.027954,2.13225,-0.047918,-4.0E-6,7.633353,403.7178,15.822444,12.0,40.0,0.0,0.0,20.000143,20.0,146.22945,2.9E-5,-5.37E-4,282.89807,143.50647,-0.017597,-2.322133,-1559.653,0.0
0.0,0.0,0.0,0.0,0.0,0.0,0.0,1.21549616E8,1.21549616E8,1.21549632E8,1.21549632E8,1.2154968E8,1.21549712E8,63.991837,-22.605427,146.22945,0.102798,4.953118,180.01317,46.344383,2.129915,-0.03055,-2.0E-6,7.49402,399.3813,11.485944,12.0,40.0,0.0,0.0,10.000142,10.0,146.22945,2.8E-5,-4.36E-4,282.89807,138.63617,-0.01764,-2.335011,-1574.7498,0.0
0.0,0.0,0.0,0.0,0.0,0.0,0.0,1.21549616E8,1.21549616E8,1.21549632E8,1.21549632E8,1.2154968E8,1.21549712E8,63.991837,-22.605427,146.22945,0.102906,4.953152,180.01317,45.22053,2.129382,-0.017586,-1.0E-6,7.548254,396.56366,8.668311,12.0,40.0,0.0,0.0,10.000142,10.0,146.22945,2.7E-5,-3.35E-4,282.89807,135.60167,-0.017671,-2.343074,-1581.3191,0.0
0.0,0.0,0.0,0.0,0.0,0.0,0.0,1.21549616E8,1.21549616E8,1.21549632E8,1.21549632E8,1.2154968E8,1.21549712E8,63.991837,-22.605427,146.22945,0.103009,4.953183,180.01318,44.0965,2.129668,-0.003854,-0.0,7.616033,393.77255,5.877198,12.0,40.0,0.0,0.0,10.000142,10.0,146.22945,2.7E-5,-2.35E-4,282.89807,132.74023,-0.017701,-2.350743,-1586.4501,0.0
0.0,0.0,0.0,0.0,0.0,0.0,0.0,1.21549616E8,1.21549616E8,1.21549632E8,1.21549632E8,1.2154968E8,1.21549712E8,63.991837,-22.605427,146.22945,0.103108,4.953213,180.01318,42.97317,2.130774,0.011575,1.0E-6,7.64993,390.95312,3.057789,12.0,40.0,0.0,0.0,10.000142,10.0,146.22945,2.6E-5,-2.01E-4,282.89807,130.05406,-0.01773,-2.358037,-1592.3187,0.0
0.0,0.0,0.0,0.0,0.0,0.0,0.0,1.21549616E8,1.21549616E8,1.21549632E8,1.21549632E8,1.2154968E8,1.21549712E8,63.991837,-22.605427,146.22945,0.103205,4.95324,180.0132,41.85139,2.132698,0.02818,2.0E-6,7.666525,388.12375,0.228409,12.0,40.0,0.0,0.0,1.42E-4,0.0,146.22945,2.6E-5,-1.34E-4,282.89807,127.54504,-0.017758,-2.364975,-1598.1625,0.0
0.0,0.0,0.0,0.0,0.0,0.0,0.0,1.21549616E8,1.21549616E8,1.21549632E8,1.21549632E8,1.2154968E8,1.21549712E8,63.991837,-22.605427,146.22945,0.103291,4.953264,180.0132,40.8252,2.135179,0.043181,3.0E-6,7.636568,385.548,-2.347345,12.0,40.0,0.0,0.0,1.42E-4,0.0,146.22945,2.5E-5,-3.4E-5,282.89807,125.40195,-0.017784,-2.371036,-1606.9044,0.0
0.0,0.0,0.0,0.0,0.0,0.0,0.0,1.21549616E8,1.21549616E8,1.21549632E8,1.21549632E8,1.2154968E8,1.21549712E8,63.991837,-22.605427,146.22945,0.103375,4.953287,180.01321,39.80167,2.138343,0.060863,4.0E-6,7.521112,383.01297,-4.88237,12.0,40.0,0.0,0.0,1.42E-4,0.0,146.22945,2.5E-5,0.0,282.89807,123.40978,-0.017809,-2.376825,-1613.7651,0.0
0.0,0.0,0.0,0.0,0.0,0.0,0.0,1.21549616E8,1.21549616E8,1.21549632E8,1.21549632E8,1.2154968E8,1.21549712E8,63.991837,-22.605427,146.22945,0.103469,4.953311,180.01321,38.596355,2.142958,0.082736,5.0E-6,7.571052,380.16595,-7.729378,12.0,40.0,0.0,0.0,-9.999858,-10.0,146.22945,2.4E-5,1.34E-4,282.89807,121.25075,-0.017833,-2.383333,-1615.4799,0.0
0.0,0.0,0.0,0.0,0.0,0.0,0.0,1.21549616E8,1.21549616E8,1.21549632E8,1.21549632E8,1.2154968E8,1.21549712E8,63.991837,-22.605427,146.22945,0.103553,4.953331,180.01323,37.48877,2.148058,0.10645,6.0E-6,7.607642,377.47867,-10.416683,12.0,40.0,0.0,0.0,-9.999858,-10.0,146.22945,2.4E-5,1.34E-4,282.89807,119.446,-0.017854,-2.389035,-1619.2739,0.0
0.0,0.0,0.0,0.0,0.0,0.0,0.0,1.21549616E8,1.21549616E8,1.21549632E8,1.21549632E8,1.2154968E8,1.21549712E8,63.991837,-22.605427,146.22945,0.103633,4.95335,180.01323,36.386795,2.153956,0.130759,8.0E-6,7.673045,374.81195,-13.08339,12.0,40.0,0.0,0.0,-9.999858,-10.0,146.22945,2.3E-5,2.35E-4,282.89807,117.821945,-0.017875,-2.394457,-1622.0632,0.0
0.0,0.0,0.0,0.0,0.0,0.0,0.0,1.21549616E8,1.21549616E8,1.21549632E8,1.21549632E8,1.2154968E8,1.21549712E8,63.991837,-22.605427,146.22945,0.103718,4.953369,180.01323,35.20022,2.16124,0.157738,9.0E-6,7.617485,371.84436,-16.050985,12.0,40.0,0.0,0.0,-9.999858,-10.0,146.22945,2.3E-5,2.68E-4,282.89807,116.26602,-0.017896,-2.400033,-1627.8467,0.0
0.0,0.0,0.0,0.0,0.0,0.0,0.0,1.21549616E8,1.21549616E8,1.21549632E8,1.21549632E8,1.2154968E8,1.21549712E8,63.991837,-22.605427,146.22945,0.103792,4.953384,180.01324,34.112366,2.168781,0.181007,1.0E-5,7.658997,369.17294,-18.722406,12.0,40.0,0.0,0.0,-19.999857,-20.0,146.22945,2.2E-5,4.7E-4,282.89807,115.01682,-0.017917,-2.404919,-1630.2302,0.0
0.0,0.0,0.0,0.0,0.0,0.0,0.0,1.21549616E8,1.21549616E8,1.21549632E8,1.21549632E8,1.2154968E8,1.21549712E8,63.991837,-22.605427,146.22945,0.103864,4.953398,180.01324,33.032406,2.177099,0.21449,1.1E-5,7.713195,366.48965,-21.405695,12.0,40.0,0.0,0.0,-19.999857,-20.0,146.22945,2.2E-5,4.03E-4,282.89807,113.94609,-0.017938,-2.409565,-1632.9392,0.0
0.0,0.0,0.0,0.0,0.0,0.0,0.0,1.21549616E8,1.21549616E8,1.21549632E8,1.21549632E8,1.2154968E8,1.21549712E8,63.991837,-22.605427,146.22945,0.103934,4.95341,180.01326,31.961002,2.186184,0.24485,1.2E-5,7.733182,363.7942,-24.101162,12.0,40.0,0.0,0.0,-19.999857,-20.0,146.22945,2.2E-5,5.03E-4,282.89807,113.05239,-0.017957,-2.413985,-1635.9467,0.0
0.0,0.0,0.0,0.0,0.0,0.0,0.0,1.21549616E8,1.21549616E8,1.21549632E8,1.21549632E8,1.2154968E8,1.21549712E8,63.991837,-22.605427,146.22946,0.104001,4.95342,180.01326,30.898796,2.196028,0.276654,1.3E-5,7.745376,361.09442,-26.800922,12.0,40.0,0.0,0.0,-19.999857,-20.0,146.22946,2.1E-5,5.37E-4,282.89807,112.334,-0.017976,-2.418189,-1638.9207,0.0
0.0,0.0,0.0,0.0,0.0,0.0,0.0,1.21549616E8,1.21549616E8,1.21549632E8,1.21549632E8,1.2154968E8,1.21549712E8,63.991837,-22.605427,146.22946,0.104067,4.953429,180.01326,29.846388,2.20662,0.309606,1.5E-5,7.754913,358.39313,-29.502207,12.0,40.0,0.0,0.0,-29.999857,-30.0,146.22946,2.1E-5,6.04E-4,282.89807,111.78886,-0.017994,-2.422187,-1641.7539,0.0
0.0,0.0,0.0,0.0,0.0,0.0,0.0,1.21549616E8,1.21549616E8,1.21549632E8,1.21549632E8,1.2154968E8,1.21549712E8,63.991837,-22.605427,146.22946,0.10413,4.953436,180.01328,28.804342,2.21795,0.343396,1.6E-5,7.76357,355.6913,-32.204037,12.0,40.0,0.0,0.0,-29.999857,-30.0,146.22946,2.0E-5,7.04E-4,282.89807,111.41462,-0.018011,-2.425989,-1644.4177,0.0
0.0,0.0,0.0,0.0,0.0,0.0,0.0,1.21549616E8,1.21549616E8,1.21549632E8,1.21549632E8,1.2154968E8,1.21549712E8,63.991837,-22.605427,146.22946,0.104191,4.953443,180.01328,27.77319,2.230006,0.378107,1.7E-5,7.771971,352.9893,-34.906067,12.0,40.0,0.0,0.0,-29.999857,-30.0,146.22946,2.0E-5,7.38E-4,282.89807,111.20864,-0.018028,-2.429606,-1646.9102,0.0
0.0,0.0,0.0,0.0,0.0,0.0,0.0,1.21549616E8,1.21549616E8,1.21549632E8,1.21549632E8,1.2154968E8,1.21549712E8,63.991837,-22.605427,146.22946,0.104247,4.953447,180.01328,26.837948,2.241686,0.380853,1.7E-5,7.594196,350.41644,-37.478893,12.0,40.0,0.0,0.0,-29.999857,-30.0,146.22946,2.0E-5,0.001073,282.89807,111.16514,-0.018044,-2.432766,-1652.6373,0.0
0.0,0.0,0.0,0.0,0.0,0.0,0.0,1.21549616E8,1.21549616E8,1.21549632E8,1.21549632E8,1.2154968E8,1.21549712E8,63.991837,-22.605427,146.22946,0.104304,4.953451,180.01329,25.828995,2.255102,0.445732,1.9E-5,7.726895,347.77643,-40.118908,12.0,40.0,0.0,0.0,-39.99986,-40.0,146.22946,1.9E-5,8.39E-4,282.89807,111.27324,-0.018059,-2.436052,-1652.1573,0.0
0.0,0.0,0.0,0.0,0.0,0.0,0.0,1.21549616E8,1.21549616E8,1.21549632E8,1.21549632E8,1.2154968E8,1.21549712E8,63.991837,-22.605427,146.22946,0.10436,4.953453,180.01329,24.832245,2.26921,0.482341,2.0E-5,7.775079,345.09613,-42.79921,12.0,40.0,0.0,0.0,-39.99986,-40.0,146.22946,1.9E-5,9.06E-4,282.89807,111.54032,-0.018072,-2.439177,-1653.28,0.0
0.0,0.0,0.0,0.0,0.0,0.0,0.0,1.21549616E8,1.21549616E8,1.21549632E8,1.21549632E8,1.2154968E8,1.21549712E8,63.991837,-22.605427,146.22946,0.104414,4.953454,180.01329,23.848068,2.283996,0.518426,2.2E-5,7.797505,342.40164,-45.493702,12.0,40.0,0.0,0.0,-39.99986,-40.0,146.22946,1.8E-5,9.39E-4,282.89807,111.9627,-0.018086,-2.44215,-1654.88,0.0
0.0,0.0,0.0,0.0,0.0,0.0,0.0,1.21549616E8,1.21549616E8,1.21549632E8,1.21549632E8,1.2154968E8,1.21549712E8,63.991837,-22.605427,146.22946,0.104472,4.953453,180.01329,22.796452,2.300765,0.555755,2.3E-5,7.818021,339.48157,-48.41379,12.0,40.0,0.0,0.0,-49.99986,-50.0,146.22946,1.8E-5,0.001107,282.89807,112.59098,-0.018099,-2.445206,-1656.5378,0.0
0.0,0.0,0.0,0.0,0.0,0.0,0.0,1.21549616E8,1.21549616E8,1.21549632E8,1.21549632E8,1.2154968E8,1.21549712E8,63.991837,-22.605427,146.22948,0.104523,4.953451,180.0133,21.839502,2.316923,0.584674,2.4E-5,7.910184,336.71686,-51.17849,12.0,40.0,0.0,0.0,-49.99986,-50.0,146.22948,1.8E-5,0.00104,282.89807,113.32407,-0.018113,-2.447884,-1660.7028,0.0
0.0,0.0,0.0,0.0,0.0,0.0,0.0,1.21549616E8,1.21549616E8,1.21549632E8,1.21549632E8,1.2154968E8,1.21549712E8,63.991837,-22.605427,146.22948,0.104574,4.953448,180.0133,20.89602,2.333719,0.623356,2.5E-5,7.784194,334.04657,-53.848766,12.0,40.0,0.0,0.0,-49.99986,-50.0,146.22948,1.7E-5,0.001208,282.89807,114.19969,-0.018126,-2.450431,-1660.8431,0.0
0.0,0.0,0.0,0.0,0.0,0.0,0.0,1.21549616E8,1.21549616E8,1.21549632E8,1.21549632E8,1.2154968E8,1.21549712E8,63.991837,-22.605427,146.22948,0.104623,4.953444,180.0133,19.966242,2.35114,0.655204,2.7E-5,7.823438,331.36206,-56.533283,12.0,40.0,0.0,0.0,-49.99986,-50.0,146.22948,1.7E-5,0.001342,282.89807,115.21329,-0.018139,-2.452853,-1661.5452,0.0
0.0,0.0,0.0,0.0,0.0,0.0,0.0,1.21549616E8,1.21549616E8,1.21549632E8,1.21549632E8,1.2154968E8,1.21549712E8,63.991837,-22.605427,146.22948,0.104675,4.95344,180.0133,19.050455,2.36917,0.595922,2.8E-5,7.928572,328.6056,-59.289757,12.0,40.0,0.0,0.0,-59.99986,-60.0,146.22948,1.7E-5,0.001308,282.89807,116.36011,-0.01815,-2.455157,-1665.0443,0.0
0.0,0.0,0.0,0.0,0.0,0.0,0.0,1.21549616E8,1.21549616E8,1.21549632E8,1.21549632E8,1.2154968E8,1.21549712E8,63.991837,-22.605427,146.22948,0.104737,4.95344,180.01332,18.148699,2.387797,0.55001,2.9E-5,7.771094,325.9088,-61.98654,12.0,40.0,0.0,0.0,-59.99986,-60.0,146.22948,1.6E-5,0.001342,282.89807,117.63525,-0.018159,-2.457349,-1665.8953,0.0
0.0,0.0,0.0,0.0,0.0,0.0,0.0,1.21549616E8,1.21549616E8,1.21549632E8,1.21549632E8,1.2154968E8,1.21549712E8,63.991837,-22.605427,146.22948,0.104807,4.953445,180.01332,17.261065,2.407007,0.522408,3.0E-5,7.831142,323.2443,-64.65105,12.0,40.0,0.0,0.0,-59.99986,-60.0,146.22948,1.6E-5,0.001375,282.89807,119.03364,-0.01817,-2.459433,-1665.4807,0.0
0.0,0.0,0.0,0.0,0.0,0.0,0.0,1.21549616E8,1.21549616E8,1.21549632E8,1.21549632E8,1.2154968E8,1.21549712E8,63.991837,-22.605427,146.22949,0.104884,4.953454,180.01334,16.387644,2.426786,0.503527,3.2E-5,7.824049,320.5126,-67.382744,12.0,40.0,0.0,0.0,-59.99986,-60.0,146.22949,1.6E-5,0.001476,282.89807,120.55006,-0.018181,-2.461416,-1667.6738,0.0
0.0,0.0,0.0,0.0,0.0,0.0,0.0,1.21549616E8,1.21549616E8,1.21549632E8,1.21549632E8,1.2154968E8,1.21549712E8,63.991837,-22.605427,146.22949,0.104967,4.953465,180.01334,15.528489,2.447122,0.495883,3.3E-5,7.848043,317.7918,-70.10353,12.0,40.0,0.0,0.0,-69.999855,-70.0,146.22949,1.5E-5,0.001543,282.89807,122.17918,-0.018192,-2.463301,-1669.3286,0.0
0.0,0.0,0.0,0.0,0.0,0.0,0.0,1.21549616E8,1.21549616E8,1.21549632E8,1.21549632E8,1.2154968E8,1.21549712E8,63.991837,-22.605427,146.22949,0.105053,4.953475,180.01334,14.683629,2.468,0.500505,3.4E-5,7.853162,315.13376,-72.76159,12.0,40.0,0.0,0.0,-69.999855,-70.0,146.22949,1.5E-5,0.001543,282.89807,123.91552,-0.018205,-2.465095,-1668.4294,0.0
0.0,0.0,0.0,0.0,0.0,0.0,0.0,1.21549616E8,1.21549616E8,1.21549632E8,1.21549632E8,1.2154968E8,1.21549712E8,63.991837,-22.605427,146.22949,0.105142,4.953485,180.01335,13.853087,2.489406,0.504188,3.6E-5,7.889837,312.447,-75.448364,12.0,40.0,0.0,0.0,-69.999855,-70.0,146.22949,1.5E-5,0.00161,282.89807,125.75353,-0.018218,-2.4668,-1668.6951,0.0
0.0,0.0,0.0,0.0,0.0,0.0,0.0,1.21549616E8,1.21549616E8,1.21549632E8,1.21549632E8,1.2154968E8,1.21549712E8,63.991837,-22.605427,146.22949,0.105234,4.953492,180.01335,13.036837,2.511328,0.498643,3.6E-5,7.880816,309.74457,-78.150764,12.0,40.0,0.0,0.0,-79.999855,-80.0,146.22949,1.4E-5,0.002113,282.89807,127.68756,-0.01823,-2.468423,-1669.518,0.0
0.0,0.0,0.0,0.0,0.0,0.0,0.0,1.21549616E8,1.21549616E8,1.21549632E8,1.21549632E8,1.2154968E8,1.21549712E8,63.991837,-22.605427,146.2295,0.105328,4.953498,180.01337,12.234843,2.533752,0.515818,3.8E-5,7.918501,307.04767,-80.847664,12.0,40.0,0.0,0.0,-79.999855,-80.0,146.2295,1.4E-5,0.001711,282.89807,129.71185,-0.018244,-2.469966,-1670.0946,0.0
0.0,0.0,0.0,0.0,0.0,0.0,0.0,1.21549616E8,1.21549616E8,1.21549632E8,1.21549632E8,1.2154968E8,1.21549712E8,63.991837,-22.605427,146.2295,0.105424,4.9535,180.01337,11.447037,2.556664,0.522528,4.0E-5,7.931692,304.3472,-83.54814,12.0,40.0,0.0,0.0,-79.999855,-80.0,146.2295,1.4E-5,0.001845,282.89807,131.82063,-0.018258,-2.471434,-1670.7672,0.0
0.0,0.0,0.0,0.0,0.0,0.0,0.0,1.21549616E8,1.21549616E8,1.21549632E8,1.21549632E8,1.2154968E8,1.21549712E8,63.991837,-22.605427,146.2295,0.105522,4.9535,180.01338,10.673338,2.580052,0.529448,4.1E-5,7.942608,301.64545,-86.24989,12.0,40.0,0.0,0.0,-79.999855,-80.0,146.2295,1.4E-5,0.001879,282.89807,134.00804,-0.018273,-2.47283,-1671.4401,0.0
0.0,0.0,0.0,0.0,0.0,0.0,0.0,1.21549616E8,1.21549616E8,1.21549632E8,1.21549632E8,1.2154968E8,1.21549712E8,63.991837,-22.605427,146.2295,0.105622,4.953497,180.01338,9.913646,2.603903,0.535403,4.2E-5,7.952818,298.94324,-88.9521,12.0,40.0,0.0,0.0,-89.999855,-90.0,146.2295,1.3E-5,0.001979,282.89807,136.26817,-0.018287,-2.474158,-1672.0817,0.0
0.0,0.0,0.0,0.0,0.0,0.0,0.0,1.21549616E8,1.21549616E8,1.21549632E8,1.21549632E8,1.2154968E8,1.21549712E8,63.991837,-22.605427,146.22952,0.105723,4.95349,180.0134,9.167844,2.628204,0.541014,4.3E-5,7.962829,296.24088,-91.65448,12.0,40.0,0.0,0.0,-89.999855,-90.0,146.22952,1.3E-5,0.00208,282.89807,138.59512,-0.018302,-2.47542,-1672.6829,0.0
0.0,0.0,0.0,0.0,0.0,0.0,0.0,1.21549616E8,1.21549616E8,1.21549632E8,1.21549632E8,1.2154968E8,1.21549712E8,63.991837,-22.605427,146.22952,0.105826,4.953481,180.0134,8.513615,2.628891,0.404371,3.2E-5,7.966118,293.53842,-94.356926,12.0,40.0,0.0,0.0,-89.999855,-90.0,146.22952,1.3E-5,0.001912,282.89807,140.98296,-0.018317,-2.476622,-1673.2423,0.0
0.0,0.0,0.0,0.0,0.0,0.0,0.0,1.21549616E8,1.21549616E8,1.21549632E8,1.21549632E8,1.2154968E8,1.21549712E8,63.991837,-22.605427,146.22952,0.105934,4.953471,180.01341,7.875457,2.624725,0.278109,2.2E-5,7.966474,290.83594,-97.05941,12.0,40.0,0.0,0.0,-89.999855,-90.0,146.22952,1.3E-5,0.001342,282.89807,143.42572,-0.018333,-2.477764,-1673.7615,0.0
0.0,0.0,0.0,0.0,0.0,0.0,0.0,1.21549616E8,1.21549616E8,1.21549632E8,1.21549632E8,1.2154968E8,1.21549712E8,63.991837,-22.605427,146.22952,0.106046,4.953462,180.01343,7.235314,2.620886,0.187961,1.5E-5,7.966774,288.13342,-99.76192,12.0,40.0,0.0,0.0,-99.999855,-100.0,146.22952,1.2E-5,9.06E-4,282.89807,145.91751,-0.018348,-2.478851,-1674.2422,0.0
0.0,0.0,0.0,0.0,0.0,0.0,0.0,1.21549616E8,1.21549616E8,1.21549632E8,1.21549632E8,1.2154968E8,1.21549712E8,63.991837,-22.605427,146.22952,0.106161,4.953454,180.01343,6.593337,2.617375,0.125109,1.0E-5,7.967049,285.4309,-102.46444,12.0,40.0,0.0,0.0,-99.999855,-100.0,146.22952,1.2E-5,6.37E-4,282.89807,148.45241,-0.018365,-2.479884,-1674.6868,0.0
0.0,0.0,0.0,0.0,0.0,0.0,0.0,1.21549616E8,1.21549616E8,1.21549632E8,1.21549632E8,1.2154968E8,1.21549712E8,63.991837,-22.605427,146.22952,0.106277,4.953447,180.01344,5.949684,2.614193,0.082086,7.0E-6,7.9673,282.72836,-105.166985,12.0,40.0,0.0,0.0,-99.999855,-100.0,146.22952,1.2E-5,3.35E-4,282.89807,151.02454,-0.018382,-2.480868,-1675.0975,0.0
0.0,0.0,0.0,0.0,0.0,0.0,0.0,1.21549616E8,1.21549616E8,1.21549632E8,1.21549632E8,1.2154968E8,1.21549712E8,63.991837,-22.605427,146.22952,0.106394,4.953438,180.01344,5.304514,2.611343,0.053053,4.0E-6,7.967528,280.0258,-107.869545,12.0,40.0,0.0,0.0,-109.999855,-110.0,146.22952,1.2E-5,2.01E-4,282.89807,153.62807,-0.0184,-2.481802,-1675.4766,0.0
0.0,0.0,0.0,0.0,0.0,0.0,0.0,1.21549616E8,1.21549616E8,1.21549632E8,1.21549632E8,1.2154968E8,1.21549712E8,63.991837,-22.605427,146.22952,0.106513,4.953429,180.01346,4.657987,2.608824,0.033835,3.0E-6,7.967735,277.3232,-110.57212,12.0,40.0,0.0,0.0,-109.999855,-110.0,146.22952,1.1E-5,1.01E-4,282.89807,156.2572,-0.018418,-2.482692,-1675.8258,0.0
0.0,0.0,0.0,0.0,0.0,0.0,0.0,1.21549616E8,1.21549616E8,1.21549632E8,1.21549632E8,1.2154968E8,1.21549712E8,63.991837,-22.605427,146.22952,0.106631,4.953418,180.01347,4.010265,2.606638,0.021734,2.0E-6,7.967919,274.62064,-113.27471,12.0,40.0,0.0,0.0,-109.999855,-110.0,146.22952,1.1E-5,0.0,282.89807,158.90625,-0.018436,-2.483538,-1676.147,0.0
0.0,0.0,0.0,0.0,0.0,0.0,0.0,1.21549616E8,1.21549616E8,1.21549632E8,1.21549632E8,1.2154968E8,1.21549712E8,63.991837,-22.605427,146.22952,0.106749,4.953406,180.01347,3.361512,2.604786,0.014971,1.0E-6,7.968081,271.91803,-115.97732,12.0,40.0,0.0,0.0,-109.999855,-110.0,146.22952,1.1E-5,0.0,282.89807,161.56955,-0.018455,-2.484342,-1676.4421,0.0
0.0,0.0,0.0,0.0,0.0,0.0,0.0,1.21549616E8,1.21549616E8,1.21549632E8,1.21549632E8,1.2154968E8,1.21549712E8,63.991837,-22.605427,146.22952,0.106867,4.953391,180.01349,2.711893,2.603268,0.01211,1.0E-6,7.968222,269.2154,-118.67995,12.0,40.0,0.0,0.0,-119.999855,-120.0,146.22952,1.1E-5,-6.7E-5,282.89807,164.24156,-0.018473,-2.485107,-1676.7126,0.0
0.0,0.0,0.0,0.0,0.0,0.0,0.0,1.21549616E8,1.21549616E8,1.21549632E8,1.21549632E8,1.2154968E8,1.21549712E8,63.991837,-22.605427,146.22952,0.106984,4.953374,180.0135,2.061574,2.602085,0.012193,1.0E-6,7.96834,266.51276,-121.38258,12.0,40.0,0.0,0.0,-119.999855,-120.0,146.22952,1.0E-5,0.0,282.89807,166.9168,-0.018492,-2.485835,-1676.9602,0.0
0.0,0.0,0.0,0.0,0.0,0.0,0.0,1.21549616E8,1.21549616E8,1.21549632E8,1.21549632E8,1.2154968E8,1.21549712E8,63.991837,-22.605427,146.22952,0.107102,4.953356,180.0135,1.410723,2.601238,0.014167,1.0E-6,7.968436,263.81012,-124.085236,12.0,40.0,0.0,0.0,-119.999855,-120.0,146.22952,1.0E-5,-6.7E-5,282.89807,169.5899,-0.018512,-2.486527,-1677.1862,0.0
0.0,0.0,0.0,0.0,0.0,0.0,0.0,1.21549616E8,1.21549616E8,1.21549632E8,1.21549632E8,1.2154968E8,1.21549712E8,63.991837,-22.605427,146.22952,0.107219,4.953334,180.01352,0.759506,2.600726,0.017708,1.0E-6,7.968511,261.10742,-126.78791,12.0,40.0,0.0,0.0,-119.999855,-120.0,146.22952,1.0E-5,3.4E-5,282.89807,172.25563,-0.018531,-2.487186,-1677.392,0.0
0.0,0.0,0.0,0.0,0.0,0.0,0.0,1.21549616E8,1.21549616E8,1.21549632E8,1.21549632E8,1.2154968E8,1.21549712E8,63.991837,-22.605427,146.22952,0.107335,4.953311,180.01352,0.108093,2.60055,0.022047,2.0E-6,7.968563,258.40475,-129.4906,12.0,40.0,0.0,0.0,-129.99986,-130.0,146.22952,1.0E-5,6.7E-5,282.89807,174.90884,-0.01855,-2.487812,-1677.5787,0.0
0.0,0.0,0.0,0.0,0.0,0.0,0.0,1.21549616E8,1.21549616E8,1.21549632E8,1.21549632E8,1.2154968E8,1.21549712E8,63.991837,-22.605427,146.22952,0.107451,4.953287,180.01353,-0.54335,2.600709,0.026876,2.0E-6,7.968593,255.70204,-132.1933,12.0,40.0,0.0,0.0,-129.99986,-130.0,146.22952,1.0E-5,6.7E-5,282.89807,177.54453,-0.01857,-2.488408,-1677.7478,0.0
0.0,0.0,0.0,0.0,0.0,0.0,0.0,1.21549616E8,1.21549616E8,1.21549632E8,1.21549632E8,1.2154968E8,1.21549712E8,63.991837,-22.605427,146.22952,0.107567,4.95327,180.01355,-1.194653,2.6012,0.030677,3.0E-6,7.9686,252.99933,-134.89601,12.0,40.0,0.0,0.0,-129.99986,-130.0,146.22952,9.0E-6,-3.4E-5,282.89807,180.1578,-0.018589,-2.488974,-1677.9003,0.0
0.0,0.0,0.0,0.0,0.0,0.0,0.0,1.21549616E8,1.21549616E8,1.21549632E8,1.21549632E8,1.2154968E8,1.21549712E8,63.991837,-22.605427,146.22952,0.107682,4.953265,180.01355,-1.845649,2.602028,0.034625,3.0E-6,7.968585,250.2966,-137.59875,12.0,40.0,0.0,0.0,-139.99986,-140.0,146.22952,9.0E-6,-3.4E-5,282.89807,182.74396,-0.018609,-2.489513,-1678.037,0.0
0.0,0.0,0.0,0.0,0.0,0.0,0.0,1.21549616E8,1.21549616E8,1.21549632E8,1.21549632E8,1.2154968E8,1.21549712E8,63.991837,-22.605427,146.22952,0.107798,4.953269,180.01357,-2.49617,2.603192,0.03899,3.0E-6,7.968548,247.59384,-140.3015,12.0,40.0,0.0,0.0,-139.99986,-140.0,146.22952,9.0E-6,0.0,282.89807,185.29839,-0.018628,-2.490026,-1678.1592,0.0
0.0,0.0,0.0,0.0,0.0,0.0,0.0,1.21549616E8,1.21549616E8,1.21549632E8,1.21549632E8,1.2154968E8,1.21549712E8,63.991837,-22.605427,146.22952,0.107914,4.953279,180.01357,-3.146043,2.604692,0.044221,4.0E-6,7.928964,244.84839,-143.04695,12.0,40.0,0.0,0.0,-139.99986,-140.0,146.22952,9.0E-6,0.0,282.89807,187.81665,-0.018648,-2.490513,-1679.8915,0.0
0.0,0.0,0.0,0.0,0.0,0.0,0.0,1.21549616E8,1.21549616E8,1.21549632E8,1.21549632E8,1.2154968E8,1.21549712E8,63.991837,-22.605427,146.22952,0.108022,4.953292,180.01358,-3.74106,2.606363,0.04949,4.0E-6,7.879375,242.3473,-145.54803,12.0,40.0,0.0,0.0,-139.99986,-140.0,146.22952,9.0E-6,0.0,282.89807,190.08966,-0.018667,-2.490939,-1680.7249,0.0
0.0,0.0,0.0,0.0,0.0,0.0,0.0,1.21549616E8,1.21549616E8,1.21549632E8,1.21549632E8,1.2154968E8,1.21549712E8,63.991837,-22.605427,146.22952,0.108148,4.95331,180.0136,-4.443213,2.6087,0.057021,5.0E-6,7.93671,239.46861,-148.42674,12.0,40.0,0.0,0.0,-149.99986,-150.0,146.22952,9.0E-6,3.4E-5,282.89807,192.72783,-0.018686,-2.491418,-1678.7659,0.0
0.0,0.0,0.0,0.0,0.0,0.0,0.0,1.21549616E8,1.21549616E8,1.21549632E8,1.21549632E8,1.2154968E8,1.21549712E8,63.991837,-22.605427,146.22952,0.108265,4.953327,180.0136,-5.090158,2.611205,0.063741,5.0E-6,8.041285,236.71628,-151.17906,12.0,40.0,0.0,0.0,-149.99986,-150.0,146.22952,8.0E-6,3.4E-5,282.89807,195.11269,-0.018706,-2.491837,-1680.7733,0.0
0.0,0.0,0.0,0.0,0.0,0.0,0.0,1.21549616E8,1.21549616E8,1.21549632E8,1.21549632E8,1.2154968E8,1.21549712E8,63.991837,-22.605427,146.22952,0.108365,4.953341,180.01361,-5.62831,2.613547,0.069107,6.0E-6,7.834298,234.43951,-153.45583,12.0,40.0,0.0,0.0,-149.99986,-150.0,146.22952,8.0E-6,1.01E-4,282.89807,197.06032,-0.018726,-2.492171,-1681.5531,0.0
0.0,0.0,0.0,0.0,0.0,0.0,0.0,1.21549616E8,1.21549616E8,1.21549632E8,1.21549632E8,1.2154968E8,1.21549712E8,63.991837,-22.605427,146.22952,0.108504,4.95336,180.01361,-6.380015,2.617212,0.077312,7.0E-6,7.915389,231.2285,-156.66685,12.0,40.0,0.0,0.0,-149.99986,-150.0,146.22952,8.0E-6,1.01E-4,282.89807,199.7221,-0.018745,-2.492615,-1683.5468,0.0
0.0,0.0,0.0,0.0,0.0,0.0,0.0,1.21549616E8,1.21549616E8,1.21549632E8,1.21549632E8,1.2154968E8,1.21549712E8,63.991837,-22.605427,146.22952,0.108603,4.953372,180.01363,-6.915628,2.620105,0.083505,7.0E-6,7.853626,229.01161,-158.88373,12.0,40.0,0.0,0.0,-159.99986,-160.0,146.22952,8.0E-6,2.01E-4,282.89807,201.57434,-0.018766,-2.492917,-1681.9438,0.0
0.0,0.0,0.0,0.0,0.0,0.0,0.0,1.21549616E8,1.21549616E8,1.21549632E8,1.21549632E8,1.2154968E8,1.21549712E8,63.991837,-22.605427,146.22952,0.108743,4.953387,180.01364,-7.663417,2.62454,0.091667,8.0E-6,7.95114,225.85207,-162.04329,12.0,40.0,0.0,0.0,-159.99986,-160.0,146.22952,8.0E-6,1.68E-4,282.89807,204.09482,-0.018786,-2.49332,-1681.965,0.0
0.0,0.0,0.0,0.0,0.0,0.0,0.0,1.21549616E8,1.21549616E8,1.21549632E8,1.21549632E8,1.2154968E8,1.21549712E8,63.991837,-22.605427,146.22952,0.108864,4.953398,180.01364,-8.302319,2.628696,0.099646,9.0E-6,7.847422,223.19627,-164.69907,12.0,40.0,0.0,0.0,-159.99986,-160.0,146.22952,8.0E-6,2.35E-4,282.89807,206.18446,-0.018807,-2.493646,-1679.9008,0.0
0.0,0.0,0.0,0.0,0.0,0.0,0.0,1.21549616E8,1.21549616E8,1.21549632E8,1.21549632E8,1.2154968E8,1.21549712E8,63.991837,-22.605427,146.22952,0.108984,4.953406,180.01366,-8.939137,2.633178,0.107369,9.0E-6,7.922205,220.5401,-167.35526,12.0,40.0,0.0,0.0,-159.99986,-160.0,146.22952,7.0E-6,2.01E-4,282.89807,208.20581,-0.018827,-2.493957,-1678.0424,0.0
0.0,0.0,0.0,0.0,0.0,0.0,0.0,1.21549616E8,1.21549616E8,1.21549632E8,1.21549632E8,1.2154968E8,1.21549712E8,63.991837,-22.605427,146.22952,0.109107,4.953413,180.01367,-9.573729,2.637984,0.113468,1.0E-5,7.864614,217.78079,-170.11456,12.0,40.0,0.0,0.0,-169.99986,-170.0,146.22952,7.0E-6,3.69E-4,282.89807,210.15619,-0.018848,-2.494252,-1680.1787,0.0
0.0,0.0,0.0,0.0,0.0,0.0,0.0,1.21549616E8,1.21549616E8,1.21549632E8,1.21549632E8,1.2154968E8,1.21549712E8,63.991837,-22.605427,146.22952,0.10923,4.953417,180.01367,-10.205962,2.643113,0.119556,1.1E-5,7.860752,215.04416,-172.8512,12.0,40.0,0.0,0.0,-169.99986,-170.0,146.22952,7.0E-6,4.36E-4,282.89807,212.03313,-0.018867,-2.494533,-1681.3514,0.0
0.0,0.0,0.0,0.0,0.0,0.0,0.0,1.21549616E8,1.21549616E8,1.21549632E8,1.21549632E8,1.2154968E8,1.21549712E8,63.991837,-22.605427,146.22954,0.109354,4.953419,180.01369,-10.835704,2.648563,0.126856,1.1E-5,7.855036,212.37332,-175.52202,12.0,40.0,0.0,0.0,-169.99986,-170.0,146.22954,7.0E-6,4.7E-4,282.89807,213.8344,-0.018889,-2.4948,-1679.9257,0.0
0.0,0.0,0.0,0.0,0.0,0.0,0.0,1.21549616E8,1.21549616E8,1.21549632E8,1.21549632E8,1.2154968E8,1.21549712E8,63.991837,-22.605427,146.22954,0.109479,4.953418,180.0137,-11.462791,2.654331,0.132166,1.2E-5,7.950819,209.62802,-178.26732,12.0,40.0,0.0,0.0,-179.99986,-180.0,146.22954,7.0E-6,4.36E-4,282.89807,215.55789,-0.018909,-2.495054,-1681.4727,0.0
0.0,0.0,0.0,0.0,0.0,0.0,0.0,1.21549616E8,1.21549616E8,1.21549632E8,1.21549632E8,1.2154968E8,1.21549712E8,63.991837,-22.605427,146.22954,0.109594,4.953415,180.0137,-12.035213,2.659898,0.138163,1.2E-5,7.86952,207.21075,-180.6846,12.0,40.0,0.0,0.0,-179.99986,-180.0,146.22954,7.0E-6,5.7E-4,282.89807,217.06787,-0.01893,-2.495276,-1678.9565,0.0
0.0,0.0,0.0,0.0,0.0,0.0,0.0,1.21549616E8,1.21549616E8,1.21549632E8,1.21549632E8,1.2154968E8,1.21549712E8,63.991837,-22.605427,146.22954,0.109731,4.95341,180.01372,-12.708561,2.666817,0.145193,1.3E-5,7.928973,204.333,-183.56235,12.0,40.0,0.0,0.0,-179.99986,-180.0,146.22954,7.0E-6,5.37E-4,282.89807,218.76434,-0.018948,-2.495526,-1676.9762,0.0
0.0,0.0,0.0,0.0,0.0,0.0,0.0,1.21549616E8,1.21549616E8,1.21549632E8,1.21549632E8,1.2154968E8,1.21549712E8,63.991837,-22.605427,146.22954,0.109837,4.953404,180.01372,-13.224098,2.672393,0.150126,1.4E-5,7.946518,202.03822,-185.85713,12.0,40.0,0.0,0.0,-179.99986,-180.0,146.22954,6.0E-6,6.04E-4,282.89807,220.0033,-0.018969,-2.495709,-1678.685,0.0
0.0,0.0,0.0,0.0,0.0,0.0,0.0,1.21549616E8,1.21549616E8,1.21549632E8,1.21549632E8,1.2154968E8,1.21549712E8,63.991837,-22.605427,146.22954,0.109988,4.953393,180.01373,-13.942212,2.680563,0.157544,1.5E-5,7.892701,198.89948,-188.99588,12.0,40.0,0.0,0.0,-189.99986,-190.0,146.22954,6.0E-6,6.04E-4,282.89807,221.63982,-0.01899,-2.495952,-1678.0046,0.0
0.0,0.0,0.0,0.0,0.0,0.0,0.0,1.21549616E8,1.21549616E8,1.21549632E8,1.21549632E8,1.2154968E8,1.21549712E8,63.991837,-22.605427,146.22954,0.110118,4.953381,180.01375,-14.554188,2.687899,0.160579,1.5E-5,7.982469,196.12059,-191.77475,12.0,40.0,0.0,0.0,-189.99986,-190.0,146.22954,6.0E-6,6.71E-4,282.89807,222.95033,-0.019012,-2.49615,-1680.9598,0.0
0.0,0.0,0.0,0.0,0.0,0.0,0.0,1.21549616E8,1.21549616E8,1.21549632E8,1.21549632E8,1.2154968E8,1.21549712E8,63.991837,-22.605427,146.22954,0.110251,4.953366,180.01376,-15.162819,2.69554,0.167347,1.6E-5,7.851402,193.45131,-194.44405,12.0,40.0,0.0,0.0,-189.99986,-190.0,146.22954,6.0E-6,6.71E-4,282.89807,224.17476,-0.019035,-2.496338,-1679.4518,0.0
0.0,0.0,0.0,0.0,0.0,0.0,0.0,1.21549616E8,1.21549616E8,1.21549632E8,1.21549632E8,1.2154968E8,1.21549712E8,63.991837,-22.605427,146.22954,0.110383,4.953349,180.01376,-15.767951,2.703484,0.172275,1.7E-5,7.903469,190.752,-197.14336,12.0,40.0,0.0,0.0,-189.99986,-190.0,146.22954,6.0E-6,7.04E-4,282.89807,225.31238,-0.019056,-2.496517,-1679.2195,0.0
0.0,0.0,0.0,0.0,0.0,0.0,0.0,1.21549616E8,1.21549616E8,1.21549632E8,1.21549632E8,1.2154968E8,1.21549712E8,63.991837,-22.605427,146.22954,0.110518,4.953329,180.01378,-16.369493,2.711729,0.176352,1.7E-5,7.857584,188.01436,-199.881,12.0,40.0,0.0,0.0,-199.99986,-200.0,146.22954,6.0E-6,8.39E-4,282.89807,226.36267,-0.019076,-2.496687,-1680.4246,0.0
0.0,0.0,0.0,0.0,0.0,0.0,0.0,1.21549616E8,1.21549616E8,1.21549632E8,1.21549632E8,1.2154968E8,1.21549712E8,63.991837,-22.605427,146.22954,0.110631,4.953311,180.0138,-16.86797,2.718826,0.18015,1.8E-5,7.962381,185.76813,-202.12723,12.0,40.0,0.0,0.0,-199.99986,-200.0,146.22954,6.0E-6,8.05E-4,282.89807,227.17093,-0.019098,-2.496823,-1680.0668,0.0
0.0,0.0,0.0,0.0,0.0,0.0,0.0,1.21549616E8,1.21549616E8,1.21549632E8,1.21549632E8,1.2154968E8,1.21549712E8,63.991837,-22.605427,146.22954,0.110791,4.953283,180.0138,-17.561434,2.729107,0.185599,1.9E-5,7.855667,182.61484,-205.2805,12.0,40.0,0.0,0.0,-199.99986,-200.0,146.22954,6.0E-6,9.39E-4,282.89807,228.2,-0.019119,-2.497003,-1679.8185,0.0
0.0,0.0,0.0,0.0,0.0,0.0,0.0,1.21549616E8,1.21549616E8,1.21549632E8,1.21549632E8,1.2154968E8,1.21549712E8,63.991837,-22.605427,146.22955,0.110929,4.953256,180.01381,-18.151646,2.738235,0.190827,1.9E-5,7.84546,179.94598,-207.94936,12.0,40.0,0.0,0.0,-209.99986,-210.0,146.22955,6.0E-6,9.06E-4,282.89807,228.9869,-0.019142,-2.49715,-1678.3043,0.0
0.0,0.0,0.0,0.0,0.0,0.0,0.0,1.21549616E8,1.21549616E8,1.21549632E8,1.21549632E8,1.2154968E8,1.21549712E8,63.991837,-22.605427,146.22955,0.111045,4.953232,180.01382,-18.640455,2.746063,0.193338,2.0E-5,7.898351,177.68553,-210.20981,12.0,40.0,0.0,0.0,-209.99986,-210.0,146.22955,5.0E-6,0.001006,282.89807,229.57565,-0.019165,-2.497266,-1678.5579,0.0
0.0,0.0,0.0,0.0,0.0,0.0,0.0,1.21549616E8,1.21549616E8,1.21549632E8,1.21549632E8,1.2154968E8,1.21549712E8,63.991837,-22.605427,146.22955,0.11121,4.953195,180.01384,-19.320086,2.757355,0.197444,2.1E-5,7.867646,174.5133,-213.38205,12.0,40.0,0.0,0.0,-209.99986,-210.0,146.22955,5.0E-6,0.00104,282.89807,230.29803,-0.019187,-2.497422,-1679.1216,0.0
0.0,0.0,0.0,0.0,0.0,0.0,0.0,1.21549616E8,1.21549616E8,1.21549632E8,1.21549632E8,1.2154968E8,1.21549712E8,63.991837,-22.605427,146.22955,0.111353,4.953161,180.01384,-19.898178,2.767342,0.202448,2.1E-5,7.848537,171.83925,-216.05609,12.0,40.0,0.0,0.0,-209.99986,-210.0,146.22955,5.0E-6,0.001006,282.89807,230.82315,-0.01921,-2.497548,-1677.8307,0.0
0.0,0.0,0.0,0.0,0.0,0.0,0.0,1.21549616E8,1.21549616E8,1.21549632E8,1.21549632E8,1.2154968E8,1.21549712E8,63.991837,-22.605427,146.22955,0.111495,4.953125,180.01385,-20.472126,2.777608,0.213211,2.2E-5,7.827053,169.10933,-218.78601,12.0,40.0,0.0,0.0,-219.99986,-220.0,146.22955,5.0E-6,0.001073,282.89807,231.26216,-0.019235,-2.497667,-1678.7252,0.0
0.0,0.0,0.0,0.0,0.0,0.0,0.0,1.21549616E8,1.21549616E8,1.21549632E8,1.21549632E8,1.2154968E8,1.21549712E8,63.991837,-22.605427,146.22955,0.11163,4.953092,180.01387,-21.041851,2.788151,0.229776,2.2E-5,7.889458,166.41875,-221.47661,12.0,40.0,0.0,0.0,-219.99986,-220.0,146.22955,5.0E-6,0.001107,282.89807,231.6159,-0.01926,-2.497781,-1678.1414,0.0
0.0,0.0,0.0,0.0,0.0,0.0,0.0,1.21549616E8,1.21549616E8,1.21549632E8,1.21549632E8,1.2154968E8,1.21549712E8,63.991837,-22.605427,146.22955,0.111758,4.953063,180.01387,-21.607231,2.798967,0.243521,2.3E-5,7.9407,163.67441,-224.22093,12.0,40.0,0.0,0.0,-219.99986,-220.0,146.22955,5.0E-6,0.001073,282.89807,231.88535,-0.019284,-2.49789,-1679.6493,0.0
0.0,0.0,0.0,0.0,0.0,0.0,0.0,1.21549616E8,1.21549616E8,1.21549632E8,1.21549632E8,1.2154968E8,1.21549712E8,63.991837,-22.605427,146.22955,0.111882,4.953036,180.01389,-22.168222,2.810054,0.257927,2.3E-5,7.871288,161.00223,-226.89311,12.0,40.0,0.0,0.0,-219.99986,-220.0,146.22955,5.0E-6,0.001174,282.89807,232.07166,-0.019308,-2.497993,-1678.284,0.0
0.0,0.0,0.0,0.0,0.0,0.0,0.0,1.21549616E8,1.21549616E8,1.21549632E8,1.21549632E8,1.2154968E8,1.21549712E8,63.991837,-22.605427,146.22957,0.112003,4.953012,180.0139,-22.724754,2.821409,0.268759,2.4E-5,7.809348,158.28786,-229.60748,12.0,40.0,0.0,0.0,-229.99986,-230.0,146.22957,5.0E-6,0.001141,282.89807,232.17609,-0.019332,-2.498091,-1678.5231,0.0
0.0,0.0,0.0,0.0,0.0,0.0,0.0,1.21549616E8,1.21549616E8,1.21549632E8,1.21549632E8,1.2154968E8,1.21549712E8,63.991837,-22.605427,146.22957,0.112122,4.952991,180.0139,-23.276783,2.833029,0.277488,2.4E-5,7.881121,155.6027,-232.29265,12.0,40.0,0.0,0.0,-229.99986,-230.0,146.22957,5.0E-6,0.001141,282.89807,232.20007,-0.019355,-2.498184,-1677.7152,0.0
0.0,0.0,0.0,0.0,0.0,0.0,0.0,1.21549616E8,1.21549616E8,1.21549632E8,1.21549632E8,1.2154968E8,1.21549712E8,63.991837,-22.605427,146.22957,0.11224,4.95297,180.01392,-23.824274,2.84491,0.287265,2.5E-5,7.899022,152.95659,-234.93875,12.0,40.0,0.0,0.0,-229.99986,-230.0,146.22957,5.0E-6,0.001174,282.89807,232.14516,-0.019377,-2.498273,-1675.4335,0.0
0.0,0.0,0.0,0.0,0.0,0.0,0.0,1.21549616E8,1.21549616E8,1.21549632E8,1.21549632E8,1.2154968E8,1.21549712E8,63.991837,-22.605427,146.22957,0.112338,4.952953,180.01392,-24.277008,2.855008,0.292425,2.5E-5,7.929786,150.72188,-237.17346,12.0,40.0,0.0,0.0,-229.99986,-230.0,146.22957,4.0E-6,0.001208,282.89807,232.04031,-0.019399,-2.498344,-1674.7853,0.0
0.0,0.0,0.0,0.0,0.0,0.0,0.0,1.21549616E8,1.21549616E8,1.21549632E8,1.21549632E8,1.2154968E8,1.21549712E8,63.991837,-22.605427,146.22957,0.112476,4.952929,180.01393,-24.905447,2.869443,0.291379,2.6E-5,7.919624,147.57549,-240.31987,12.0,40.0,0.0,0.0,-239.99986,-240.0,146.22957,4.0E-6,0.001577,282.89807,231.80542,-0.019419,-2.498438,-1674.574,0.0
0.0,0.0,0.0,0.0,0.0,0.0,0.0,1.21549616E8,1.21549616E8,1.21549632E8,1.21549632E8,1.2154968E8,1.21549712E8,63.991837,-22.605427,146.22957,0.112596,4.952909,180.01395,-25.439058,2.882047,0.302084,2.7E-5,7.276174,145.04767,-242.84767,12.0,40.0,0.0,0.0,-239.99986,-240.0,146.22957,4.0E-6,0.001241,282.89807,231.5243,-0.01944,-2.498514,-1667.6812,0.0
0.0,0.0,0.0,0.0,0.0,0.0,0.0,1.21549616E8,1.21549616E8,1.21549632E8,1.21549632E8,1.2154968E8,1.21549712E8,63.991837,-22.605427,146.22957,0.112717,4.952888,180.01395,-25.967989,2.894797,0.305172,2.8E-5,4.860239,143.90968,-243.98566,12.0,40.0,0.0,0.0,-239.99986,-240.0,146.22957,4.0E-6,0.001275,282.89807,231.17168,-0.019462,-2.498587,-1605.7134,0.0
0.0,0.0,0.0,0.0,0.0,0.0,0.0,1.21549616E8,1.21549616E8,1.21549632E8,1.21549632E8,1.2154968E8,1.21549712E8,63.991837,-22.605427,146.22958,0.112839,4.952867,180.01396,-26.492203,2.907791,0.308095,2.8E-5,3.548299,143.50337,-244.39197,12.0,40.0,0.0,0.0,-239.99986,-240.0,146.22958,4.0E-6,0.001308,282.89807,230.74965,-0.019484,-2.498656,-1514.618,0.0
0.0,0.0,0.0,0.0,0.0,0.0,0.0,1.21549616E8,1.21549616E8,1.21549632E8,1.21549632E8,1.2154968E8,1.21549712E8,63.991837,-22.605427,146.22958,0.112963,4.952845,180.01398,-27.01168,2.921026,0.310673,2.9E-5,2.946655,143.35461,-244.54073,12.0,40.0,0.0,0.0,-239.99986,-240.0,146.22958,4.0E-6,0.001342,282.89807,230.26045,-0.019505,-2.498721,-1412.8612,0.0
0.0,0.0,0.0,0.0,0.0,0.0,0.0,1.21549616E8,1.21549616E8,1.21549632E8,1.21549632E8,1.2154968E8,1.21549712E8,63.991837,-22.605427,146.22958,0.113088,4.952822,180.01398,-27.526398,2.934498,0.313111,2.9E-5,2.700297,143.2965,-244.59885,12.0,40.0,0.0,0.0,-239.99986,-240.0,146.22958,4.0E-6,0.001476,282.89807,229.70634,-0.019527,-2.498784,-1307.1232,0.0
0.0,0.0,0.0,0.0,0.0,0.0,0.0,1.21549616E8,1.21549616E8,1.21549632E8,1.21549632E8,1.2154968E8,1.21549712E8,63.991837,-22.605427,146.22958,0.113216,4.952799,180.01399,-28.036343,2.948203,0.315261,3.0E-5,2.605736,143.27028,-244.62506,12.0,40.0,0.0,0.0,-239.99986,-240.0,146.22958,4.0E-6,0.001442,282.89807,229.08977,-0.019549,-2.498843,-1199.8812,0.0
0.0,0.0,0.0,0.0,0.0,0.0,0.0,1.21549616E8,1.21549616E8,1.21549632E8,1.21549632E8,1.2154968E8,1.21549712E8,63.991837,-22.605427,146.22958,0.113345,4.952775,180.014,-28.541498,2.962139,0.317282,3.1E-5,2.569455,143.25528,-244.64008,12.0,40.0,0.0,0.0,-239.99986,-240.0,146.22958,4.0E-6,0.00151,282.89807,228.41313,-0.01957,-2.4989,-1092.0664,0.0
0.0,0.0,0.0,0.0,0.0,0.0,0.0,1.21549616E8,1.21549616E8,1.21549632E8,1.21549632E8,1.2154968E8,1.21549712E8,63.991837,-22.605427,146.2296,0.113476,4.95275,180.014,-29.041855,2.976303,0.319112,3.1E-5,2.554378,143.24422,-244.65114,12.0,40.0,0.0,0.0,-239.99986,-240.0,146.2296,4.0E-6,0.001476,282.89807,227.679,-0.019592,-2.498954,-984.03284,0.0
0.0,0.0,0.0,0.0,0.0,0.0,0.0,1.21549616E8,1.21549616E8,1.21549632E8,1.21549632E8,1.2154968E8,1.21549712E8,63.991837,-22.605427,146.2296,0.113609,4.952725,180.01402,-29.537407,2.99069,0.320724,3.2E-5,2.546821,143.23453,-244.66081,12.0,40.0,0.0,0.0,-239.99986,-240.0,146.2296,4.0E-6,0.001577,282.89807,226.88995,-0.019614,-2.499005,-875.91797,0.0
0.0,0.0,0.0,0.0,0.0,0.0,0.0,1.21549616E8,1.21549616E8,1.21549632E8,1.21549632E8,1.2154968E8,1.21549712E8,63.991837,-22.605427,146.2296,0.113744,4.952698,180.01404,-29.962664,3.003317,0.313145,3.1E-5,2.541913,143.22534,-244.67001,12.0,40.0,0.0,0.0,-239.99986,-240.0,146.2296,4.0E-6,0.00161,282.89807,226.04866,-0.019636,-2.499053,-767.7763,0.0
0.0,0.0,0.0,0.0,0.0,0.0,0.0,1.21549616E8,1.21549616E8,1.21549632E8,1.21549632E8,1.2154968E8,1.21549712E8,63.991837,-22.605427,146.2296,0.113858,4.952675,180.01404,-29.962847,3.003242,0.29044,2.4E-5,2.539279,143.21735,-244.67801,12.0,40.0,0.0,0.0,-239.99986,-240.0,146.2296,3.0E-6,0.001375,282.89807,225.23386,-0.019664,-2.499096,-668.619,0.0
0.0,0.0,0.0,0.0,0.0,0.0,0.0,1.21549616E8,1.21549616E8,1.21549632E8,1.21549632E8,1.2154968E8,1.21549712E8,63.991837,-22.605427,146.2296,0.113954,4.952653,180.01405,-29.96307,3.003161,0.290124,1.7E-5,2.538296,143.209,-244.68636,12.0,40.0,0.0,0.0,-239.99986,-240.0,146.2296,3.0E-6,9.73E-4,282.89807,224.3,-0.019692,-2.49914,-560.42224,0.0
