aileron,elevator,rudder,flaps,slats,speedbrake,throttle,engine-pump0,engine-pump1,electric-pump0,electric-pump1,external-power,APU-generator,latitude-deg,longitude-deg,altitude-ft,roll-deg,pitch-deg,heading-deg,side-slip-deg,airspeed-kt,glideslope,vertical-speed-fps,airspeed-indicator_indicated-speed-kt,altimeter_indicated-altitude-ft,altimeter_pressure-alt-ft,attitude-indicator_indicated-pitch-deg,attitude-indicator_indicated-roll-deg,attitude-indicator_internal-pitch-deg,attitude-indicator_internal-roll-deg,encoder_indicated-altitude-ft,encoder_pressure-alt-ft,gps_indicated-altitude-ft,gps_indicated-ground-speed-kt,gps_indicated-vertical-speed,indicated-heading-deg,magnetic-compass_indicated-heading-deg,slip-skid-ball_indicated-slip-skid,turn-indicator_indicated-turn-rate,vertical-speed-indicator_indicated-speed-fpm,engine_rpm
0.0,0.0,0.0,0.0,0.0,0.0,1.0,9.3270832E7,9.3270832E7,9.3270848E7,9.3270848E7,9.3270896E7,9.3270928E7,63.985043,-22.592484,-9999.0,0.0,0.424,270.02136,0.0,0.0,0.0,0.0,0.0,0.0,0.0,0.0,0.0,0.0,0.0,0.0,0.0,0.0,0.0,0.0,0.0,0.0,0.0,0.0,0.0,0.0
0.0,0.0,0.0,0.0,0.0,0.0,1.0,9.3270832E7,9.3270832E7,9.3270848E7,9.3270848E7,9.3270896E7,9.3270928E7,63.985043,-22.592484,-9999.0,0.0,0.424,270.02136,0.0,0.0,0.0,0.0,0.0,389.08878,1.193444,12.0,40.0,0.0,0.0,0.0,0.0,0.0,0.0,0.0,282.89813,0.0,0.0,0.0,0.0,0.0
0.0,0.0,0.0,0.0,0.0,0.0,1.0,9.3270832E7,9.3270832E7,9.3270848E7,9.3270848E7,9.3270896E7,9.3270928E7,63.991837,-22.605425,-9999.0,0.0,0.424,180.01839,0.0,0.0,0.0,0.0,0.0,389.08878,1.193444,12.0,40.0,0.0,0.0,0.0,0.0,0.0,0.0,0.0,282.89813,0.0,0.0,0.0,0.0,0.0
0.0,0.0,0.0,0.0,0.0,0.0,1.0,9.3270832E7,9.3270832E7,9.3270848E7,9.3270848E7,9.3270896E7,9.3270928E7,63.991837,-22.605425,-9999.0,0.0,0.424,180.01839,0.0,0.0,0.0,0.0,0.0,389.08878,1.193444,12.0,40.0,0.0,0.0,0.0,0.0,0.0,0.0,0.0,282.89813,0.0,0.0,0.0,0.0,0.0
0.0,0.0,0.0,0.0,0.0,0.0,1.0,9.3270832E7,9.3270832E7,9.3270848E7,9.3270848E7,9.3270896E7,9.3270928E7,63.991837,-22.605425,-9999.0,0.0,0.424,180.01839,0.0,0.0,0.0,0.0,0.0,389.08878,1.193444,12.0,40.0,0.0,0.0,0.0,0.0,0.0,0.0,0.0,282.89813,0.0,0.0,0.0,0.0,0.0
0.0,0.0,0.0,0.0,0.0,0.0,1.0,9.3270832E7,9.3270832E7,9.3270848E7,9.3270848E7,9.3270896E7,9.3270928E7,63.991837,-22.605425,-9999.0,0.0,0.424,180.01839,0.0,0.0,0.0,0.0,0.0,389.08878,1.193444,12.0,40.0,0.0,0.0,0.0,0.0,0.0,0.0,0.0,282.89813,0.0,0.0,0.0,0.0,0.0
0.0,0.0,0.0,0.0,0.0,0.0,1.0,9.3270832E7,9.3270832E7,9.3270848E7,9.3270848E7,9.3270896E7,9.3270928E7,63.991837,-22.605425,-9999.0,0.0,0.424,180.01839,0.0,0.0,0.0,0.0,0.0,389.08878,1.193444,12.0,40.0,0.0,0.0,0.0,0.0,0.0,0.0,0.0,282.89813,0.0,0.0,0.0,0.0,0.0
0.0,0.0,0.0,0.0,0.0,0.0,1.0,9.3270832E7,9.3270832E7,9.3270848E7,9.3270848E7,9.3270896E7,9.3270928E7,63.991837,-22.605425,-9999.0,0.0,0.424,180.01839,0.0,0.0,0.0,0.0,0.0,389.08878,1.193444,12.0,40.0,0.0,0.0,0.0,0.0,0.0,0.0,0.0,282.89813,0.0,0.0,0.0,0.0,0.0
0.0,0.0,0.0,0.0,0.0,0.0,1.0,9.3270832E7,9.3270832E7,9.3270848E7,9.3270848E7,9.3270896E7,9.3270928E7,63.991837,-22.605425,-9999.0,0.0,0.424,180.01839,0.0,0.0,0.0,0.0,0.0,389.08878,1.193444,12.0,40.0,0.0,0.0,0.0,0.0,0.0,0.0,0.0,282.89813,0.0,0.0,0.0,0.0,0.0
0.0,0.0,0.0,0.0,0.0,0.0,1.0,9.3270832E7,9.3270832E7,9.3270848E7,9.3270848E7,9.3270896E7,9.3270928E7,63.991837,-22.605425,-9999.0,0.0,0.424,180.01839,0.0,0.0,0.0,0.0,0.0,389.08878,1.193444,12.0,40.0,0.0,0.0,0.0,0.0,0.0,0.0,0.0,282.89813,0.0,0.0,0.0,0.0,0.0
0.0,0.0,0.0,0.0,0.0,0.0,1.0,9.3270832E7,9.3270832E7,9.3270848E7,9.3270848E7,9.3270896E7,9.3270928E7,63.991837,-22.605425,-9999.0,0.0,0.424,180.01839,0.0,0.0,0.0,0.0,0.0,389.08878,1.193444,12.0,40.0,0.0,0.0,0.0,0.0,0.0,0.0,0.0,282.89813,0.0,0.0,0.0,0.0,0.0
0.0,0.0,0.0,0.0,0.0,0.0,1.0,9.3270832E7,9.3270832E7,9.3270848E7,9.3270848E7,9.3270896E7,9.3270928E7,63.991837,-22.605425,-9999.0,0.0,0.424,180.01839,0.0,0.0,0.0,0.0,0.0,389.08878,1.193444,12.0,40.0,0.0,0.0,0.0,0.0,0.0,0.0,0.0,282.89813,0.0,0.0,0.0,0.0,0.0
0.0,0.0,0.0,0.0,0.0,0.0,1.0,9.3270832E7,9.3270832E7,9.3270848E7,9.3270848E7,9.3270896E7,9.3270928E7,63.991837,-22.605425,-9999.0,0.0,0.424,180.01839,0.0,0.0,0.0,0.0,0.0,389.08878,1.193444,12.0,40.0,0.0,0.0,0.0,0.0,0.0,0.0,0.0,282.89813,0.0,0.0,0.0,0.0,0.0
0.0,0.0,0.0,0.0,0.0,0.0,1.0,9.3270832E7,9.3270832E7,9.3270848E7,9.3270848E7,9.3270896E7,9.3270928E7,63.991837,-22.605425,-9999.0,0.0,0.424,180.01839,0.0,0.0,0.0,0.0,0.0,389.08878,1.193444,12.0,40.0,0.0,0.0,0.0,0.0,0.0,0.0,0.0,282.89813,0.0,0.0,0.0,0.0,0.0
0.0,0.0,0.0,0.0,0.0,0.0,1.0,9.3270832E7,9.3270832E7,9.3270848E7,9.3270848E7,9.3270896E7,9.3270928E7,63.991837,-22.605425,-9999.0,0.0,0.424,180.01839,0.0,0.0,0.0,0.0,0.0,389.08878,1.193444,12.0,40.0,0.0,0.0,0.0,0.0,0.0,0.0,0.0,282.89813,0.0,0.0,0.0,0.0,0.0
0.0,0.0,0.0,0.0,0.0,0.0,1.0,9.3270832E7,9.3270832E7,9.3270848E7,9.3270848E7,9.3270896E7,9.3270928E7,63.991837,-22.605425,-9999.0,0.0,0.424,180.01839,0.0,0.0,0.0,0.0,0.0,389.08878,1.193444,12.0,40.0,0.0,0.0,0.0,0.0,0.0,0.0,0.0,282.89813,0.0,0.0,0.0,0.0,0.0
0.0,0.0,0.0,0.0,0.0,0.0,1.0,9.3270832E7,9.3270832E7,9.3270848E7,9.3270848E7,9.3270896E7,9.3270928E7,63.991837,-22.605425,-9999.0,0.0,0.424,180.01839,0.0,0.0,0.0,0.0,0.0,389.08878,1.193444,12.0,40.0,0.0,0.0,0.0,0.0,0.0,0.0,0.0,282.89813,0.0,0.0,0.0,0.0,0.0
0.0,0.0,0.0,0.0,0.0,0.0,1.0,9.3270832E7,9.3270832E7,9.3270848E7,9.3270848E7,9.3270896E7,9.3270928E7,63.991837,-22.605425,-9999.0,0.0,0.424,180.01839,0.0,0.0,0.0,0.0,0.0,389.08878,1.193444,12.0,40.0,0.0,0.0,0.0,0.0,0.0,0.0,0.0,282.89813,0.0,0.0,0.0,0.0,0.0
0.0,0.0,0.0,0.0,0.0,0.0,1.0,9.3270832E7,9.3270832E7,9.3270848E7,9.3270848E7,9.3270896E7,9.3270928E7,63.991837,-22.605425,-9999.0,0.0,0.424,180.01839,0.0,0.0,0.0,0.0,0.0,389.08878,1.193444,12.0,40.0,0.0,0.0,0.0,0.0,0.0,0.0,0.0,282.89813,0.0,0.0,0.0,0.0,0.0
0.0,0.0,0.0,0.0,0.0,0.0,1.0,9.3270832E7,9.3270832E7,9.3270848E7,9.3270848E7,9.3270896E7,9.3270928E7,63.991837,-22.605425,-9999.0,0.0,0.424,180.01839,0.0,0.0,0.0,0.0,0.0,389.08878,1.193444,12.0,40.0,0.0,0.0,0.0,0.0,0.0,0.0,0.0,282.89813,0.0,0.0,0.0,0.0,0.0
0.0,0.0,0.0,0.0,0.0,0.0,1.0,9.3270832E7,9.3270832E7,9.3270848E7,9.3270848E7,9.3270896E7,9.3270928E7,63.991837,-22.605425,-9999.0,0.0,0.424,180.01839,0.0,0.0,0.0,0.0,0.0,389.08878,1.193444,12.0,40.0,0.0,0.0,0.0,0.0,0.0,0.0,0.0,282.89813,0.0,0.0,0.0,0.0,0.0
0.0,0.0,0.0,0.0,0.0,0.0,1.0,9.3270832E7,9.3270832E7,9.3270848E7,9.3270848E7,9.3270896E7,9.3270928E7,63.991837,-22.605425,-9999.0,0.0,0.424,180.01839,0.0,0.0,0.0,0.0,0.0,389.08878,1.193444,12.0,40.0,0.0,0.0,0.0,0.0,0.0,0.0,0.0,282.89813,0.0,0.0,0.0,0.0,0.0
0.0,0.0,0.0,0.0,0.0,0.0,1.0,9.3270832E7,9.3270832E7,9.3270848E7,9.3270848E7,9.3270896E7,9.3270928E7,63.991837,-22.605425,-9999.0,0.0,0.424,180.01839,0.0,0.0,0.0,0.0,0.0,389.08878,1.193444,12.0,40.0,0.0,0.0,0.0,0.0,0.0,0.0,0.0,282.89813,0.0,0.0,0.0,0.0,0.0
0.0,0.0,0.0,0.0,0.0,0.0,1.0,9.3270832E7,9.3270832E7,9.3270848E7,9.3270848E7,9.3270896E7,9.3270928E7,63.991837,-22.605425,-9999.0,0.0,0.424,180.01839,0.0,0.0,0.0,0.0,0.0,389.08878,1.193444,12.0,40.0,0.0,0.0,0.0,0.0,0.0,0.0,0.0,282.89813,0.0,0.0,0.0,0.0,0.0
0.0,0.0,0.0,0.0,0.0,0.0,1.0,9.3270832E7,9.3270832E7,9.3270848E7,9.3270848E7,9.3270896E7,9.3270928E7,63.991837,-22.605425,-9999.0,0.0,0.424,180.01839,0.0,0.0,0.0,0.0,0.0,389.08878,1.193444,12.0,40.0,0.0,0.0,0.0,0.0,0.0,0.0,0.0,282.89813,0.0,0.0,0.0,0.0,0.0
0.0,0.0,0.0,0.0,0.0,0.0,1.0,9.3270832E7,9.3270832E7,9.3270848E7,9.3270848E7,9.3270896E7,9.3270928E7,63.991837,-22.605425,-9999.0,0.0,0.424,180.01839,0.0,0.0,0.0,0.0,0.0,389.08878,1.193444,12.0,40.0,0.0,0.0,0.0,0.0,0.0,0.0,0.0,282.89813,0.0,0.0,0.0,0.0,0.0
0.0,0.0,0.0,0.0,0.0,0.0,1.0,9.3270832E7,9.3270832E7,9.3270848E7,9.3270848E7,9.3270896E7,9.3270928E7,63.991837,-22.605425,-9999.0,0.0,0.424,180.01839,0.0,0.0,0.0,0.0,0.0,389.08878,1.193444,12.0,40.0,0.0,0.0,0.0,0.0,0.0,0.0,0.0,282.89813,0.0,0.0,0.0,0.0,0.0
0.0,0.0,0.0,0.0,0.0,0.0,1.0,9.3270832E7,9.3270832E7,9.3270848E7,9.3270848E7,9.3270896E7,9.3270928E7,63.991837,-22.605425,-9999.0,0.0,0.424,180.01839,0.0,0.0,0.0,0.0,0.0,389.08878,1.193444,12.0,40.0,0.0,0.0,0.0,0.0,0.0,0.0,0.0,282.89813,0.0,0.0,0.0,0.0,0.0
0.0,0.0,0.0,0.0,0.0,0.0,1.0,9.3270832E7,9.3270832E7,9.3270848E7,9.3270848E7,9.3270896E7,9.3270928E7,63.991837,-22.605425,-9999.0,0.0,0.424,180.01839,0.0,0.0,0.0,0.0,0.0,389.08878,1.193444,12.0,40.0,0.0,0.0,0.0,0.0,0.0,0.0,0.0,282.89813,0.0,0.0,0.0,0.0,0.0
0.0,0.0,0.0,0.0,0.0,0.0,1.0,9.3270832E7,9.3270832E7,9.3270848E7,9.3270848E7,9.3270896E7,9.3270928E7,63.991837,-22.605425,-9999.0,0.0,0.424,180.01839,0.0,0.0,0.0,0.0,0.0,389.08878,1.193444,12.0,40.0,0.0,0.0,0.0,0.0,0.0,0.0,0.0,282.89813,0.0,0.0,0.0,0.0,0.0
0.0,0.0,0.0,0.0,0.0,0.0,1.0,9.3270832E7,9.3270832E7,9.3270848E7,9.3270848E7,9.3270896E7,9.3270928E7,63.991837,-22.605425,-9999.0,0.0,0.424,180.01839,0.0,0.0,0.0,0.0,0.0,389.08878,1.193444,12.0,40.0,0.0,0.0,0.0,0.0,0.0,0.0,0.0,282.89813,0.0,0.0,0.0,0.0,0.0
0.0,0.0,0.0,0.0,0.0,0.0,1.0,9.3270832E7,9.3270832E7,9.3270848E7,9.3270848E7,9.3270896E7,9.3270928E7,63.991837,-22.605425,-9999.0,0.0,0.424,180.01839,0.0,0.0,0.0,0.0,0.0,389.08878,1.193444,12.0,40.0,0.0,0.0,0.0,0.0,0.0,0.0,0.0,282.89813,0.0,0.0,0.0,0.0,0.0
0.0,0.0,0.0,0.0,0.0,0.0,1.0,9.3270832E7,9.3270832E7,9.3270848E7,9.3270848E7,9.3270896E7,9.3270928E7,63.991837,-22.605425,-9999.0,0.0,0.424,180.01839,0.0,0.0,0.0,0.0,0.0,389.08878,1.193444,12.0,40.0,0.0,0.0,0.0,0.0,0.0,0.0,0.0,282.89813,0.0,0.0,0.0,0.0,0.0
0.0,0.0,0.0,0.0,0.0,0.0,1.0,9.3270832E7,9.3270832E7,9.3270848E7,9.3270848E7,9.3270896E7,9.3270928E7,63.991837,-22.605425,-9999.0,0.0,0.424,180.01839,0.0,0.0,0.0,0.0,0.0,389.08878,1.193444,12.0,40.0,0.0,0.0,0.0,0.0,0.0,0.0,0.0,282.89813,0.0,0.0,0.0,0.0,0.0
0.0,0.0,0.0,0.0,0.0,0.0,1.0,9.3270832E7,9.3270832E7,9.3270848E7,9.3270848E7,9.3270896E7,9.3270928E7,63.991837,-22.605425,-9999.0,0.0,0.424,180.01839,0.0,0.0,0.0,0.0,0.0,389.08878,1.193444,12.0,40.0,0.0,0.0,0.0,0.0,0.0,0.0,0.0,282.89813,0.0,0.0,0.0,0.0,0.0
0.0,0.0,0.0,0.0,0.0,0.0,1.0,9.3270832E7,9.3270832E7,9.3270848E7,9.3270848E7,9.3270896E7,9.3270928E7,63.991837,-22.605425,-9999.0,0.0,0.424,180.01839,0.0,0.0,0.0,0.0,0.0,389.08878,1.193444,12.0,40.0,0.0,0.0,0.0,0.0,0.0,0.0,0.0,282.89813,0.0,0.0,0.0,0.0,0.0
0.0,0.0,0.0,0.0,0.0,0.0,1.0,9.3270832E7,9.3270832E7,9.3270848E7,9.3270848E7,9.3270896E7,9.3270928E7,63.991837,-22.605425,-9999.0,0.0,0.424,180.01839,0.0,0.0,0.0,0.0,0.0,389.08878,1.193444,12.0,40.0,0.0,0.0,0.0,0.0,0.0,0.0,0.0,282.89813,0.0,0.0,0.0,0.0,0.0
0.0,0.0,0.0,0.0,0.0,0.0,1.0,9.3270832E7,9.3270832E7,9.3270848E7,9.3270848E7,9.3270896E7,9.3270928E7,63.991837,-22.605425,-9999.0,0.0,0.424,180.01839,0.0,0.0,0.0,0.0,0.0,389.08878,1.193444,12.0,40.0,0.0,0.0,0.0,0.0,0.0,0.0,0.0,282.89813,0.0,0.0,0.0,0.0,0.0
0.0,0.0,0.0,0.0,0.0,0.0,1.0,9.3270832E7,9.3270832E7,9.3270848E7,9.3270848E7,9.3270896E7,9.3270928E7,63.991837,-22.605425,-9999.0,0.0,0.424,180.01839,0.0,0.0,0.0,0.0,0.0,389.08878,1.193444,12.0,40.0,0.0,0.0,0.0,0.0,0.0,0.0,0.0,282.89813,0.0,0.0,0.0,0.0,0.0
0.0,0.0,0.0,0.0,0.0,0.0,1.0,9.3270832E7,9.3270832E7,9.3270848E7,9.3270848E7,9.3270896E7,9.3270928E7,63.991837,-22.605425,-9999.0,0.0,0.424,180.01839,0.0,0.0,0.0,0.0,0.0,389.08878,1.193444,12.0,40.0,0.0,0.0,0.0,0.0,0.0,0.0,0.0,282.89813,0.0,0.0,0.0,0.0,0.0
0.0,0.0,0.0,0.0,0.0,0.0,1.0,9.3270832E7,9.3270832E7,9.3270848E7,9.3270848E7,9.3270896E7,9.3270928E7,63.991837,-22.605425,-9999.0,0.0,0.424,180.01839,0.0,0.0,0.0,0.0,0.0,389.08878,1.193444,12.0,40.0,0.0,0.0,0.0,0.0,0.0,0.0,0.0,282.89813,0.0,0.0,0.0,0.0,0.0
0.0,0.0,0.0,0.0,0.0,0.0,1.0,9.3270832E7,9.3270832E7,9.3270848E7,9.3270848E7,9.3270896E7,9.3270928E7,63.991837,-22.605425,-9999.0,0.0,0.424,180.01839,0.0,0.0,0.0,0.0,0.0,389.08878,1.193444,12.0,40.0,0.0,0.0,0.0,0.0,0.0,0.0,0.0,282.89813,0.0,0.0,0.0,0.0,0.0
0.0,0.0,0.0,0.0,0.0,0.0,0.0,9.3270832E7,9.3270832E7,9.3270848E7,9.3270848E7,9.3270896E7,9.3270928E7,63.991837,-22.605427,146.2295,0.104764,4.952322,180.01332,0.0,0.0,0.0,0.0,0.0,389.08878,1.193444,12.0,40.0,0.0,0.0,0.0,0.0,0.0,0.0,0.0,282.89813,0.0,0.0,0.0,0.0,0.0
0.0,0.0,0.0,0.0,0.0,0.0,0.0,9.3270832E7,9.3270832E7,9.3270848E7,9.3270848E7,9.3270896E7,9.3270928E7,63.991837,-22.605427,146.2293,0.095771,4.971765,180.01262,89.86186,3.012142,-0.068609,-1.66E-4,0.0,536.9766,149.08125,12.0,40.0,0.0,0.0,140.00014,140.0,146.2293,7.6E-5,-0.019523,282.89807,356.77744,-0.006118,-0.496299,3941.3894,0.0
0.0,0.0,0.0,0.0,0.0,0.0,0.0,9.3270832E7,9.3270832E7,9.3270848E7,9.3270848E7,9.3270896E7,9.3270928E7,63.991837,-22.605427,146.22952,0.095442,4.951438,180.01257,83.88301,2.733587,0.07943,1.9E-5,0.0,510.12122,122.225876,12.0,40.0,0.0,0.0,120.000145,120.0,146.22952,6.2E-5,0.002214,282.89807,329.19296,-0.012713,-1.285963,2387.1787,0.0
0.0,0.0,0.0,0.0,0.0,0.0,0.0,9.3270832E7,9.3270832E7,9.3270848E7,9.3270848E7,9.3270896E7,9.3270928E7,63.991837,-22.605427,146.22954,0.095474,4.951204,180.01257,83.31198,2.711947,0.073759,1.2E-5,4.844531,508.7485,120.853165,12.0,40.0,0.0,0.0,120.000145,120.0,146.22954,6.1E-5,0.001442,282.89807,325.8591,-0.012956,-1.33561,2259.7478,0.0
0.0,0.0,0.0,0.0,0.0,0.0,0.0,9.3270832E7,9.3270832E7,9.3270848E7,9.3270848E7,9.3270896E7,9.3270928E7,63.991837,-22.605427,146.22954,0.095922,4.950901,180.01262,81.421295,2.64454,-0.02441,-3.0E-6,5.549067,501.74286,113.84753,12.0,40.0,0.0,0.0,120.000145,120.0,146.22954,5.8E-5,-1.01E-4,282.89807,314.3608,-0.013837,-1.48124,1753.2506,0.0
0.0,0.0,0.0,0.0,0.0,0.0,0.0,9.3270832E7,9.3270832E7,9.3270848E7,9.3270848E7,9.3270896E7,9.3270928E7,63.991837,-22.605427,146.22954,0.096092,4.950877,180.01263,80.68712,2.620029,-0.060368,-8.0E-6,6.819358,499.52005,111.62472,12.0,40.0,0.0,0.0,110.000145,110.0,146.22954,5.7E-5,-4.03E-4,282.89807,309.75592,-0.014115,-1.531027,1559.3094,0.0
0.0,0.0,0.0,0.0,0.0,0.0,0.0,9.3270832E7,9.3270832E7,9.3270848E7,9.3270848E7,9.3270896E7,9.3270928E7,63.991837,-22.605427,146.22954,0.096292,4.950883,180.01265,79.93911,2.595954,-0.07905,-1.2E-5,7.232769,496.9011,109.005745,12.0,40.0,0.0,0.0,110.000145,110.0,146.22954,5.6E-5,-8.05E-4,282.89807,305.0101,-0.014369,-1.578381,1335.3162,0.0
0.0,0.0,0.0,0.0,0.0,0.0,0.0,9.3270832E7,9.3270832E7,9.3270848E7,9.3270848E7,9.3270896E7,9.3270928E7,63.991837,-22.605427,146.22954,0.096327,4.950887,180.01265,79.81308,2.591984,-0.081421,-1.3E-5,7.267628,496.4474,108.552055,12.0,40.0,0.0,0.0,110.000145,110.0,146.22954,5.5E-5,-8.39E-4,282.89807,304.20627,-0.014449,-1.586045,1295.2184,0.0
0.0,0.0,0.0,0.0,0.0,0.0,0.0,9.3270832E7,9.3270832E7,9.3270848E7,9.3270848E7,9.3270896E7,9.3270928E7,63.991837,-22.605427,146.2295,0.098387,4.951518,180.01282,74.30612,2.440654,-0.13884,-1.3E-5,4.940301,476.02402,88.12868,12.0,40.0,0.0,0.0,90.000145,90.0,146.2295,4.8E-5,-8.72E-4,282.89807,268.8659,-0.015766,-1.851021,-530.7659,0.0
0.0,0.0,0.0,0.0,0.0,0.0,0.0,9.3270832E7,9.3270832E7,9.3270848E7,9.3270848E7,9.3270896E7,9.3270928E7,63.991837,-22.605427,146.2295,0.09852,4.951559,180.01282,73.44446,2.420545,-0.143401,-1.6E-5,6.689753,473.93777,86.04244,12.0,40.0,0.0,0.0,90.000145,90.0,146.2295,4.7E-5,-0.00104,282.89807,263.42972,-0.015898,-1.882736,-650.5246,0.0
0.0,0.0,0.0,0.0,0.0,0.0,0.0,9.3270832E7,9.3270832E7,9.3270848E7,9.3270848E7,9.3270896E7,9.3270928E7,63.991837,-22.605427,146.2295,0.098677,4.951608,180.01283,72.56853,2.40099,-0.140882,-1.8E-5,7.202258,471.3668,83.47145,12.0,40.0,0.0,0.0,90.000145,90.0,146.2295,4.6E-5,-0.001208,282.89807,257.96085,-0.016021,-1.912902,-774.327,0.0
0.0,0.0,0.0,0.0,0.0,0.0,0.0,9.3270832E7,9.3270832E7,9.3270848E7,9.3270848E7,9.3270896E7,9.3270928E7,63.991837,-22.605427,146.2295,0.098853,4.951667,180.01285,71.67836,2.382001,-0.139025,-1.9E-5,7.374514,468.62515,80.72981,12.0,40.0,0.0,0.0,80.000145,80.0,146.2295,4.5E-5,-0.001342,282.89807,252.47081,-0.016136,-1.941593,-879.2112,0.0
0.0,0.0,0.0,0.0,0.0,0.0,0.0,9.3270832E7,9.3270832E7,9.3270848E7,9.3270848E7,9.3270896E7,9.3270928E7,63.991837,-22.605427,146.22949,0.099041,4.951734,180.01286,70.77403,2.363595,-0.137225,-2.0E-5,7.384061,465.78583,77.89049,12.0,40.0,0.0,0.0,80.000145,80.0,146.22949,4.5E-5,-0.001442,282.89807,246.97087,-0.016244,-1.968883,-968.32587,0.0
0.0,0.0,0.0,0.0,0.0,0.0,0.0,9.3270832E7,9.3270832E7,9.3270848E7,9.3270848E7,9.3270896E7,9.3270928E7,63.991837,-22.605427,146.22949,0.099235,4.951805,180.01288,69.85566,2.345783,-0.13732,-2.0E-5,7.434021,462.98734,75.091995,12.0,40.0,0.0,0.0,80.000145,80.0,146.22949,4.4E-5,-0.001442,282.89807,241.47215,-0.016347,-1.994838,-1039.3187,0.0
0.0,0.0,0.0,0.0,0.0,0.0,0.0,9.3270832E7,9.3270832E7,9.3270848E7,9.3270848E7,9.3270896E7,9.3270928E7,63.991837,-22.605427,146.22949,0.099432,4.951879,180.0129,68.923416,2.328583,-0.136872,-2.1E-5,7.458341,460.1656,72.27024,12.0,40.0,0.0,0.0,70.000145,70.0,146.22949,4.3E-5,-0.001543,282.89807,235.98552,-0.016444,-2.019526,-1100.64,0.0
0.0,0.0,0.0,0.0,0.0,0.0,0.0,9.3270832E7,9.3270832E7,9.3270848E7,9.3270848E7,9.3270896E7,9.3270928E7,63.991837,-22.605427,146.22949,0.099629,4.951953,180.01291,67.97749,2.312006,-0.13628,-2.0E-5,7.468033,457.33563,69.4403,12.0,40.0,0.0,0.0,70.000145,70.0,146.22949,4.2E-5,-0.001476,282.89807,230.52159,-0.016535,-2.043006,-1153.8336,0.0
0.0,0.0,0.0,0.0,0.0,0.0,0.0,9.3270832E7,9.3270832E7,9.3270848E7,9.3270848E7,9.3270896E7,9.3270928E7,63.991837,-22.605427,146.22949,0.099825,4.952029,180.01292,67.01812,2.296068,-0.135383,-2.0E-5,7.472539,454.5028,66.60746,12.0,40.0,0.0,0.0,70.000145,70.0,146.22949,4.1E-5,-0.00151,282.89807,225.09076,-0.016621,-2.06534,-1200.3635,0.0
0.0,0.0,0.0,0.0,0.0,0.0,0.0,9.3270832E7,9.3270832E7,9.3270848E7,9.3270848E7,9.3270896E7,9.3270928E7,63.991837,-22.605427,146.22948,0.100019,4.952104,180.01294,66.04557,2.280782,-0.134374,-2.0E-5,7.475206,451.66895,63.77359,12.0,40.0,0.0,0.0,70.000145,70.0,146.22948,4.0E-5,-0.001476,282.89807,219.70312,-0.016703,-2.086581,-1241.4106,0.0
0.0,0.0,0.0,0.0,0.0,0.0,0.0,9.3270832E7,9.3270832E7,9.3270848E7,9.3270848E7,9.3270896E7,9.3270928E7,63.991837,-22.605427,146.22948,0.10021,4.952177,180.01295,65.06013,2.266161,-0.133044,-1.9E-5,7.477211,448.8347,60.93935,12.0,40.0,0.0,0.0,60.00014,60.0,146.22948,4.0E-5,-0.001375,282.89807,214.36852,-0.01678,-2.106785,-1277.894,0.0
0.0,0.0,0.0,0.0,0.0,0.0,0.0,9.3270832E7,9.3270832E7,9.3270848E7,9.3270848E7,9.3270896E7,9.3270928E7,63.991837,-22.605427,146.22948,0.100397,4.952249,180.01297,64.06215,2.252218,-0.131316,-1.8E-5,7.478969,446.0003,58.104965,12.0,40.0,0.0,0.0,60.00014,60.0,146.22948,3.9E-5,-0.001409,282.89807,209.09645,-0.016852,-2.126001,-1310.5295,0.0
0.0,0.0,0.0,0.0,0.0,0.0,0.0,9.3270832E7,9.3270832E7,9.3270848E7,9.3270848E7,9.3270896E7,9.3270928E7,63.991837,-22.605427,146.22948,0.100579,4.952319,180.01299,63.052002,2.238966,-0.129357,-1.8E-5,7.480623,443.16586,55.27052,12.0,40.0,0.0,0.0,60.00014,60.0,146.22948,3.8E-5,-0.001375,282.89807,203.89613,-0.016921,-2.144279,-1339.881,0.0
0.0,0.0,0.0,0.0,0.0,0.0,0.0,9.3270832E7,9.3270832E7,9.3270848E7,9.3270848E7,9.3270896E7,9.3270928E7,63.991837,-22.605427,146.22948,0.100757,4.952387,180.013,62.0301,2.226418,-0.126869,-1.7E-5,7.482226,440.3314,52.436043,12.0,40.0,0.0,0.0,60.00014,60.0,146.22948,3.7E-5,-0.001275,282.89807,198.77644,-0.016986,-2.161663,-1366.3995,0.0
0.0,0.0,0.0,0.0,0.0,0.0,0.0,9.3270832E7,9.3270832E7,9.3270848E7,9.3270848E7,9.3270896E7,9.3270928E7,63.991837,-22.605427,146.22948,0.10093,4.952453,180.01302,60.99691,2.214585,-0.123908,-1.6E-5,7.483795,437.4969,49.601543,12.0,40.0,0.0,0.0,50.00014,50.0,146.22948,3.6E-5,-0.001208,282.89807,193.74594,-0.017048,-2.178197,-1390.452,0.0
0.0,0.0,0.0,0.0,0.0,0.0,0.0,9.3270832E7,9.3270832E7,9.3270848E7,9.3270848E7,9.3270896E7,9.3270928E7,63.991837,-22.605427,146.22948,0.101099,4.952517,180.01303,59.952923,2.20348,-0.120625,-1.5E-5,7.485338,434.66238,46.767025,12.0,40.0,0.0,0.0,50.00014,50.0,146.22948,3.6E-5,-0.001208,282.89807,188.8128,-0.017107,-2.193924,-1412.3407,0.0
0.0,0.0,0.0,0.0,0.0,0.0,0.0,9.3270832E7,9.3270832E7,9.3270848E7,9.3270848E7,9.3270896E7,9.3270928E7,63.991837,-22.605427,146.22946,0.101262,4.952578,180.01305,58.898666,2.193113,-0.116921,-1.4E-5,7.570438,431.82785,43.93249,12.0,40.0,0.0,0.0,50.00014,50.0,146.22946,3.5E-5,-0.001174,282.89807,183.98491,-0.017163,-2.208882,-1432.3176,0.0
0.0,0.0,0.0,0.0,0.0,0.0,0.0,9.3270832E7,9.3270832E7,9.3270848E7,9.3270848E7,9.3270896E7,9.3270928E7,63.991837,-22.605427,146.22946,0.10142,4.952637,180.01305,57.83472,2.183495,-0.112686,-1.3E-5,7.576882,428.9933,41.097942,12.0,40.0,0.0,0.0,40.00014,40.0,146.22946,3.4E-5,-0.001141,282.89807,179.26973,-0.017216,-2.223109,-1450.5958,0.0
0.0,0.0,0.0,0.0,0.0,0.0,0.0,9.3270832E7,9.3270832E7,9.3270848E7,9.3270848E7,9.3270896E7,9.3270928E7,63.991837,-22.605427,146.22946,0.101574,4.952694,180.01306,56.761692,2.174636,-0.10803,-1.2E-5,7.582882,426.15872,38.263374,12.0,40.0,0.0,0.0,40.00014,40.0,146.22946,3.4E-5,-0.001006,282.89807,174.67436,-0.017266,-2.23664,-1467.3567,0.0
0.0,0.0,0.0,0.0,0.0,0.0,0.0,9.3270832E7,9.3270832E7,9.3270848E7,9.3270848E7,9.3270896E7,9.3270928E7,63.991837,-22.605427,146.22946,0.101723,4.952748,180.01308,55.680225,2.166546,-0.102725,-1.1E-5,7.588965,423.32413,35.42879,12.0,40.0,0.0,0.0,40.00014,40.0,146.22946,3.3E-5,-9.39E-4,282.89807,170.20554,-0.017314,-2.249511,-1482.7559,0.0
0.0,0.0,0.0,0.0,0.0,0.0,0.0,9.3270832E7,9.3270832E7,9.3270848E7,9.3270848E7,9.3270896E7,9.3270928E7,63.991837,-22.605427,146.22946,0.101867,4.9528,180.01309,54.591,2.159233,-0.096836,-1.0E-5,7.595135,420.48953,32.59419,12.0,40.0,0.0,0.0,40.00014,40.0,146.22946,3.2E-5,-9.06E-4,282.89807,165.86963,-0.01736,-2.261752,-1496.9285,0.0
0.0,0.0,0.0,0.0,0.0,0.0,0.0,9.3270832E7,9.3270832E7,9.3270848E7,9.3270848E7,9.3270896E7,9.3270928E7,63.991837,-22.605427,146.22946,0.102006,4.95285,180.0131,53.49473,2.152706,-0.090313,-9.0E-6,7.601391,417.6549,29.759573,12.0,40.0,0.0,0.0,30.000143,30.0,146.22946,3.2E-5,-7.72E-4,282.89807,161.67256,-0.017404,-2.273395,-1509.9922,0.0
0.0,0.0,0.0,0.0,0.0,0.0,0.0,9.3270832E7,9.3270832E7,9.3270848E7,9.3270848E7,9.3270896E7,9.3270928E7,63.991837,-22.605427,146.22946,0.102141,4.952898,180.0131,52.392155,2.146971,-0.08328,-8.0E-6,7.607734,414.82028,26.92494,12.0,40.0,0.0,0.0,30.000143,30.0,146.22946,3.1E-5,-7.38E-4,282.89807,157.61993,-0.017446,-2.284469,-1522.0502,0.0
0.0,0.0,0.0,0.0,0.0,0.0,0.0,9.3270832E7,9.3270832E7,9.3270848E7,9.3270848E7,9.3270896E7,9.3270928E7,63.991837,-22.605427,146.22946,0.102271,4.952943,180.01312,51.284046,2.142034,-0.075619,-7.0E-6,7.614162,411.98563,24.090292,12.0,40.0,0.0,0.0,30.000143,30.0,146.22946,3.0E-5,-6.71E-4,282.89807,153.7169,-0.017485,-2.295002,-1533.1936,0.0
0.0,0.0,0.0,0.0,0.0,0.0,0.0,9.3270832E7,9.3270832E7,9.3270848E7,9.3270848E7,9.3270896E7,9.3270928E7,63.991837,-22.605427,146.22946,0.102397,4.952986,180.01314,50.171192,2.137903,-0.067141,-6.0E-6,7.620677,409.15097,21.255627,12.0,40.0,0.0,0.0,20.000143,20.0,146.22946,3.0E-5,-6.04E-4,282.89807,149.96822,-0.017523,-2.305021,-1543.503,0.0
0.0,0.0,0.0,0.0,0.0,0.0,0.0,9.3270832E7,9.3270832E7,9.3270848E7,9.3270848E7,9.3270896E7,9.3270928E7,63.991837,-22.605427,146.22945,0.102521,4.953028,180.01314,49.054417,2.134581,-0.056881,-5.0E-6,7.478912,406.21545,18.320103,12.0,40.0,0.0,0.0,20.000143,20.0,146.22945,2.9E-5,-5.37E-4,282.89807,146.37828,-0.01756,-2.314549,-1556.8232,0.0
0.0,0.0,0.0,0.0,0.0,0.0,0.0,9.3270832E7,9.3270832E7,9.3270848E7,9.3270848E7,9.3270896E7,9.3270928E7,63.991837,-22.605427,146.22945,0.102628,4.953063,180.01315,48.02795,2.13225,-0.047511,-4.0E-6,7.570361,403.65793,15.762598,12.0,40.0,0.0,0.0,20.000143,20.0,146.22945,2.9E-5,-5.7E-4,282.89807,143.23033,-0.017595,-2.322874,-1563.0961,0.0
0.0,0.0,0.0,0.0,0.0,0.0,0.0,9.3270832E7,9.3270832E7,9.3270848E7,9.3270848E7,9.3270896E7,9.3270928E7,63.991837,-22.605427,146.22945,0.102751,4.953103,180.01315,46.812397,2.130379,-0.035973,-3.0E-6,7.613086,400.6315,12.736156,12.0,40.0,0.0,0.0,20.000143,20.0,146.22945,2.8E-5,-4.36E-4,282.89807,139.69005,-0.017627,-2.332232,-1570.1414,0.0
0.0,0.0,0.0,0.0,0.0,0.0,0.0,9.3270832E7,9.3270832E7,9.3270848E7,9.3270848E7,9.3270896E7,9.3270928E7,63.991837,-22.605427,146.22945,0.102859,4.953137,180.01317,45.688873,2.129505,-0.023385,-2.0E-6,7.638112,397.80673,9.911388,12.0,40.0,0.0,0.0,10.000142,10.0,146.22945,2.8E-5,-3.35E-4,282.89807,136.59851,-0.017659,-2.340431,-1577.3705,0.0
0.0,0.0,0.0,0.0,0.0,0.0,0.0,9.3270832E7,9.3270832E7,9.3270848E7,9.3270848E7,9.3270896E7,9.3270928E7,63.991837,-22.605427,146.22945,0.102947,4.953165,180.01317,44.75216,2.129402,-0.011992,-1.0E-6,7.649402,395.4476,7.552245,12.0,40.0,0.0,0.0,10.000142,10.0,146.22945,2.7E-5,-2.68E-4,282.89807,134.15367,-0.01769,-2.346956,-1583.2031,0.0
0.0,0.0,0.0,0.0,0.0,0.0,0.0,9.3270832E7,9.3270832E7,9.3270848E7,9.3270848E7,9.3270896E7,9.3270928E7,63.991837,-22.605427,146.22945,0.10305,4.953196,180.01318,43.628315,2.13003,0.002123,0.0,7.642207,392.60944,4.714098,12.0,40.0,0.0,0.0,10.000142,10.0,146.22945,2.7E-5,-2.01E-4,282.89807,131.37967,-0.017718,-2.354436,-1589.9948,0.0
0.0,0.0,0.0,0.0,0.0,0.0,0.0,9.3270832E7,9.3270832E7,9.3270848E7,9.3270848E7,9.3270896E7,9.3270928E7,63.991837,-22.605427,146.22945,0.10315,4.953225,180.01318,42.505543,2.131477,0.016714,1.0E-6,7.666813,389.60486,1.709515,12.0,40.0,0.0,0.0,1.42E-4,0.0,146.22945,2.6E-5,-1.01E-4,282.89807,128.78192,-0.017745,-2.361549,-1602.6846,0.0
0.0,0.0,0.0,0.0,0.0,0.0,0.0,9.3270832E7,9.3270832E7,9.3270848E7,9.3270848E7,9.3270896E7,9.3270928E7,63.991837,-22.605427,146.22945,0.103254,4.953254,180.0132,41.291355,2.133966,0.036026,2.0E-6,7.517635,386.66635,-1.228988,12.0,40.0,0.0,0.0,1.42E-4,0.0,146.22945,2.5E-5,-1.34E-4,282.89807,126.16849,-0.017772,-2.368864,-1605.6112,0.0
0.0,0.0,0.0,0.0,0.0,0.0,0.0,9.3270832E7,9.3270832E7,9.3270848E7,9.3270848E7,9.3270896E7,9.3270928E7,63.991837,-22.605427,146.22945,0.103352,4.953281,180.01321,40.080498,2.137412,0.054413,4.0E-6,7.564488,383.78064,-4.114703,12.0,40.0,0.0,0.0,1.42E-4,0.0,146.22945,2.5E-5,0.0,282.89807,123.76545,-0.017796,-2.375793,-1609.4335,0.0
0.0,0.0,0.0,0.0,0.0,0.0,0.0,9.3270832E7,9.3270832E7,9.3270848E7,9.3270848E7,9.3270896E7,9.3270928E7,63.991837,-22.605427,146.22945,0.10344,4.953304,180.01321,38.96666,2.141437,0.0773,5.0E-6,7.653623,381.1157,-6.779661,12.0,40.0,0.0,0.0,1.42E-4,0.0,146.22945,2.4E-5,6.7E-5,282.89807,121.734924,-0.017821,-2.381862,-1612.8202,0.0
0.0,0.0,0.0,0.0,0.0,0.0,0.0,9.3270832E7,9.3270832E7,9.3270848E7,9.3270848E7,9.3270896E7,9.3270928E7,63.991837,-22.605427,146.22945,0.103525,4.953325,180.01321,37.857388,2.146269,0.097744,6.0E-6,7.543225,378.31235,-9.58301,12.0,40.0,0.0,0.0,-9.999858,-10.0,146.22945,2.4E-5,1.34E-4,282.89807,119.88503,-0.017845,-2.387636,-1621.3777,0.0
0.0,0.0,0.0,0.0,0.0,0.0,0.0,9.3270832E7,9.3270832E7,9.3270848E7,9.3270848E7,9.3270896E7,9.3270928E7,63.991837,-22.605427,146.22945,0.103607,4.953344,180.01323,36.75345,2.151901,0.122142,7.0E-6,7.62765,375.68906,-12.2063,12.0,40.0,0.0,0.0,-9.999858,-10.0,146.22945,2.3E-5,2.01E-4,282.89807,118.21586,-0.017869,-2.393127,-1622.2994,0.0
0.0,0.0,0.0,0.0,0.0,0.0,0.0,9.3270832E7,9.3270832E7,9.3270848E7,9.3270848E7,9.3270896E7,9.3270928E7,63.991837,-22.605427,146.22945,0.103685,4.953362,180.01323,35.655647,2.158329,0.146878,8.0E-6,7.63614,372.97888,-14.916471,12.0,40.0,0.0,0.0,-9.999858,-10.0,146.22945,2.3E-5,2.35E-4,282.89807,116.727135,-0.01789,-2.39835,-1626.5635,0.0
0.0,0.0,0.0,0.0,0.0,0.0,0.0,9.3270832E7,9.3270832E7,9.3270848E7,9.3270848E7,9.3270896E7,9.3270928E7,63.991837,-22.605427,146.22945,0.103749,4.953375,180.01324,34.746033,2.164287,0.169689,9.0E-6,7.680859,370.75677,-17.13858,12.0,40.0,0.0,0.0,-9.999858,-10.0,146.22945,2.3E-5,2.68E-4,282.89807,115.623924,-0.017912,-2.402507,-1628.4835,0.0
0.0,0.0,0.0,0.0,0.0,0.0,0.0,9.3270832E7,9.3270832E7,9.3270848E7,9.3270848E7,9.3270896E7,9.3270928E7,63.991837,-22.605427,146.22945,0.103834,4.953392,180.01324,33.481388,2.173539,0.196146,1.0E-5,7.690935,367.6177,-20.277624,12.0,40.0,0.0,0.0,-19.999857,-20.0,146.22945,2.2E-5,5.37E-4,282.89807,114.28817,-0.017931,-2.408042,-1632.0596,0.0
0.0,0.0,0.0,0.0,0.0,0.0,0.0,9.3270832E7,9.3270832E7,9.3270848E7,9.3270848E7,9.3270896E7,9.3270928E7,63.991837,-22.605427,146.22945,0.103905,4.953405,180.01324,32.40634,2.182306,0.23204,1.2E-5,7.731141,364.92084,-22.974518,12.0,40.0,0.0,0.0,-19.999857,-20.0,146.22945,2.2E-5,4.03E-4,282.89807,113.335655,-0.017951,-2.412536,-1635.1841,0.0
0.0,0.0,0.0,0.0,0.0,0.0,0.0,9.3270832E7,9.3270832E7,9.3270848E7,9.3270848E7,9.3270896E7,9.3270928E7,63.991837,-22.605427,146.22945,0.103973,4.953416,180.01326,31.340225,2.191835,0.263034,1.3E-5,7.742538,362.22058,-25.674778,12.0,40.0,0.0,0.0,-19.999857,-20.0,146.22945,2.1E-5,5.03E-4,282.89807,112.55906,-0.01797,-2.416811,-1638.2303,0.0
0.0,0.0,0.0,0.0,0.0,0.0,0.0,9.3270832E7,9.3270832E7,9.3270848E7,9.3270848E7,9.3270896E7,9.3270928E7,63.991837,-22.605427,146.22946,0.10404,4.953425,180.01326,30.283678,2.202116,0.286302,1.4E-5,7.820495,359.3571,-28.538252,12.0,40.0,0.0,0.0,-29.999857,-30.0,146.22946,2.1E-5,5.7E-4,282.89807,111.95643,-0.017987,-2.420876,-1647.5618,0.0
0.0,0.0,0.0,0.0,0.0,0.0,0.0,9.3270832E7,9.3270832E7,9.3270848E7,9.3270848E7,9.3270896E7,9.3270928E7,63.991837,-22.605427,146.22946,0.104105,4.953434,180.01326,29.237232,2.21314,0.328102,1.5E-5,7.658853,356.7602,-31.135147,12.0,40.0,0.0,0.0,-29.999857,-30.0,146.22946,2.0E-5,6.04E-4,282.89807,111.52551,-0.018005,-2.424743,-1645.728,0.0
0.0,0.0,0.0,0.0,0.0,0.0,0.0,9.3270832E7,9.3270832E7,9.3270848E7,9.3270848E7,9.3270896E7,9.3270928E7,63.991837,-22.605427,146.22946,0.104167,4.95344,180.01328,28.201479,2.224895,0.363782,1.6E-5,7.732228,354.0951,-33.80024,12.0,40.0,0.0,0.0,-29.999857,-30.0,146.22946,2.0E-5,6.71E-4,282.89807,111.26376,-0.018022,-2.428421,-1646.6862,0.0
0.0,0.0,0.0,0.0,0.0,0.0,0.0,9.3270832E7,9.3270832E7,9.3270848E7,9.3270848E7,9.3270896E7,9.3270928E7,63.991837,-22.605427,146.22946,0.104227,4.953445,180.01328,27.176907,2.23737,0.397234,1.8E-5,7.728489,351.3808,-36.514545,12.0,40.0,0.0,0.0,-29.999857,-30.0,146.22946,2.0E-5,8.05E-4,282.89807,111.16835,-0.018038,-2.431919,-1649.4652,0.0
0.0,0.0,0.0,0.0,0.0,0.0,0.0,9.3270832E7,9.3270832E7,9.3270848E7,9.3270848E7,9.3270896E7,9.3270928E7,63.991837,-22.605427,146.22946,0.104285,4.95345,180.01328,26.163977,2.250553,0.434707,1.9E-5,7.764805,348.69955,-39.195786,12.0,40.0,0.0,0.0,-39.99986,-40.0,146.22946,1.9E-5,8.72E-4,282.89807,111.23616,-0.018054,-2.435246,-1650.8053,0.0
0.0,0.0,0.0,0.0,0.0,0.0,0.2,9.3270832E7,9.3270832E7,9.3270848E7,9.3270848E7,9.3270896E7,9.3270928E7,63.991837,-22.605427,146.22946,0.104341,4.953452,180.01329,25.163115,2.264431,0.470941,2.0E-5,7.786467,346.00476,-41.8906,12.0,40.0,0.0,0.0,-39.99986,-40.0,146.22946,1.9E-5,9.39E-4,282.89807,111.46383,-0.018069,-2.438411,-1652.5852,0.0
0.0,0.0,0.0,0.0,0.0,0.0,0.2,9.3270832E7,9.3270832E7,9.3270848E7,9.3270848E7,9.3270896E7,9.3270928E7,63.991837,-22.605427,146.22949,0.105188,4.953537,180.01335,15.884039,2.438578,0.48429,5.0E-6,2.32302,115.83935,-71.2778,12.0,40.0,0.0,0.0,-69.999855,-70.0,146.22949,1.5E-5,3.02E-4,282.89517,121.62885,-0.018249,-2.462683,-1541.7968,0.0
0.0,0.0,0.0,0.0,0.0,0.0,0.2,9.3270832E7,9.3270832E7,9.3270848E7,9.3270848E7,9.3270896E7,9.3270928E7,63.991837,-22.605427,146.22949,0.105201,4.953537,180.01335,15.24467,2.454018,0.572614,1.1E-5,5.430271,114.910965,-72.206184,12.0,40.0,0.0,0.0,-69.999855,-70.0,146.22949,1.5E-5,5.7E-4,282.89517,122.89484,-0.018257,-2.463664,-1501.7203,0.319368
0.0,0.0,0.0,0.0,0.0,0.0,0.2,9.3270832E7,9.3270832E7,9.3270848E7,9.3270848E7,9.3270896E7,9.3270928E7,63.991837,-22.605427,146.22949,0.105243,4.953544,180.01335,14.26607,2.47864,0.58905,2.0E-5,6.991432,112.511024,-74.606125,12.0,40.0,0.0,0.0,-69.999855,-70.0,146.22949,1.5E-5,0.001174,282.89517,124.98059,-0.018263,-2.449206,-1483.6664,48.52379
0.0,0.0,0.0,0.0,0.0,0.0,0.2,9.3270832E7,9.3270832E7,9.3270848E7,9.3270848E7,9.3270896E7,9.3270928E7,63.991837,-22.605427,146.22949,0.105283,4.953463,180.01337,13.374238,2.502201,0.259737,3.3E-5,7.613525,109.93924,-77.17791,12.0,40.0,0.0,0.0,-79.999855,-80.0,146.22949,1.5E-5,0.00218,282.89517,127.03744,-0.018275,-2.416794,-1483.3024,85.61465
0.0,0.0,0.0,0.0,0.0,0.0,0.2,9.3270832E7,9.3270832E7,9.3270848E7,9.3270848E7,9.3270896E7,9.3270928E7,63.991837,-22.605427,146.2295,0.105304,4.953186,180.01337,12.56562,2.524508,0.160095,4.6E-5,7.818457,107.34158,-79.775566,12.0,40.0,0.0,0.0,-79.999855,-80.0,146.2295,1.4E-5,0.00369,282.89517,129.03227,-0.018291,-2.373454,-1492.666,118.326065
0.0,0.0,0.0,0.0,0.0,0.0,0.2,9.3270832E7,9.3270832E7,9.3270848E7,9.3270848E7,9.3270896E7,9.3270928E7,63.991837,-22.605427,146.2295,0.105295,4.952656,180.01337,11.771129,2.547327,0.122972,5.9E-5,7.89409,104.67605,-82.44111,12.0,40.0,0.0,0.0,-79.999855,-80.0,146.2295,1.4E-5,0.005367,282.89517,131.11353,-0.018309,-2.319547,-1504.2324,149.47401
0.0,0.0,0.0,0.0,0.0,0.0,0.2,9.3270832E7,9.3270832E7,9.3270848E7,9.3270848E7,9.3270896E7,9.3270928E7,63.991837,-22.605427,146.22952,0.105252,4.951847,180.01335,10.990849,2.570631,0.105221,7.2E-5,7.926856,101.9866,-85.13055,11.997031,39.990105,0.0,0.0,-79.999855,-80.0,146.22952,1.4E-5,0.007044,282.89517,133.27536,-0.018326,-2.257113,-1515.9302,179.02742
0.0,0.0,0.0,0.0,0.0,0.0,0.2,9.3270832E7,9.3270832E7,9.3270848E7,9.3270848E7,9.3270896E7,9.3270928E7,63.991837,-22.605427,146.22954,0.105175,4.950759,180.01335,10.224719,2.5944,0.095212,8.3E-5,7.944733,99.288734,-87.828415,11.913188,39.71063,0.0,0.0,-89.999855,-90.0,146.22954,1.3E-5,0.008655,282.89517,135.51189,-0.018339,-2.187997,-1527.0929,206.97018
0.0,0.0,0.0,0.0,0.0,0.0,0.2,9.3270832E7,9.3270832E7,9.3270848E7,9.3270848E7,9.3270896E7,9.3270928E7,63.991837,-22.605427,146.22955,0.105066,4.94941,180.01334,9.472655,2.618616,0.089019,9.4E-5,7.957438,96.5879,-90.52925,11.745564,39.15188,0.0,0.0,-89.999855,-90.0,146.22955,1.3E-5,0.010164,282.89517,137.8172,-0.01835,-2.113853,-1537.5393,233.30382
0.0,0.0,0.0,0.0,0.0,0.0,0.2,9.3270832E7,9.3270832E7,9.3270848E7,9.3270848E7,9.3270896E7,9.3270928E7,63.991837,-22.605427,146.22957,0.104928,4.947827,180.01332,8.774254,2.631402,0.07947,9.6E-5,7.965529,93.88601,-93.23115,11.549064,38.496876,0.0,0.0,-89.999855,-90.0,146.22957,1.3E-5,0.011472,282.89517,140.18538,-0.018356,-2.036159,-1547.2513,258.04697
0.0,0.0,0.0,0.0,0.0,0.0,0.2,9.3270832E7,9.3270832E7,9.3270848E7,9.3270848E7,9.3270896E7,9.3270928E7,63.991837,-22.605427,146.22958,0.104766,4.946044,180.0133,8.136663,2.627176,0.068061,9.1E-5,7.966403,91.18373,-95.93342,11.334661,37.7822,0.0,0.0,-89.999855,-90.0,146.22958,1.3E-5,0.011909,282.89517,142.61047,-0.018358,-1.95622,-1556.2637,281.23105
0.0,0.0,0.0,0.0,0.0,0.0,0.2,9.3270832E7,9.3270832E7,9.3270848E7,9.3270848E7,9.3270896E7,9.3270928E7,63.991837,-22.605427,146.22961,0.104585,4.944101,180.01329,7.497153,2.62326,0.061049,8.7E-5,7.966852,88.481316,-98.63583,11.104303,37.014347,0.0,0.0,-99.999855,-100.0,146.22961,1.2E-5,0.012143,282.89517,145.08656,-0.018356,-1.875182,-1564.6246,302.89905
0.0,0.0,0.0,0.0,0.0,0.0,0.2,9.3270832E7,9.3270832E7,9.3270848E7,9.3270848E7,9.3270896E7,9.3270928E7,63.991837,-22.605427,146.22963,0.10439,4.942036,180.01328,6.855859,2.619657,0.056492,8.5E-5,7.967192,85.77884,-101.33832,10.859861,36.19954,0.0,0.0,-99.999855,-100.0,146.22963,1.2E-5,0.012412,282.89517,147.60773,-0.018349,-1.794037,-1572.3842,323.1026
0.0,0.0,0.0,0.0,0.0,0.0,0.2,9.3270832E7,9.3270832E7,9.3270848E7,9.3270848E7,9.3270896E7,9.3270928E7,63.991837,-22.605427,146.22964,0.104184,4.939883,180.01326,6.212923,2.616369,0.053476,8.3E-5,7.967478,83.076324,-104.040825,10.603111,35.343704,1.0E-6,0.0,-99.999855,-100.0,146.22964,1.2E-5,0.012479,282.89517,150.16808,-0.018339,-1.713628,-1579.5891,341.89963
0.0,0.0,0.0,0.0,0.0,0.0,0.2,9.3270832E7,9.3270832E7,9.3270848E7,9.3270848E7,9.3270896E7,9.3270928E7,63.991837,-22.605427,146.22968,0.103971,4.937676,180.01324,5.568487,2.613398,0.051455,8.1E-5,7.967729,80.373795,-106.743355,10.335735,34.452446,2.0E-6,0.0,-99.999855,-100.0,146.22968,1.2E-5,0.012579,282.89514,152.76176,-0.018326,-1.634663,-1586.2828,359.3526
0.0,0.0,0.0,0.0,0.0,0.0,0.2,9.3270832E7,9.3270832E7,9.3270848E7,9.3270848E7,9.3270896E7,9.3270928E7,63.991837,-22.605427,146.22969,0.103755,4.935444,180.01323,4.922697,2.610747,0.050126,8.0E-5,7.96795,77.67125,-109.4459,10.059319,33.531044,6.0E-6,0.0,-109.999855,-110.0,146.22969,1.1E-5,0.012445,282.89508,155.38298,-0.018309,-1.557718,-1592.505,375.52695
0.0,0.0,0.0,0.0,0.0,0.0,0.2,9.3270832E7,9.3270832E7,9.3270848E7,9.3270848E7,9.3270896E7,9.3270928E7,63.991837,-22.605427,146.2297,0.103538,4.933215,180.0132,4.275697,2.608417,0.049248,7.8E-5,7.968145,74.96868,-112.14847,9.775348,32.584442,1.5E-5,0.0,-109.999855,-110.0,146.2297,1.1E-5,0.012277,282.89496,158.026,-0.018289,-1.48324,-1598.2916,390.48978
0.0,0.0,0.0,0.0,0.0,0.0,0.2,9.3270832E7,9.3270832E7,9.3270848E7,9.3270848E7,9.3270896E7,9.3270928E7,63.991837,-22.605427,146.22974,0.103325,4.931011,180.01318,3.627637,2.606412,0.048666,7.5E-5,7.968314,72.2661,-114.85105,9.485213,31.61726,3.6E-5,1.0E-6,-109.999855,-110.0,146.22974,1.1E-5,0.011976,282.89462,160.68517,-0.018266,-1.41156,-1603.6754,404.3088
0.0,0.0,0.0,0.0,0.0,0.0,0.2,9.3270832E7,9.3270832E7,9.3270848E7,9.3270848E7,9.3270896E7,9.3270928E7,63.991837,-22.605427,146.22975,0.103117,4.928852,180.01317,2.978669,2.604734,0.048341,7.3E-5,7.96846,69.56351,-117.55365,9.190214,30.633783,8.0E-5,2.0E-6,-119.999855,-120.0,146.22975,1.1E-5,0.011741,282.89398,163.35487,-0.018242,-1.342895,-1608.6865,417.05148
0.0,0.0,0.0,0.0,0.0,0.0,0.2,9.3270832E7,9.3270832E7,9.3270848E7,9.3270848E7,9.3270896E7,9.3270928E7,63.991837,-22.605427,146.22977,0.102917,4.926753,180.01315,2.328958,2.603384,0.048171,7.0E-5,7.968581,66.86089,-120.25626,8.891562,29.637993,1.65E-4,3.0E-6,-119.999855,-120.0,146.22977,1.1E-5,0.011372,282.89267,166.02962,-0.018215,-1.277354,-1613.3523,428.78793
0.0,0.0,0.0,0.0,0.0,0.0,0.2,9.3270832E7,9.3270832E7,9.3270848E7,9.3270848E7,9.3270896E7,9.3270928E7,63.991837,-22.605427,146.22978,0.10273,4.924729,180.01314,1.678665,2.602365,0.048183,6.8E-5,7.968679,64.15826,-122.95889,8.590384,28.633541,3.24E-4,7.0E-6,-119.999855,-120.0,146.22978,1.0E-5,0.010802,282.89026,168.70403,-0.018187,-1.214944,-1617.698,439.59467
0.0,0.0,0.0,0.0,0.0,0.0,0.2,9.3270832E7,9.3270832E7,9.3270848E7,9.3270848E7,9.3270896E7,9.3270928E7,63.991837,-22.605427,146.22981,0.102557,4.922788,180.01312,1.027927,2.601678,0.048319,6.5E-5,7.968754,61.455612,-125.66154,8.287739,27.623785,6.08E-4,1.3E-5,-119.999855,-120.0,146.22981,1.0E-5,0.010399,282.88593,171.37279,-0.018158,-1.155577,-1621.7467,449.53415
0.0,0.0,0.0,0.0,0.0,0.0,0.2,9.3270832E7,9.3270832E7,9.3270848E7,9.3270848E7,9.3270896E7,9.3270928E7,63.991837,-22.605427,146.22983,0.102397,4.920937,180.0131,0.376905,2.601324,0.04855,6.2E-5,7.968806,58.75295,-128.3642,7.984628,26.611807,0.001093,2.3E-5,-129.99986,-130.0,146.22983,1.0E-5,0.009929,282.87854,174.03073,-0.018129,-1.09911,-1625.5194,458.6654
0.0,0.0,0.0,0.0,0.0,0.0,0.2,9.3270832E7,9.3270832E7,9.3270848E7,9.3270848E7,9.3270896E7,9.3270928E7,63.991837,-22.605427,146.22984,0.102252,4.91918,180.01309,-0.274233,2.601304,0.048929,5.9E-5,7.968835,56.05027,-131.06688,7.682015,25.600445,0.001894,3.9E-5,-129.99986,-130.0,146.22984,1.0E-5,0.009393,282.86633,176.6728,-0.018101,-1.045402,-1629.0359,467.04495
0.0,0.0,0.0,0.0,0.0,0.0,0.2,9.3270832E7,9.3270832E7,9.3270848E7,9.3270848E7,9.3270896E7,9.3270928E7,63.991837,-22.605427,146.22986,0.102121,4.917526,180.01308,-0.925323,2.601616,0.049545,5.6E-5,7.968842,53.347576,-133.76958,7.380845,24.592293,0.003177,6.6E-5,-129.99986,-130.0,146.22986,1.0E-5,0.008822,282.84674,179.2941,-0.018072,-0.994319,-1632.314,474.72653
0.0,0.0,0.0,0.0,0.0,0.0,0.2,9.3270832E7,9.3270832E7,9.3270848E7,9.3270848E7,9.3270896E7,9.3270928E7,63.991837,-22.605427,146.22987,0.102004,4.915979,180.01306,-1.576435,2.602303,0.05718,6.4E-5,7.968831,50.644863,-136.47229,7.081514,23.587904,0.005176,1.08E-4,-129.99986,-130.0,146.22987,9.0E-6,0.009158,282.81625,181.88982,-0.018045,-0.945731,-1635.3704,498.44162
0.0,0.0,0.0,0.0,0.0,0.0,0.2,9.3270832E7,9.3270832E7,9.3270848E7,9.3270848E7,9.3270896E7,9.3270928E7,63.991837,-22.605427,146.22989,0.10171,4.91373,180.01305,-2.229822,2.604077,0.062627,1.5E-4,7.956828,47.936493,-139.18066,6.761605,22.511322,0.008259,1.71E-4,-139.99986,-140.0,146.22989,9.0E-6,0.019758,282.7692,184.45535,-0.018114,-0.899526,-1638.417,568.54626
0.0,0.0,0.0,0.0,0.0,0.0,0.2,9.3270832E7,9.3270832E7,9.3270848E7,9.3270848E7,9.3270896E7,9.3270928E7,63.991837,-22.605427,146.22993,0.101011,4.909221,180.01299,-2.88201,2.606508,0.05631,2.37E-4,7.965763,45.237415,-141.87973,6.413873,21.336176,0.013101,2.71E-4,-139.99986,-140.0,146.22993,1.3E-5,0.033813,282.69522,186.98619,-0.018186,-0.855594,-1640.917,632.54
0.0,0.0,0.0,0.0,0.0,0.0,0.2,9.3270832E7,9.3270832E7,9.3270848E7,9.3270848E7,9.3270896E7,9.3270928E7,63.991837,-22.605427,146.23001,0.099968,4.902249,180.0129,-3.532188,2.609164,0.052597,3.06E-4,7.968275,42.535973,-144.58118,6.046781,20.087118,0.020774,4.28E-4,-139.99986,-140.0,146.23001,7.8E-5,0.046057,282.57782,189.47803,-0.018211,-0.813822,-1643.341,689.936
0.0,0.0,0.0,0.0,0.0,0.0,0.2,9.3270832E7,9.3270832E7,9.3270848E7,9.3270848E7,9.3270896E7,9.3270928E7,63.991837,-22.605427,146.23009,0.098681,4.893266,180.01279,-4.180486,2.611902,0.050337,3.53E-4,7.969207,39.8337,-147.28345,5.66877,18.78682,0.032927,6.75E-4,-139.99986,-140.0,146.23009,1.59E-4,0.05488,282.3915,191.9267,-0.018187,-0.774101,-1645.6334,740.58704
0.0,0.0,0.0,0.0,0.0,0.0,0.2,9.3270832E7,9.3270832E7,9.3270848E7,9.3270848E7,9.3270896E7,9.3270928E7,63.991837,-22.605427,146.2302,0.097245,4.882915,180.01266,-4.827073,2.614697,0.048796,3.77E-4,7.969519,37.13113,-149.98602,5.288603,17.456291,0.052033,0.001057,-149.99986,-150.0,146.2302,2.51E-4,0.060046,282.09787,194.3282,-0.018119,-0.736326,-1647.7822,784.58734
0.0,0.0,0.0,0.0,0.0,0.0,0.2,9.3270832E7,9.3270832E7,9.3270848E7,9.3270848E7,9.3270896E7,9.3270928E7,63.991837,-22.605427,146.23029,0.095744,4.87261,180.0125,-5.466927,2.620177,0.03112,3.87E-4,7.922428,34.392586,-152.72456,4.916662,16.118263,0.081676,0.001643,-149.99986,-150.0,146.23029,3.64E-4,0.055014,281.6409,196.67873,-0.017998,-0.700407,-1651.1462,822.19904
0.0,0.0,0.0,0.0,0.0,0.0,0.2,9.3270832E7,9.3270832E7,9.3270848E7,9.3270848E7,9.3270896E7,9.3270928E7,63.991837,-22.605427,146.23036,0.094242,4.864864,180.01233,-6.093245,2.630264,0.017262,4.21E-4,7.95003,31.7131,-155.40405,4.568974,14.810056,0.126714,0.00252,-149.99986,-150.0,146.23036,5.73E-4,0.046292,280.94443,198.97462,-0.017916,-0.666243,-1652.0216,853.7979
0.0,0.0,0.0,0.0,0.0,0.0,0.2,9.3270832E7,9.3270832E7,9.3270848E7,9.3270848E7,9.3270896E7,9.3270928E7,63.991837,-22.605427,146.23044,0.092784,4.85965,180.01208,-6.705065,2.644353,0.012232,5.22E-4,7.967554,29.018515,-158.09863,4.256266,13.547073,0.193283,0.003798,-159.99986,-160.0,146.23044,9.54E-4,0.040355,279.91162,201.21243,-0.017403,-0.63376,-1653.426,879.8289
0.0,0.0,0.0,0.0,0.0,0.0,0.2,9.3270832E7,9.3270832E7,9.3270848E7,9.3270848E7,9.3270896E7,9.3270928E7,63.991837,-22.605427,146.2305,0.091438,4.856328,180.01181,-7.3016,2.661835,0.00994,6.58E-4,7.976855,26.318598,-160.79855,3.987275,12.333257,0.28898,0.005607,-159.99986,-160.0,146.2305,0.001573,0.040086,278.42136,203.3889,-0.017146,-0.602865,-1654.9425,900.7762
0.0,0.0,0.0,0.0,0.0,0.0,0.2,9.3270832E7,9.3270832E7,9.3270848E7,9.3270848E7,9.3270896E7,9.3270928E7,63.991837,-22.605427,146.23058,0.090219,4.854311,180.0115,-7.88173,2.682108,0.00843,7.93E-4,7.983726,23.616793,-163.50037,3.771803,11.171668,0.422733,0.008101,-159.99986,-160.0,146.23058,0.002481,0.042166,276.32867,205.50093,-0.016714,-0.573479,-1656.4291,917.1385
0.0,0.0,0.0,0.0,0.0,0.0,0.2,9.3270832E7,9.3270832E7,9.3270848E7,9.3270848E7,9.3270896E7,9.3270928E7,63.991837,-22.605427,146.23064,0.089156,4.853162,180.0111,-8.444659,2.704597,0.008158,0.001022,7.990128,20.914314,-166.20284,3.620279,10.064701,0.604301,0.01144,-159.99986,-160.0,146.23064,0.003718,0.038744,273.47015,207.5456,-0.017077,-0.545545,-1657.8402,929.4116
0.0,0.0,0.0,0.0,0.0,0.0,0.2,9.3270832E7,9.3270832E7,9.3270848E7,9.3270848E7,9.3270896E7,9.3270928E7,63.991837,-22.605427,146.23071,0.088287,4.852579,180.01074,-8.995191,2.728804,0.007769,0.001235,7.996649,18.211594,-168.90556,3.542753,9.014215,0.843223,0.015782,-169.99986,-170.0,146.23071,0.005312,0.047466,269.67697,209.52017,-0.017123,-0.518964,-1659.164,938.07587
0.0,0.0,0.0,0.0,0.0,0.0,0.2,9.3270832E7,9.3270832E7,9.3270848E7,9.3270848E7,9.3270896E7,9.3270928E7,63.991837,-22.605427,146.23079,0.087672,4.852366,180.01042,-9.44247,2.749928,0.00753,0.001418,8.002264,15.959254,-171.1579,3.540543,8.182983,1.091724,0.020253,-169.99986,-170.0,146.23079,0.006926,0.053404,265.6916,211.11032,-0.017424,-0.497811,-1660.2001,942.8694
0.0,0.0,0.0,0.0,0.0,0.0,0.2,9.3270832E7,9.3270832E7,9.3270848E7,9.3270848E7,9.3270896E7,9.3270928E7,63.991837,-22.605427,146.23091,0.087,4.852295,180.00993,-10.059041,2.780517,0.007319,0.001688,7.968804,12.780608,-174.33655,3.637075,7.087931,1.519056,0.027867,-169.99986,-170.0,146.23091,0.009631,0.05971,258.73346,213.24924,-0.017741,-0.469637,-1662.4492,946.3732
0.0,0.0,0.0,0.0,0.0,0.0,0.2,9.3270832E7,9.3270832E7,9.3270848E7,9.3270848E7,9.3270896E7,9.3270928E7,63.991837,-22.605427,146.23102,0.086593,4.852352,180.00948,-10.575779,2.80725,0.007166,0.001916,8.001817,10.094161,-177.023,3.808397,6.213711,1.954953,0.035567,-169.99986,-170.0,146.23102,0.012364,0.068968,251.48161,214.99922,-0.018085,-0.446774,-1662.8257,946.828
0.0,0.0,0.0,0.0,0.0,0.0,0.2,9.3270832E7,9.3270832E7,9.3270848E7,9.3270848E7,9.3270896E7,9.3270928E7,63.991837,-22.605427,146.23116,0.086331,4.852433,180.0088,-11.081109,2.834112,0.007146,0.002172,8.018997,7.397071,-179.72008,4.047085,5.399204,2.440551,0.04409,-179.99986,-180.0,146.23116,0.015475,0.074705,243.18495,216.6702,-0.018561,-0.425055,-1663.5862,945.3123
0.0,0.0,0.0,0.0,0.0,0.0,0.2,9.3270832E7,9.3270832E7,9.3270848E7,9.3270848E7,9.3270896E7,9.3270928E7,63.991837,-22.605427,146.2313,0.086213,4.852493,180.00813,-11.578696,2.860863,0.007034,0.002392,8.029551,4.696233,-182.42091,4.327737,4.644273,2.950356,0.053001,-179.99986,-180.0,146.2313,0.018951,0.082252,234.16757,218.26039,-0.019101,-0.404393,-1664.4377,942.15314
0.0,0.0,0.0,0.0,0.0,0.0,0.2,9.3270832E7,9.3270832E7,9.3270848E7,9.3270848E7,9.3270896E7,9.3270928E7,63.991837,-22.605427,146.23145,0.086216,4.852515,180.00745,-12.069396,2.887293,0.006994,0.002624,8.037645,1.994075,-185.12308,4.615433,3.948481,3.449402,0.061711,-179.99986,-180.0,146.23145,0.022776,0.092081,224.93755,219.76828,-0.019631,-0.384742,-1665.28,937.64465
0.0,0.0,0.0,0.0,0.0,0.0,0.2,9.3270832E7,9.3270832E7,9.3270848E7,9.3270848E7,9.3270896E7,9.3270928E7,63.991837,-22.605427,146.23161,0.086316,4.852483,180.00673,-12.55442,2.913234,0.006982,0.002856,8.044712,-0.70855,-187.8257,4.871556,3.311215,3.899065,0.069579,-189.99986,-190.0,146.23161,0.02693,0.099662,216.13324,221.1925,-0.020161,-0.366056,-1666.0806,932.04956
0.0,0.0,0.0,0.0,0.0,0.0,0.2,9.3270832E7,9.3270832E7,9.3270848E7,9.3270848E7,9.3270896E7,9.3270928E7,63.991837,-22.605427,146.2318,0.086518,4.852393,180.0059,-13.033891,2.938544,0.006924,0.003056,8.051224,-3.411341,-190.52849,5.063042,2.731873,4.2663,0.076066,-189.99986,-190.0,146.2318,0.031391,0.108317,208.40508,222.53188,-0.020669,-0.348296,-1666.8301,925.60114
0.0,0.0,0.0,0.0,0.0,0.0,0.2,9.3270832E7,9.3270832E7,9.3270848E7,9.3270848E7,9.3270896E7,9.3270928E7,63.991837,-22.605427,146.232,0.086796,4.852245,180.00505,-13.503931,2.963063,0.006919,0.003267,8.057323,-6.114192,-193.23134,5.171932,2.210025,4.533193,0.080894,-189.99986,-190.0,146.232,0.036136,0.114858,202.25557,223.78542,-0.021063,-0.331414,-1667.528,918.50525
0.0,0.0,0.0,0.0,0.0,0.0,0.2,9.3270832E7,9.3270832E7,9.3270848E7,9.3270848E7,9.3270896E7,9.3270928E7,63.991837,-22.605427,146.2322,0.087133,4.852042,180.00414,-13.977324,2.986873,0.006904,0.003461,8.063045,-8.817067,-195.93422,5.20051,1.745514,4.70209,0.084117,-189.99986,-190.0,146.2322,0.041138,0.120359,197.89717,224.95236,-0.02208,-0.315359,-1668.1759,910.9423
0.0,0.0,0.0,0.0,0.0,0.0,0.2,9.3270832E7,9.3270832E7,9.3270848E7,9.3270848E7,9.3270896E7,9.3270928E7,63.991837,-22.605427,146.2324,0.087522,4.85179,180.00316,-14.447396,3.009842,0.006886,0.00364,8.068386,-11.519954,-198.6371,5.168477,1.338417,4.792775,0.086078,-199.99986,-200.0,146.2324,0.046373,0.129349,195.20213,226.0321,-0.023054,-0.300097,-1668.7767,903.0695
0.0,0.0,0.0,0.0,0.0,0.0,0.2,9.3270832E7,9.3270832E7,9.3270848E7,9.3270848E7,9.3270896E7,9.3270928E7,63.991837,-22.605427,146.23264,0.087959,4.851501,180.00215,-14.916417,3.031971,0.006874,0.003809,8.073341,-14.222847,-201.34,5.103288,0.98889,4.832792,0.087236,-199.99986,-200.0,146.23264,0.051813,0.131597,193.78265,227.02423,-0.024029,-0.285584,-1669.3333,895.02295
0.0,0.0,0.0,0.0,0.0,0.0,0.2,9.3270832E7,9.3270832E7,9.3270848E7,9.3270848E7,9.3270896E7,9.3270928E7,63.991837,-22.605427,146.23288,0.088433,4.851193,180.00113,-15.384053,3.053248,0.006867,0.003967,8.077905,-16.925747,-204.0429,5.029396,0.697004,4.846694,0.087999,-199.99986,-200.0,146.23288,0.057434,0.137534,193.16322,227.92851,-0.024961,-0.271785,-1669.8483,886.91943
0.0,0.0,0.0,0.0,0.0,0.0,0.2,9.3270832E7,9.3270832E7,9.3270848E7,9.3270848E7,9.3270896E7,9.3270928E7,63.991833,-22.605427,146.23312,0.088925,4.850852,180.00006,-15.850864,3.073685,0.006861,0.004113,8.082075,-19.628654,-206.7458,4.962384,0.46265,4.850173,0.088611,-199.99986,-200.0,146.23312,0.063209,0.144042,192.9461,228.7449,-0.025845,-0.258664,-1670.3245,878.8585
0.0,0.0,0.0,0.0,0.0,0.0,0.2,9.3270832E7,9.3270832E7,9.3270848E7,9.3270848E7,9.3270896E7,9.3270928E7,63.991833,-22.605427,146.23338,0.089424,4.850488,179.999,-16.317083,3.093306,0.006861,0.00425,8.085855,-22.331568,-209.44872,4.909454,0.285564,4.850539,0.089177,-209.99986,-210.0,146.23338,0.069115,0.150684,192.88673,229.47351,-0.026676,-0.246185,-1670.7642,870.924
0.0,0.0,0.0,0.0,0.0,0.0,0.2,9.3270832E7,9.3270832E7,9.3270848E7,9.3270848E7,9.3270896E7,9.3270928E7,63.991833,-22.605427,146.23364,0.089931,4.850118,179.99791,-16.782944,3.112144,0.006846,0.004365,8.042199,-25.070366,-212.18752,4.872945,0.165393,4.850244,0.089723,-209.99986,-210.0,146.23364,0.075129,0.155179,192.87398,230.11464,-0.02745,-0.234319,-1672.5103,863.18555
0.0,0.0,0.0,0.0,0.0,0.0,0.2,9.3270832E7,9.3270832E7,9.3270848E7,9.3270848E7,9.3270896E7,9.3270928E7,63.991833,-22.605427,146.23392,0.09044,4.849746,179.99681,-17.248459,3.130238,0.006859,0.004487,8.070449,-27.750046,-214.8672,4.853327,0.101782,4.849868,0.090251,-209.99986,-210.0,146.23392,0.081227,0.159875,192.87119,230.66875,-0.028178,-0.223034,-1671.8992,855.7011
0.0,0.0,0.0,0.0,0.0,0.0,0.2,9.3270832E7,9.3270832E7,9.3270848E7,9.3270848E7,9.3270896E7,9.3270928E7,63.991833,-22.605427,146.23419,0.090958,4.84937,179.9957,-17.714039,3.14764,0.006858,0.004589,8.087227,-30.4448,-217.56195,4.849473,0.090797,4.849473,0.090797,-219.99986,-220.0,146.23419,0.087389,0.159171,192.8699,231.13646,-0.02885,-0.212303,-1671.9036,848.5164
0.0,0.0,0.0,0.0,0.0,0.0,0.2,9.3270832E7,9.3270832E7,9.3270848E7,9.3270848E7,9.3270896E7,9.3270928E7,63.991833,-22.605427,146.23447,0.091465,4.849005,179.99458,-18.179491,3.164394,0.006872,0.004691,8.094541,-33.144867,-220.26202,4.849087,0.09133,4.849087,0.09133,-219.99986,-220.0,146.23447,0.093596,0.162693,192.86871,231.51857,-0.029477,-0.202097,-1672.1069,841.66766
0.0,0.0,0.0,0.0,0.0,0.0,0.2,9.3270832E7,9.3270832E7,9.3270848E7,9.3270848E7,9.3270896E7,9.3270928E7,63.991833,-22.605427,146.23476,0.091966,4.848657,179.99347,-18.644938,3.180557,0.006853,0.00476,8.098288,-35.84681,-222.96396,4.848722,0.091853,4.848722,0.091853,-219.99986,-220.0,146.23476,0.099828,0.168865,192.86754,231.81601,-0.030062,-0.192392,-1672.3634,835.1822
0.0,0.0,0.0,0.0,0.0,0.0,0.2,9.3270832E7,9.3270832E7,9.3270848E7,9.3270848E7,9.3270896E7,9.3270928E7,63.991833,-22.605427,146.23505,0.092455,4.84832,179.99234,-19.110394,3.196185,0.006834,0.00482,8.100584,-38.54942,-225.66656,4.848375,0.092356,4.848375,0.092356,-219.99986,-220.0,146.23505,0.106071,0.170442,192.8664,232.02988,-0.030613,-0.183161,-1672.623,829.0794
0.0,0.0,0.0,0.0,0.0,0.0,0.2,9.3270832E7,9.3270832E7,9.3270848E7,9.3270848E7,9.3270896E7,9.3270928E7,63.991833,-22.605427,146.23535,0.092926,4.847995,179.9912,-19.575613,3.211329,0.006855,0.004899,8.102188,-41.252274,-228.36943,4.848048,0.09283,4.848048,0.09283,-229.99986,-230.0,146.23535,0.112307,0.17279,192.86525,232.16139,-0.031122,-0.174383,-1672.8691,823.372
0.0,0.0,0.0,0.0,0.0,0.0,0.2,9.3270832E7,9.3270832E7,9.3270848E7,9.3270848E7,9.3270896E7,9.3270928E7,63.991833,-22.605427,146.23564,0.093383,4.847692,179.99007,-20.040604,3.226046,0.006855,0.004956,8.064537,-43.99792,-231.11507,4.847742,0.093289,4.847742,0.093289,-229.99986,-230.0,146.23564,0.118524,0.175037,192.86412,232.21193,-0.031588,-0.166036,-1674.7256,818.0662
0.0,0.0,0.0,0.0,0.0,0.0,0.2,9.3270832E7,9.3270832E7,9.3270848E7,9.3270848E7,9.3270896E7,9.3270928E7,63.991833,-22.605427,146.23595,0.093822,4.847411,179.98892,-20.505388,3.240388,0.006855,0.005005,8.078439,-46.673237,-233.79039,4.847457,0.093731,4.847457,0.093731,-229.99986,-230.0,146.23595,0.124708,0.175406,192.86298,232.18298,-0.032014,-0.158097,-1673.7609,813.1641
0.0,0.0,0.0,0.0,0.0,0.0,0.2,9.3270832E7,9.3270832E7,9.3270848E7,9.3270848E7,9.3270896E7,9.3270928E7,63.991833,-22.605427,146.23625,0.094238,4.847155,179.98778,-20.969698,3.254403,0.006862,0.005054,8.048725,-49.40239,-236.51955,4.847197,0.094151,4.847197,0.094151,-229.99986,-230.0,146.23625,0.130849,0.177989,192.86185,232.0762,-0.032415,-0.150546,-1674.8833,808.66187
0.0,0.0,0.0,0.0,0.0,0.0,0.2,9.3270832E7,9.3270832E7,9.3270848E7,9.3270848E7,9.3270896E7,9.3270928E7,63.991833,-22.605427,146.23657,0.094629,4.846919,179.98665,-21.43333,3.26814,0.00685,0.005081,8.080281,-52.078735,-239.19589,4.846958,0.094546,4.846958,0.094546,-239.99986,-240.0,146.23657,0.136936,0.180136,192.8607,231.89334,-0.032777,-0.143365,-1673.9352,804.55304
0.0,0.0,0.0,0.0,0.0,0.0,0.2,9.3270832E7,9.3270832E7,9.3270848E7,9.3270848E7,9.3270896E7,9.3270928E7,63.991833,-22.605427,146.23688,0.094998,4.846707,179.9855,-21.896189,3.281649,0.00684,0.005105,8.05781,-54.815086,-241.93224,4.846742,0.094917,4.846742,0.094917,-239.99986,-240.0,146.23688,0.14296,0.181143,192.85957,231.63626,-0.033108,-0.136535,-1675.3376,800.8267
0.0,0.0,0.0,0.0,0.0,0.0,0.2,9.3270832E7,9.3270832E7,9.3270848E7,9.3270848E7,9.3270896E7,9.3270928E7,63.991833,-22.605427,146.23718,0.095343,4.846514,179.98438,-22.358126,3.294831,0.006864,0.005149,5.906752,-56.53915,-243.6563,4.846546,0.095266,4.846546,0.095266,-239.99986,-240.0,146.23718,0.148914,0.182082,192.85843,231.30695,-0.033414,-0.13004,-1636.5166,797.47485
0.0,0.0,0.0,0.0,0.0,0.0,0.2,9.3270832E7,9.3270832E7,9.3270848E7,9.3270848E7,9.3270896E7,9.3270928E7,63.991833,-22.605427,146.2375,0.095666,4.846348,179.98323,-22.818869,3.307849,0.006837,0.005151,4.26852,-57.151546,-244.26869,4.846376,0.095594,4.846376,0.095594,-239.99986,-240.0,146.2375,0.15479,0.184497,192.8573,230.90747,-0.033697,-0.123862,-1553.6981,794.48737
0.0,0.0,0.0,0.0,0.0,0.0,0.2,9.3270832E7,9.3270832E7,9.3270848E7,9.3270848E7,9.3270896E7,9.3270928E7,63.991833,-22.605427,146.23782,0.095969,4.846204,179.9821,-23.278208,3.320764,0.006864,0.005188,3.507264,-57.372772,-244.48993,4.846228,0.095899,4.846228,0.095899,-239.99986,-240.0,146.23782,0.160584,0.181847,192.85616,230.44002,-0.033943,-0.117987,-1454.9958,791.84607
0.0,0.0,0.0,0.0,0.0,0.0,0.2,9.3270832E7,9.3270832E7,9.3270848E7,9.3270848E7,9.3270896E7,9.3270928E7,63.991833,-22.605427,146.23813,0.096258,4.846083,179.98096,-23.736095,3.333619,0.00686,0.0052,3.194624,-57.456074,-244.57323,4.846103,0.096191,4.846103,0.096191,-239.99986,-240.0,146.23813,0.16629,0.184464,192.85503,229.90688,-0.03418,-0.112399,-1350.3888,789.53143
0.0,0.0,0.0,0.0,0.0,0.0,0.2,9.3270832E7,9.3270832E7,9.3270848E7,9.3270848E7,9.3270896E7,9.3270928E7,63.991833,-22.605427,146.23845,0.09653,4.845979,179.97983,-24.192144,3.346445,0.006875,0.005222,3.075561,-57.49095,-244.60811,4.845996,0.096465,4.845996,0.096465,-239.99986,-240.0,146.23845,0.171905,0.182484,192.85388,229.3104,-0.034385,-0.107084,-1243.5651,787.523
0.0,0.0,0.0,0.0,0.0,0.0,0.2,9.3270832E7,9.3270832E7,9.3270848E7,9.3270848E7,9.3270896E7,9.3270928E7,63.991833,-22.605427,146.23877,0.096783,4.845888,179.9787,-24.646273,3.359278,0.006875,0.005231,3.03113,-57.5088,-244.62595,4.845902,0.096721,4.845902,0.096721,-239.99986,-240.0,146.23877,0.177425,0.18282,192.85275,228.653,-0.034577,-0.10203,-1135.8986,785.79974
0.0,0.0,0.0,0.0,0.0,0.0,0.2,9.3270832E7,9.3270832E7,9.3270848E7,9.3270848E7,9.3270896E7,9.3270928E7,63.99183,-22.605427,146.23909,0.097029,4.845825,179.97755,-25.098213,3.372145,0.006877,0.005239,3.013822,-57.520657,-244.6378,4.845835,0.096969,4.845835,0.096969,-239.99986,-240.0,146.23909,0.182849,0.183625,192.85162,227.93721,-0.034749,-0.097223,-1027.9088,784.34045
0.0,0.0,0.0,0.0,0.0,0.0,0.2,9.3270832E7,9.3270832E7,9.3270848E7,9.3270848E7,9.3270896E7,9.3270928E7,63.99183,-22.605427,146.23941,0.09726,4.845771,179.97643,-25.547863,3.385077,0.006873,0.005241,3.005704,-57.530563,-244.64772,4.84578,0.097202,4.84578,0.097202,-239.99986,-240.0,146.23941,0.188175,0.184028,192.85048,227.16559,-0.034918,-0.092651,-919.80524,783.1237
0.0,0.0,0.0,0.0,0.0,0.0,0.2,9.3270832E7,9.3270832E7,9.3270848E7,9.3270848E7,9.3270896E7,9.3270928E7,63.99183,-22.605427,146.23973,0.097486,4.845738,179.97528,-25.99502,3.398097,0.006869,0.00524,3.001331,-57.5395,-244.65665,4.845742,0.097429,4.845742,0.097429,-239.99986,-240.0,146.23973,0.193401,0.187348,192.84935,226.34079,-0.035056,-0.088303,-811.6394,782.1287
0.0,0.0,0.0,0.0,0.0,0.0,0.2,9.3270832E7,9.3270832E7,9.3270848E7,9.3270848E7,9.3270896E7,9.3270928E7,63.99183,-22.605427,146.24005,0.097688,4.845723,179.97415,-26.119682,3.401823,0.006872,0.005244,2.998581,-57.54805,-244.6652,4.845726,0.097635,4.845726,0.097635,-239.99986,-240.0,146.24005,0.198528,0.185202,192.84822,225.46548,-0.0352,-0.084168,-703.44855,781.33484
0.0,0.0,0.0,0.0,0.0,0.0,0.2,9.3270832E7,9.3270832E7,9.3270848E7,9.3270848E7,9.3270896E7,9.3270928E7,63.99183,-22.605427,146.24036,0.097851,4.845697,179.973,-26.118435,3.401793,0.006857,0.005233,2.997167,-57.55631,-244.67346,4.845702,0.097806,4.845702,0.097806,-239.99986,-240.0,146.24036,0.203555,0.18396,192.84708,224.54242,-0.035336,-0.080236,-595.23804,780.72205
0.0,0.0,0.0,0.0,0.0,0.0,0.2,9.3270832E7,9.3270832E7,9.3270848E7,9.3270848E7,9.3270896E7,9.3270928E7,63.99183,-22.605427,146.24068,0.097978,4.845684,179.97188,-26.11763,3.401704,0.006834,0.005216,2.996817,-57.56419,-244.68134,4.845685,0.097939,4.845685,0.097939,-239.99986,-240.0,146.24068,0.208483,0.182719,192.84595,223.57436,-0.035458,-0.076497,-486.99496,780.2712
0.0,0.0,0.0,0.0,0.0,0.0,0.2,9.3270832E7,9.3270832E7,9.3270848E7,9.3270848E7,9.3270896E7,9.3270928E7,63.99183,-22.605427,146.241,0.098075,4.845657,179.97073,-26.1172,3.401573,0.006845,0.005224,2.996724,-57.57207,-244.68922,4.845663,0.098041,4.845663,0.098041,-239.99986,-240.0,146.241,0.213313,0.186577,192.8448,222.56412,-0.035563,-0.072942,-378.7654,779.96387
0.0,0.0,0.0,0.0,0.0,0.0,0.2,9.3270832E7,9.3270832E7,9.3270848E7,9.3270848E7,9.3270896E7,9.3270928E7,63.99183,-22.605427,146.24132,0.09814,4.845627,179.96959,-26.117018,3.401414,0.00685,0.005227,2.99621,-57.580048,-244.6972,4.845632,0.098113,4.845632,0.098113,-239.99986,-240.0,146.24132,0.218046,0.181109,192.84366,221.51453,-0.035659,-0.069562,-270.57697,779.7826
0.0,0.0,0.0,0.0,0.0,0.0,0.2,9.3270832E7,9.3270832E7,9.3270848E7,9.3270848E7,9.3270896E7,9.3270928E7,63.99183,-22.605427,146.24164,0.098187,4.845617,179.96844,-26.116762,3.401233,0.006844,0.005221,2.996278,-57.588028,-244.70518,4.845618,0.098161,4.845618,0.098161,-239.99986,-240.0,146.24164,0.222683,0.181679,192.84251,220.42845,-0.035741,-0.066348,-162.46738,779.711
0.0,0.0,0.0,0.0,0.0,0.0,0.2,9.3270832E7,9.3270832E7,9.3270848E7,9.3270848E7,9.3270896E7,9.3270928E7,63.99183,-22.605427,146.24194,0.098226,4.8456,179.9673,-26.11661,3.40105,0.006838,0.005215,2.995976,-57.59578,-244.71294,4.845603,0.098202,4.845603,0.098202,-239.99986,-240.0,146.24194,0.227227,0.182619,192.84138,219.30876,-0.035811,-0.063291,-54.463123,779.7339
0.0,0.0,0.0,0.0,0.0,0.0,0.2,9.3270832E7,9.3270832E7,9.3270848E7,9.3270848E7,9.3270896E7,9.3270928E7,63.99183,-22.605427,146.24226,0.098244,4.845591,179.96616,-26.116463,3.400872,0.006834,0.005211,2.996027,-57.603615,-244.72076,4.845592,0.098223,4.845592,0.098223,-239.99986,-240.0,146.24226,0.231678,0.185503,192.84024,218.15833,-0.035885,-0.060384,-17.47805,779.83685
