aileron,elevator,rudder,flaps,slats,speedbrake,throttle,engine-pump0,engine-pump1,electric-pump0,electric-pump1,external-power,APU-generator,latitude-deg,longitude-deg,altitude-ft,roll-deg,pitch-deg,heading-deg,side-slip-deg,airspeed-kt,glideslope,vertical-speed-fps,airspeed-indicator_indicated-speed-kt,altimeter_indicated-altitude-ft,altimeter_pressure-alt-ft,attitude-indicator_indicated-pitch-deg,attitude-indicator_indicated-roll-deg,attitude-indicator_internal-pitch-deg,attitude-indicator_internal-roll-deg,encoder_indicated-altitude-ft,encoder_pressure-alt-ft,gps_indicated-altitude-ft,gps_indicated-ground-speed-kt,gps_indicated-vertical-speed,indicated-heading-deg,magnetic-compass_indicated-heading-deg,slip-skid-ball_indicated-slip-skid,turn-indicator_indicated-turn-rate,vertical-speed-indicator_indicated-speed-fpm,engine_rpm
0.0,0.0,0.0,0.0,0.0,0.0,1.0,1.95707696E8,1.95707696E8,1.95707712E8,1.95707712E8,1.9570776E8,1.95707792E8,63.985043,-22.592484,-9999.0,0.0,0.424,270.02136,0.0,0.0,0.0,0.0,0.0,0.0,0.0,0.0,0.0,0.0,0.0,0.0,0.0,0.0,0.0,0.0,0.0,0.0,0.0,0.0,0.0,0.0
0.0,0.0,0.0,0.0,0.0,0.0,1.0,1.95707696E8,1.95707696E8,1.95707712E8,1.95707712E8,1.9570776E8,1.95707792E8,63.991837,-22.605425,-9999.0,0.0,0.424,180.01839,0.0,0.0,0.0,0.0,0.0,389.08878,1.193444,12.0,40.0,0.0,0.0,0.0,0.0,0.0,0.0,0.0,282.89813,0.0,0.0,0.0,0.0,0.0
0.0,0.0,0.0,0.0,0.0,0.0,1.0,1.95707696E8,1.95707696E8,1.95707712E8,1.95707712E8,1.9570776E8,1.95707792E8,63.991837,-22.605425,-9999.0,0.0,0.424,180.01839,0.0,0.0,0.0,0.0,0.0,389.08878,1.193444,12.0,40.0,0.0,0.0,0.0,0.0,0.0,0.0,0.0,282.89813,0.0,0.0,0.0,0.0,0.0
0.0,0.0,0.0,0.0,0.0,0.0,1.0,1.95707696E8,1.95707696E8,1.95707712E8,1.95707712E8,1.9570776E8,1.95707792E8,63.991837,-22.605425,-9999.0,0.0,0.424,180.01839,0.0,0.0,0.0,0.0,0.0,389.08878,1.193444,12.0,40.0,0.0,0.0,0.0,0.0,0.0,0.0,0.0,282.89813,0.0,0.0,0.0,0.0,0.0
-0.571429,0.0,0.0,0.0,0.0,0.0,1.0,1.95707696E8,1.95707696E8,1.95707712E8,1.95707712E8,1.9570776E8,1.95707792E8,63.991837,-22.605425,-9999.0,0.0,0.424,180.01839,0.0,0.0,0.0,0.0,0.0,389.08878,1.193444,12.0,40.0,0.0,0.0,0.0,0.0,0.0,0.0,0.0,282.89813,0.0,0.0,0.0,0.0,0.0
0.0,0.0,0.0,0.0,0.0,0.0,1.0,1.95707696E8,1.95707696E8,1.95707712E8,1.95707712E8,1.9570776E8,1.95707792E8,63.991837,-22.605425,-9999.0,0.0,0.424,180.01839,0.0,0.0,0.0,0.0,0.0,389.08878,1.193444,12.0,40.0,0.0,0.0,0.0,0.0,0.0,0.0,0.0,282.89813,0.0,0.0,0.0,0.0,0.0
-0.571429,0.0,0.0,0.0,0.0,0.0,1.0,1.95707696E8,1.95707696E8,1.95707712E8,1.95707712E8,1.9570776E8,1.95707792E8,63.991837,-22.605425,-9999.0,0.0,0.424,180.01839,0.0,0.0,0.0,0.0,0.0,389.08878,1.193444,12.0,40.0,0.0,0.0,0.0,0.0,0.0,0.0,0.0,282.89813,0.0,0.0,0.0,0.0,0.0
-0.571429,0.0,0.0,0.0,0.0,0.0,1.0,1.95707696E8,1.95707696E8,1.95707712E8,1.95707712E8,1.9570776E8,1.95707792E8,63.991837,-22.605425,-9999.0,0.0,0.424,180.01839,0.0,0.0,0.0,0.0,0.0,389.08878,1.193444,12.0,40.0,0.0,0.0,0.0,0.0,0.0,0.0,0.0,282.89813,0.0,0.0,0.0,0.0,0.0
-0.571429,0.0,0.0,0.0,0.0,0.0,1.0,1.95707696E8,1.95707696E8,1.95707712E8,1.95707712E8,1.9570776E8,1.95707792E8,63.991837,-22.605425,-9999.0,0.0,0.424,180.01839,0.0,0.0,0.0,0.0,0.0,389.08878,1.193444,12.0,40.0,0.0,0.0,0.0,0.0,0.0,0.0,0.0,282.89813,0.0,0.0,0.0,0.0,0.0
-0.571429,0.0,0.0,0.0,0.0,0.0,1.0,1.95707696E8,1.95707696E8,1.95707712E8,1.95707712E8,1.9570776E8,1.95707792E8,63.991837,-22.605425,-9999.0,0.0,0.424,180.01839,0.0,0.0,0.0,0.0,0.0,389.08878,1.193444,12.0,40.0,0.0,0.0,0.0,0.0,0.0,0.0,0.0,282.89813,0.0,0.0,0.0,0.0,0.0
-0.571429,0.0,0.0,0.0,0.0,0.0,1.0,1.95707696E8,1.95707696E8,1.95707712E8,1.95707712E8,1.9570776E8,1.95707792E8,63.991837,-22.605425,-9999.0,0.0,0.424,180.01839,0.0,0.0,0.0,0.0,0.0,389.08878,1.193444,12.0,40.0,0.0,0.0,0.0,0.0,0.0,0.0,0.0,282.89813,0.0,0.0,0.0,0.0,0.0
-0.571429,0.0,0.0,0.0,0.0,0.0,1.0,1.95707696E8,1.95707696E8,1.95707712E8,1.95707712E8,1.9570776E8,1.95707792E8,63.991837,-22.605425,-9999.0,0.0,0.424,180.01839,0.0,0.0,0.0,0.0,0.0,389.08878,1.193444,12.0,40.0,0.0,0.0,0.0,0.0,0.0,0.0,0.0,282.89813,0.0,0.0,0.0,0.0,0.0
-0.571429,0.0,0.0,0.0,0.0,0.0,1.0,1.95707696E8,1.95707696E8,1.95707712E8,1.95707712E8,1.9570776E8,1.95707792E8,63.991837,-22.605425,-9999.0,0.0,0.424,180.01839,0.0,0.0,0.0,0.0,0.0,389.08878,1.193444,12.0,40.0,0.0,0.0,0.0,0.0,0.0,0.0,0.0,282.89813,0.0,0.0,0.0,0.0,0.0
-0.571429,0.0,0.0,0.0,0.0,0.0,1.0,1.95707696E8,1.95707696E8,1.95707712E8,1.95707712E8,1.9570776E8,1.95707792E8,63.991837,-22.605425,-9999.0,0.0,0.424,180.01839,0.0,0.0,0.0,0.0,0.0,389.08878,1.193444,12.0,40.0,0.0,0.0,0.0,0.0,0.0,0.0,0.0,282.89813,0.0,0.0,0.0,0.0,0.0
-0.571429,0.0,0.0,0.0,0.0,0.0,1.0,1.95707696E8,1.95707696E8,1.95707712E8,1.95707712E8,1.9570776E8,1.95707792E8,63.991837,-22.605425,-9999.0,0.0,0.424,180.01839,0.0,0.0,0.0,0.0,0.0,389.08878,1.193444,12.0,40.0,0.0,0.0,0.0,0.0,0.0,0.0,0.0,282.89813,0.0,0.0,0.0,0.0,0.0
-0.571429,0.0,0.0,0.0,0.0,0.0,1.0,1.95707696E8,1.95707696E8,1.95707712E8,1.95707712E8,1.9570776E8,1.95707792E8,63.991837,-22.605425,-9999.0,0.0,0.424,180.01839,0.0,0.0,0.0,0.0,0.0,389.08878,1.193444,12.0,40.0,0.0,0.0,0.0,0.0,0.0,0.0,0.0,282.89813,0.0,0.0,0.0,0.0,0.0
-0.571429,0.0,0.0,0.0,0.0,0.0,1.0,1.95707696E8,1.95707696E8,1.95707712E8,1.95707712E8,1.9570776E8,1.95707792E8,63.991837,-22.605425,-9999.0,0.0,0.424,180.01839,0.0,0.0,0.0,0.0,0.0,389.08878,1.193444,12.0,40.0,0.0,0.0,0.0,0.0,0.0,0.0,0.0,282.89813,0.0,0.0,0.0,0.0,0.0
-0.571429,0.0,0.0,0.0,0.0,0.0,1.0,1.95707696E8,1.95707696E8,1.95707712E8,1.95707712E8,1.9570776E8,1.95707792E8,63.991837,-22.605425,-9999.0,0.0,0.424,180.01839,0.0,0.0,0.0,0.0,0.0,389.08878,1.193444,12.0,40.0,0.0,0.0,0.0,0.0,0.0,0.0,0.0,282.89813,0.0,0.0,0.0,0.0,0.0
-0.571429,0.0,0.0,0.0,0.0,0.0,1.0,1.95707696E8,1.95707696E8,1.95707712E8,1.95707712E8,1.9570776E8,1.95707792E8,63.991837,-22.605425,-9999.0,0.0,0.424,180.01839,0.0,0.0,0.0,0.0,0.0,389.08878,1.193444,12.0,40.0,0.0,0.0,0.0,0.0,0.0,0.0,0.0,282.89813,0.0,0.0,0.0,0.0,0.0
-0.571429,0.0,0.0,0.0,0.0,0.0,1.0,1.95707696E8,1.95707696E8,1.95707712E8,1.95707712E8,1.9570776E8,1.95707792E8,63.991837,-22.605425,-9999.0,0.0,0.424,180.01839,0.0,0.0,0.0,0.0,0.0,389.08878,1.193444,12.0,40.0,0.0,0.0,0.0,0.0,0.0,0.0,0.0,282.89813,0.0,0.0,0.0,0.0,0.0
-0.571429,0.0,0.0,0.0,0.0,0.0,1.0,1.95707696E8,1.95707696E8,1.95707712E8,1.95707712E8,1.9570776E8,1.95707792E8,63.991837,-22.605425,-9999.0,0.0,0.424,180.01839,0.0,0.0,0.0,0.0,0.0,389.08878,1.193444,12.0,40.0,0.0,0.0,0.0,0.0,0.0,0.0,0.0,282.89813,0.0,0.0,0.0,0.0,0.0
-0.571429,0.0,0.0,0.0,0.0,0.0,1.0,1.95707696E8,1.95707696E8,1.95707712E8,1.95707712E8,1.9570776E8,1.95707792E8,63.991837,-22.605425,-9999.0,0.0,0.424,180.01839,0.0,0.0,0.0,0.0,0.0,389.08878,1.193444,12.0,40.0,0.0,0.0,0.0,0.0,0.0,0.0,0.0,282.89813,0.0,0.0,0.0,0.0,0.0
-0.571429,0.0,0.0,0.0,0.0,0.0,1.0,1.95707696E8,1.95707696E8,1.95707712E8,1.95707712E8,1.9570776E8,1.95707792E8,63.991837,-22.605425,-9999.0,0.0,0.424,180.01839,0.0,0.0,0.0,0.0,0.0,389.08878,1.193444,12.0,40.0,0.0,0.0,0.0,0.0,0.0,0.0,0.0,282.89813,0.0,0.0,0.0,0.0,0.0
-0.571429,0.0,0.0,0.0,0.0,0.0,1.0,1.95707696E8,1.95707696E8,1.95707712E8,1.95707712E8,1.9570776E8,1.95707792E8,63.991837,-22.605425,-9999.0,0.0,0.424,180.01839,0.0,0.0,0.0,0.0,0.0,389.08878,1.193444,12.0,40.0,0.0,0.0,0.0,0.0,0.0,0.0,0.0,282.89813,0.0,0.0,0.0,0.0,0.0
-0.571429,0.0,0.0,0.0,0.0,0.0,1.0,1.95707696E8,1.95707696E8,1.95707712E8,1.95707712E8,1.9570776E8,1.95707792E8,63.991837,-22.605425,-9999.0,0.0,0.424,180.01839,0.0,0.0,0.0,0.0,0.0,389.08878,1.193444,12.0,40.0,0.0,0.0,0.0,0.0,0.0,0.0,0.0,282.89813,0.0,0.0,0.0,0.0,0.0
-0.571429,0.0,0.0,0.0,0.0,0.0,1.0,1.95707696E8,1.95707696E8,1.95707712E8,1.95707712E8,1.9570776E8,1.95707792E8,63.991837,-22.605425,-9999.0,0.0,0.424,180.01839,0.0,0.0,0.0,0.0,0.0,389.08878,1.193444,12.0,40.0,0.0,0.0,0.0,0.0,0.0,0.0,0.0,282.89813,0.0,0.0,0.0,0.0,0.0
-0.571429,0.0,0.0,0.0,0.0,0.0,1.0,1.95707696E8,1.95707696E8,1.95707712E8,1.95707712E8,1.9570776E8,1.95707792E8,63.991837,-22.605425,-9999.0,0.0,0.424,180.01839,0.0,0.0,0.0,0.0,0.0,389.08878,1.193444,12.0,40.0,0.0,0.0,0.0,0.0,0.0,0.0,0.0,282.89813,0.0,0.0,0.0,0.0,0.0
-0.571429,0.0,0.0,0.0,0.0,0.0,1.0,1.95707696E8,1.95707696E8,1.95707712E8,1.95707712E8,1.9570776E8,1.95707792E8,63.991837,-22.605425,-9999.0,0.0,0.424,180.01839,0.0,0.0,0.0,0.0,0.0,389.08878,1.193444,12.0,40.0,0.0,0.0,0.0,0.0,0.0,0.0,0.0,282.89813,0.0,0.0,0.0,0.0,0.0
-0.571429,0.0,0.0,0.0,0.0,0.0,1.0,1.95707696E8,1.95707696E8,1.95707712E8,1.95707712E8,1.9570776E8,1.95707792E8,63.991837,-22.605425,-9999.0,0.0,0.424,180.01839,0.0,0.0,0.0,0.0,0.0,389.08878,1.193444,12.0,40.0,0.0,0.0,0.0,0.0,0.0,0.0,0.0,282.89813,0.0,0.0,0.0,0.0,0.0
-0.571429,0.0,0.0,0.0,0.0,0.0,1.0,1.95707696E8,1.95707696E8,1.95707712E8,1.95707712E8,1.9570776E8,1.95707792E8,63.991837,-22.605425,-9999.0,0.0,0.424,180.01839,0.0,0.0,0.0,0.0,0.0,389.08878,1.193444,12.0,40.0,0.0,0.0,0.0,0.0,0.0,0.0,0.0,282.89813,0.0,0.0,0.0,0.0,0.0
-0.571429,0.0,0.0,0.0,0.0,0.0,1.0,1.95707696E8,1.95707696E8,1.95707712E8,1.95707712E8,1.9570776E8,1.95707792E8,63.991837,-22.605425,-9999.0,0.0,0.424,180.01839,0.0,0.0,0.0,0.0,0.0,389.08878,1.193444,12.0,40.0,0.0,0.0,0.0,0.0,0.0,0.0,0.0,282.89813,0.0,0.0,0.0,0.0,0.0
-0.571429,0.0,0.0,0.0,0.0,0.0,1.0,1.95707696E8,1.95707696E8,1.95707712E8,1.95707712E8,1.9570776E8,1.95707792E8,63.991837,-22.605425,-9999.0,0.0,0.424,180.01839,0.0,0.0,0.0,0.0,0.0,389.08878,1.193444,12.0,40.0,0.0,0.0,0.0,0.0,0.0,0.0,0.0,282.89813,0.0,0.0,0.0,0.0,0.0
-0.571429,0.0,0.0,0.0,0.0,0.0,1.0,1.95707696E8,1.95707696E8,1.95707712E8,1.95707712E8,1.9570776E8,1.95707792E8,63.991837,-22.605425,-9999.0,0.0,0.424,180.01839,0.0,0.0,0.0,0.0,0.0,389.08878,1.193444,12.0,40.0,0.0,0.0,0.0,0.0,0.0,0.0,0.0,282.89813,0.0,0.0,0.0,0.0,0.0
-0.571429,0.0,0.0,0.0,0.0,0.0,1.0,1.95707696E8,1.95707696E8,1.95707712E8,1.95707712E8,1.9570776E8,1.95707792E8,63.991837,-22.605425,-9999.0,0.0,0.424,180.01839,0.0,0.0,0.0,0.0,0.0,389.08878,1.193444,12.0,40.0,0.0,0.0,0.0,0.0,0.0,0.0,0.0,282.89813,0.0,0.0,0.0,0.0,0.0
-0.571429,0.0,0.0,0.0,0.0,0.0,1.0,1.95707696E8,1.95707696E8,1.95707712E8,1.95707712E8,1.9570776E8,1.95707792E8,63.991837,-22.605425,-9999.0,0.0,0.424,180.01839,0.0,0.0,0.0,0.0,0.0,389.08878,1.193444,12.0,40.0,0.0,0.0,0.0,0.0,0.0,0.0,0.0,282.89813,0.0,0.0,0.0,0.0,0.0
-0.571429,0.0,0.0,0.0,0.0,0.0,1.0,1.95707696E8,1.95707696E8,1.95707712E8,1.95707712E8,1.9570776E8,1.95707792E8,63.991837,-22.605425,-9999.0,0.0,0.424,180.01839,0.0,0.0,0.0,0.0,0.0,389.08878,1.193444,12.0,40.0,0.0,0.0,0.0,0.0,0.0,0.0,0.0,282.89813,0.0,0.0,0.0,0.0,0.0
-0.571429,0.0,0.0,0.0,0.0,0.0,1.0,1.95707696E8,1.95707696E8,1.95707712E8,1.95707712E8,1.9570776E8,1.95707792E8,63.991837,-22.605425,-9999.0,0.0,0.424,180.01839,0.0,0.0,0.0,0.0,0.0,389.08878,1.193444,12.0,40.0,0.0,0.0,0.0,0.0,0.0,0.0,0.0,282.89813,0.0,0.0,0.0,0.0,0.0
-0.571429,0.0,0.0,0.0,0.0,0.0,1.0,1.95707696E8,1.95707696E8,1.95707712E8,1.95707712E8,1.9570776E8,1.95707792E8,63.991837,-22.605425,-9999.0,0.0,0.424,180.01839,0.0,0.0,0.0,0.0,0.0,389.08878,1.193444,12.0,40.0,0.0,0.0,0.0,0.0,0.0,0.0,0.0,282.89813,0.0,0.0,0.0,0.0,0.0
-0.571429,0.0,0.0,0.0,0.0,0.0,1.0,1.95707696E8,1.95707696E8,1.95707712E8,1.95707712E8,1.9570776E8,1.95707792E8,63.991837,-22.605425,-9999.0,0.0,0.424,180.01839,0.0,0.0,0.0,0.0,0.0,389.08878,1.193444,12.0,40.0,0.0,0.0,0.0,0.0,0.0,0.0,0.0,282.89813,0.0,0.0,0.0,0.0,0.0
-0.571429,0.0,0.0,0.0,0.0,0.0,1.0,1.95707696E8,1.95707696E8,1.95707712E8,1.95707712E8,1.9570776E8,1.95707792E8,63.991837,-22.605425,-9999.0,0.0,0.424,180.01839,0.0,0.0,0.0,0.0,0.0,389.08878,1.193444,12.0,40.0,0.0,0.0,0.0,0.0,0.0,0.0,0.0,282.89813,0.0,0.0,0.0,0.0,0.0
-0.571429,0.0,0.0,0.0,0.0,0.0,1.0,1.95707696E8,1.95707696E8,1.95707712E8,1.95707712E8,1.9570776E8,1.95707792E8,63.991837,-22.605425,-9999.0,0.0,0.424,180.01839,0.0,0.0,0.0,0.0,0.0,389.08878,1.193444,12.0,40.0,0.0,0.0,0.0,0.0,0.0,0.0,0.0,282.89813,0.0,0.0,0.0,0.0,0.0
-0.571429,0.0,0.0,0.0,0.0,0.0,1.0,1.95707696E8,1.95707696E8,1.95707712E8,1.95707712E8,1.9570776E8,1.95707792E8,63.991837,-22.605425,-9999.0,0.0,0.424,180.01839,0.0,0.0,0.0,0.0,0.0,389.08878,1.193444,12.0,40.0,0.0,0.0,0.0,0.0,0.0,0.0,0.0,282.89813,0.0,0.0,0.0,0.0,0.0
-0.571429,0.0,0.0,0.0,0.0,0.0,0.0,1.95707696E8,1.95707696E8,1.95707712E8,1.95707712E8,1.9570776E8,1.95707792E8,63.991837,-22.605427,146.2295,0.104764,4.952322,180.01332,0.0,0.0,0.0,0.0,0.0,389.08878,1.193444,12.0,40.0,0.0,0.0,0.0,0.0,0.0,0.0,0.0,282.89813,0.0,0.0,0.0,0.0,0.0
-0.571429,0.0,0.0,0.0,0.0,0.0,0.0,1.95707696E8,1.95707696E8,1.95707712E8,1.95707712E8,1.9570776E8,1.95707792E8,63.991837,-22.605427,146.2293,0.093179,4.972201,180.01242,89.86467,3.012049,-0.068969,-1.63E-4,0.0,537.2136,149.3183,12.0,40.0,0.0,0.0,140.00014,140.0,146.2293,1.24E-4,-0.018383,282.89807,356.53656,-0.006013,-0.512962,3927.3389,0.0
-0.571429,0.0,0.0,0.0,0.0,0.0,0.2,1.95707696E8,1.95707696E8,1.95707712E8,1.95707712E8,1.9570776E8,1.95707792E8,63.991837,-22.605427,146.22954,0.092754,4.951423,180.01236,83.88301,2.733587,0.080142,1.9E-5,0.0,510.12122,122.22588,12.0,40.0,0.0,0.0,120.000145,120.0,146.22954,1.01E-4,0.002281,282.89807,328.53552,-0.012378,-1.296059,2366.533,0.0
-0.571429,0.0,0.0,0.0,0.0,0.0,0.2,1.95707696E8,1.95707696E8,1.95707712E8,1.95707712E8,1.9570776E8,1.95707792E8,63.991837,-22.605427,146.2295,0.095853,4.951456,180.0126,76.39754,2.493266,-0.084888,-3.0E-6,0.0,119.83397,93.884476,12.0,40.0,0.0,0.0,90.000145,90.0,146.2295,8.3E-5,-2.68E-4,282.8959,281.35413,-0.015132,-1.770535,214.32578,0.0
-0.571429,0.0,0.0,0.0,0.0,0.0,0.2,1.95707696E8,1.95707696E8,1.95707712E8,1.95707712E8,1.9570776E8,1.95707792E8,63.991837,-22.605427,146.22948,0.098302,4.952242,180.0128,67.25806,2.299954,-0.117094,-6.0E-6,4.800374,91.75324,65.80375,12.0,40.0,0.0,0.0,70.000145,70.0,146.22948,6.8E-5,-5.7E-4,282.8959,225.5362,-0.016423,-2.057761,-895.8112,27.883478
-0.571429,0.0,0.0,0.0,0.0,0.0,0.2,1.95707696E8,1.95707696E8,1.95707712E8,1.95707712E8,1.9570776E8,1.95707792E8,63.991837,-22.605427,146.22948,0.098375,4.952216,180.01282,66.28788,2.284526,-0.056862,-5.0E-6,6.376171,89.87292,63.92343,12.0,40.0,0.0,0.0,70.000145,70.0,146.22948,6.6E-5,0.0,282.8959,220.14441,-0.016489,-2.05677,-921.2229,62.95409
-0.571429,0.0,0.0,0.0,0.0,0.0,0.2,1.95707696E8,1.95707696E8,1.95707712E8,1.95707712E8,1.9570776E8,1.95707792E8,63.991837,-22.605427,146.22948,0.098456,4.952042,180.01282,65.303696,2.269775,0.003436,1.0E-6,7.115494,87.400764,61.45127,12.0,40.0,0.0,0.0,60.00014,60.0,146.22948,6.5E-5,0.001006,282.8959,214.80482,-0.016552,-2.040398,-980.3585,96.62058
-0.571429,0.0,0.0,0.0,0.0,0.0,0.2,1.95707696E8,1.95707696E8,1.95707712E8,1.95707712E8,1.9570776E8,1.95707792E8,63.991837,-22.605427,146.22948,0.098528,4.951628,180.01282,64.306145,2.255708,0.022447,9.0E-6,7.338042,84.69383,58.744347,12.0,40.0,0.0,0.0,60.00014,60.0,146.22948,6.4E-5,0.002415,282.8959,209.52702,-0.016615,-2.011081,-1044.0831,128.7829
-0.571429,0.0,0.0,0.0,0.0,0.0,0.2,1.95707696E8,1.95707696E8,1.95707712E8,1.95707712E8,1.9570776E8,1.95707792E8,63.991837,-22.605427,146.22949,0.098578,4.950924,180.01282,63.296013,2.242335,0.030194,1.9E-5,7.429928,81.90426,55.954773,12.0,40.0,0.0,0.0,60.00014,60.0,146.22949,6.2E-5,0.003958,282.8959,204.3202,-0.016676,-1.971039,-1102.9062,159.37592
-0.571429,0.0,0.0,0.0,0.0,0.0,0.2,1.95707696E8,1.95707696E8,1.95707712E8,1.95707712E8,1.9570776E8,1.95707792E8,63.991837,-22.605427,146.22949,0.098598,4.949915,180.01283,62.274048,2.229664,0.034106,2.8E-5,7.464311,79.08559,53.1361,11.98119,39.937298,0.0,0.0,60.00014,60.0,146.22949,6.1E-5,0.005669,282.8959,199.19331,-0.016732,-1.922285,-1155.1687,188.36888
-0.571429,0.0,0.0,0.0,0.0,0.0,0.2,1.95707696E8,1.95707696E8,1.95707712E8,1.95707712E8,1.9570776E8,1.95707792E8,63.991837,-22.605427,146.2295,0.098588,4.948736,180.01282,61.32743,2.218675,0.036743,3.7E-5,7.481741,76.47144,50.521957,11.879043,39.59681,0.0,0.0,50.00014,50.0,146.2295,6.0E-5,0.00681,282.8959,194.57118,-0.016785,-1.871497,-1198.7574,213.54008
-0.570533,0.0,0.0,0.0,0.0,0.0,0.2,1.95707696E8,1.95707696E8,1.95707712E8,1.95707712E8,1.9570776E8,1.95707792E8,63.991837,-22.605427,146.22952,0.098544,4.947058,180.01282,60.19723,2.206469,0.038197,4.6E-5,7.453572,73.40675,47.457264,11.685751,38.952503,0.0,0.0,50.00014,50.0,146.22952,5.9E-5,0.008487,282.8959,189.2132,-0.016833,-1.805725,-1242.8507,241.56595
-0.571429,0.0,0.0,0.0,0.0,0.0,0.2,1.95707696E8,1.95707696E8,1.95707712E8,1.95707712E8,1.9570776E8,1.95707792E8,63.991837,-22.605427,146.22954,0.098472,4.945275,180.01282,59.143543,2.195963,0.039413,5.3E-5,7.515395,70.53941,44.589924,11.484797,38.282654,0.0,0.0,50.00014,50.0,146.22954,5.8E-5,0.009594,282.8959,184.37608,-0.016872,-1.741003,-1280.6798,265.80652
-0.556464,0.0,0.0,0.0,0.0,0.0,0.2,1.95707696E8,1.95707696E8,1.95707712E8,1.95707712E8,1.9570776E8,1.95707792E8,63.991837,-22.605427,146.22955,0.09838,4.943308,180.0128,58.080498,2.186203,0.040483,5.9E-5,7.49297,67.70048,41.750988,11.266601,37.555336,0.0,0.0,40.00014,40.0,146.22955,5.6E-5,0.010433,282.8959,179.6511,-0.016903,-1.673755,-1313.1228,288.52106
-0.571429,0.0,0.0,0.0,0.0,0.0,0.2,1.95707696E8,1.95707696E8,1.95707712E8,1.95707712E8,1.9570776E8,1.95707792E8,63.991837,-22.605427,146.22957,0.098282,4.941558,180.01279,57.187748,2.178635,0.040911,6.2E-5,7.539845,65.370705,39.421215,11.072571,36.90857,0.0,0.0,40.00014,40.0,146.22957,5.6E-5,0.011103,282.8959,175.8044,-0.016936,-1.616603,-1336.0535,306.3177
-0.556464,0.0,0.0,0.0,0.0,0.0,0.2,1.95707696E8,1.95707696E8,1.95707712E8,1.95707712E8,1.9570776E8,1.95707792E8,63.991837,-22.605427,146.22958,0.098126,4.938984,180.01277,55.928448,2.168936,0.04175,6.7E-5,7.480804,62.01596,36.06647,10.785945,35.953148,0.0,0.0,40.00014,40.0,146.22958,5.4E-5,0.011741,282.8959,170.56561,-0.016957,-1.536032,-1369.0607,329.5656
-0.527265,0.0,0.0,0.0,0.0,0.0,0.2,1.95707696E8,1.95707696E8,1.95707712E8,1.95707712E8,1.9570776E8,1.95707792E8,63.991837,-22.605427,146.2296,0.097989,4.936701,180.01277,54.840862,2.16146,0.042498,6.9E-5,7.550058,59.227444,33.277954,10.526657,35.088856,1.0E-6,0.0,40.00014,40.0,146.2296,5.3E-5,0.012009,282.8959,166.21828,-0.016966,-1.467356,-1390.8071,348.00812
-0.556464,0.0,0.0,0.0,0.0,0.0,0.2,1.95707696E8,1.95707696E8,1.95707712E8,1.95707712E8,1.9570776E8,1.95707792E8,63.991837,-22.605427,146.22963,0.097832,4.934381,180.01276,53.7461,2.154746,0.042655,7.0E-5,7.583989,56.409065,30.459574,10.257229,34.190758,2.0E-6,0.0,30.000143,30.0,146.22963,5.2E-5,0.012143,282.89587,162.00934,-0.016988,-1.399771,-1411.9252,365.14587
-0.501269,0.0,0.0,0.0,0.0,0.0,0.2,1.95707696E8,1.95707696E8,1.95707712E8,1.95707712E8,1.9570776E8,1.95707792E8,63.991837,-22.605427,146.22964,0.09768,4.932055,180.01274,52.64554,2.148838,0.043621,7.2E-5,7.600606,53.580162,27.630674,9.979196,33.263966,6.0E-6,0.0,30.000143,30.0,146.22964,5.1E-5,0.012177,282.89578,157.94437,-0.01698,-1.333835,-1431.6581,381.0433
-0.556464,0.0,0.0,0.0,0.0,0.0,0.2,1.95707696E8,1.95707696E8,1.95707712E8,1.95707712E8,1.9570776E8,1.95707792E8,63.991837,-22.605427,146.22966,0.097511,4.929748,180.01273,51.53895,2.143695,0.043518,7.1E-5,7.569249,50.702778,24.75329,9.694283,32.31423,1.4E-5,0.0,30.000143,30.0,146.22966,5.0E-5,0.012076,282.8956,154.0286,-0.017,-1.269986,-1451.7354,395.76584
-0.501269,0.0,0.0,0.0,0.0,0.0,0.2,1.95707696E8,1.95707696E8,1.95707712E8,1.95707712E8,1.9570776E8,1.95707792E8,63.991837,-22.605427,146.22969,0.097345,4.927481,180.01271,50.428154,2.139377,0.044474,7.0E-5,7.54113,47.860237,21.91075,9.40352,31.344961,3.2E-5,1.0E-6,20.000143,20.0,146.22969,4.9E-5,0.011875,282.89523,150.26683,-0.016985,-1.208538,-1468.634,409.37943
-0.461632,0.0,0.0,0.0,0.0,0.0,0.2,1.95707696E8,1.95707696E8,1.95707712E8,1.95707712E8,1.9570776E8,1.95707792E8,63.991837,-22.605427,146.2297,0.097209,4.925272,180.0127,49.313297,2.135859,0.045318,7.0E-5,7.592811,45.06042,19.11093,9.107914,30.359493,6.7E-5,2.0E-6,20.000143,20.0,146.2297,4.8E-5,0.011607,282.8944,146.66345,-0.016972,-1.149696,-1482.4517,421.94934
-0.501269,0.0,0.0,0.0,0.0,0.0,0.2,1.95707696E8,1.95707696E8,1.95707712E8,1.95707712E8,1.9570776E8,1.95707792E8,63.991837,-22.605427,146.22972,0.097061,4.923133,180.01268,48.19481,2.13313,0.045329,6.7E-5,7.620408,42.23801,16.28852,8.808909,29.362587,1.34E-4,4.0E-6,20.000143,20.0,146.22972,4.7E-5,0.011238,282.89285,143.22247,-0.016981,-1.09356,-1496.1088,433.53946
-0.433707,1.0E-6,0.0,0.0,0.0,0.0,0.2,1.95707696E8,1.95707696E8,1.95707712E8,1.95707712E8,1.9570776E8,1.95707792E8,63.991837,-22.605427,146.22974,0.096928,4.921077,180.01266,47.07452,2.131237,0.046534,6.6E-5,7.634888,39.407635,13.458146,8.507594,28.357805,2.54E-4,8.0E-6,20.000143,20.0,146.22974,4.6E-5,0.010802,282.89,139.9475,-0.016956,-1.040125,-1509.0244,444.21204
-0.501269,0.0,0.0,0.0,0.0,0.0,0.2,1.95707696E8,1.95707696E8,1.95707712E8,1.95707712E8,1.9570776E8,1.95707792E8,63.991837,-22.605427,146.22977,0.096781,4.919111,180.01265,45.951942,2.13013,0.046316,6.3E-5,7.644471,36.574448,10.624958,8.204989,27.348436,4.63E-4,1.4E-5,10.000142,10.0,146.22977,4.5E-5,0.010332,282.88498,136.84172,-0.016968,-0.9893,-1521.0591,454.02744
-0.433707,1.0E-6,0.0,0.0,0.0,0.0,0.2,1.95707696E8,1.95707696E8,1.95707712E8,1.95707712E8,1.9570776E8,1.95707792E8,63.991837,-22.605427,146.22978,0.096646,4.917241,180.01263,44.82942,2.129869,0.047768,6.1E-5,7.64489,33.686977,7.737486,7.902208,26.338015,8.11E-4,2.5E-5,10.000142,10.0,146.22978,4.4E-5,0.009862,282.8765,133.90794,-0.016939,-0.940958,-1534.3682,463.04346
-0.501269,0.0,0.0,0.0,0.0,0.0,0.2,1.95707696E8,1.95707696E8,1.95707712E8,1.95707712E8,1.9570776E8,1.95707792E8,63.991837,-22.605427,146.2298,0.096503,4.915472,180.01262,43.706264,2.130397,0.047671,5.8E-5,7.627509,30.88695,4.937459,7.600195,25.328283,0.001723,4.3E-5,10.000142,10.0,146.2298,4.4E-5,0.009359,282.86258,131.14859,-0.016948,-0.894979,-1543.1709,471.31598
-0.433707,1.0E-6,0.0,0.0,0.0,0.0,0.2,1.95707696E8,1.95707696E8,1.95707712E8,1.95707712E8,1.9570776E8,1.95707792E8,63.991837,-22.605427,146.22981,0.096375,4.913805,180.01262,42.584866,2.131771,0.049487,5.6E-5,7.655547,28.06441,2.11492,7.298932,24.322311,0.00226,7.1E-5,1.42E-4,0.0,146.22981,4.3E-5,0.008856,282.84048,128.56566,-0.016914,-0.851246,-1552.2223,478.89767
-0.361833,3.4E-5,0.0,0.0,0.0,0.0,0.2,1.95707696E8,1.95707696E8,1.95707712E8,1.95707712E8,1.9570776E8,1.95707792E8,63.991837,-22.605427,146.22983,0.09628,4.912367,180.0126,41.645107,2.133716,0.064661,1.03E-4,7.754375,25.656929,-0.292561,7.044712,23.470726,0.003526,1.07E-4,1.42E-4,0.0,146.22983,4.2E-5,0.012948,282.81296,126.549164,-0.016941,-0.81644,-1562.0646,529.1816
-0.433707,1.0E-6,0.0,0.0,0.0,0.0,0.2,1.95707696E8,1.95707696E8,1.95707712E8,1.95707712E8,1.9570776E8,1.95707792E8,63.991837,-22.605427,146.22986,0.095707,4.908303,180.01256,40.314987,2.137931,0.057458,2.1E-4,7.604316,22.523794,-3.425697,6.651762,22.151937,0.006235,1.84E-4,1.42E-4,0.0,146.22986,4.1E-5,0.029385,282.75226,123.93518,-0.017055,-0.770106,-1570.6564,608.78375
-0.361833,3.4E-5,0.0,0.0,0.0,0.0,0.2,1.95707696E8,1.95707696E8,1.95707712E8,1.95707712E8,1.9570776E8,1.95707792E8,63.991837,-22.605427,146.22992,0.094792,4.90198,180.01248,39.1802,2.142542,0.053205,2.92E-4,7.662002,19.850367,-6.099123,6.286205,20.923798,0.009153,2.93E-4,1.42E-4,0.0,146.22992,8.7E-5,0.043374,282.66626,121.88973,-0.017092,-0.732508,-1577.0337,669.9406
-0.316456,1.25E-4,0.0,0.0,0.0,0.0,0.2,1.95707696E8,1.95707696E8,1.95707712E8,1.95707712E8,1.9570776E8,1.95707792E8,63.991837,-22.605427,146.23001,0.093611,4.8933,180.01237,38.055126,2.147832,0.050667,3.51E-4,7.686559,17.158478,-8.791012,5.9051,19.63333,0.015241,4.66E-4,-9.999858,-10.0,146.23001,1.65E-4,0.054108,282.52847,120.02492,-0.017087,-0.696756,-1583.7145,724.25336
-0.361833,3.4E-5,0.0,0.0,0.0,0.0,0.2,1.95707696E8,1.95707696E8,1.95707712E8,1.95707712E8,1.9570776E8,1.95707792E8,63.991837,-22.605427,146.2301,0.092213,4.882902,180.01225,36.94085,2.153719,0.048833,3.85E-4,7.700859,14.460091,-11.489399,5.514075,18.302649,0.023502,7.38E-4,-9.999858,-10.0,146.2301,2.57E-4,0.061119,282.30872,118.34086,-0.017062,-0.66276,-1590.1884,771.72577
-0.316456,1.25E-4,0.0,0.0,0.0,0.0,0.2,1.95707696E8,1.95707696E8,1.95707712E8,1.95707712E8,1.9570776E8,1.95707792E8,63.991837,-22.605427,146.23021,0.090704,4.871773,180.01208,35.81753,2.161336,0.037558,4.0E-4,7.711172,11.759413,-14.190078,5.131312,16.951931,0.046081,0.001159,-9.999858,-10.0,146.23021,3.63E-4,0.060415,281.96188,116.8373,-0.016961,-0.630435,-1596.3008,812.56244
-0.280476,3.05E-4,0.0,0.0,0.0,0.0,0.22,1.95707696E8,1.95707696E8,1.95707712E8,1.95707712E8,1.9570776E8,1.95707792E8,63.991837,-22.605427,146.2303,0.089166,4.8627,180.01187,34.638756,2.173502,0.021522,4.5E-4,7.720737,9.057915,-16.891575,4.733737,15.612953,0.050392,0.001802,-9.999858,-10.0,146.2303,5.41E-4,0.050787,281.4237,115.51367,-0.016592,-0.5997,-1602.0199,847.10443
-0.316456,1.25E-4,0.0,0.0,0.0,0.0,0.26,1.95707696E8,1.95707696E8,1.95707712E8,1.95707712E8,1.9570776E8,1.95707792E8,63.991837,-22.605427,146.23038,0.087646,4.856382,180.01169,33.410324,2.189825,0.013379,5.09E-4,7.73115,6.35611,-19.59338,4.393367,14.31705,0.099078,0.002754,-19.999857,-20.0,146.23038,8.75E-4,0.044816,280.61057,114.369026,-0.016526,-0.570458,-1607.3545,875.91693
-0.223042,0.001008,0.0,0.0,0.0,0.0,0.3,1.95707696E8,1.95707696E8,1.95707712E8,1.95707712E8,1.9570776E8,1.95707792E8,63.991837,-22.605427,146.23045,0.086104,4.851934,180.01141,32.051975,2.212066,0.010189,6.44E-4,7.759662,3.381919,-22.567572,4.025579,12.967222,0.136691,0.004263,-19.999857,-20.0,146.23045,0.001497,0.04324,279.2953,113.32949,-0.016332,-0.540402,-1614.5818,901.8307
-0.316456,1.25E-4,0.0,0.0,0.0,0.0,0.3,1.95707696E8,1.95707696E8,1.95707712E8,1.95707712E8,1.9570776E8,1.95707792E8,63.991837,-22.605427,146.23051,0.084879,4.849574,180.0111,30.887207,2.234175,0.008922,7.96E-4,7.728483,0.93858,-25.01091,3.763215,11.871421,0.203603,0.006048,-19.999857,-20.0,146.23051,0.00229,0.042904,277.70856,112.61129,-0.016222,-0.516224,-1617.3636,920.3571
-0.185246,0.002734,0.0,0.0,0.0,0.0,0.3,1.95707696E8,1.95707696E8,1.95707712E8,1.95707712E8,1.9570776E8,1.95707792E8,63.991837,-22.605427,146.23058,0.083852,4.848167,180.01083,29.828106,2.25679,0.008323,9.65E-4,7.755211,-1.305191,-27.25468,3.536536,10.914007,0.264787,0.008175,-19.999857,-20.0,146.23058,0.003256,0.047466,275.783,112.08544,-0.015608,-0.495191,-1620.6404,934.7784
-0.316456,1.25E-4,0.0,0.0,0.0,0.0,0.3,1.95707696E8,1.95707696E8,1.95707712E8,1.95707712E8,1.9570776E8,1.95707792E8,63.991837,-22.605427,146.23067,0.082513,4.847099,180.01025,28.34236,2.29181,0.007803,0.001232,7.696827,-4.496156,-30.445646,3.336426,9.638052,0.448648,0.012127,-29.999857,-30.0,146.23067,0.00505,0.04968,272.12253,111.55003,-0.014999,-0.467191,-1626.722,951.4137
-0.185246,0.002734,0.0,0.0,0.0,0.0,0.3,1.95707696E8,1.95707696E8,1.95707712E8,1.95707712E8,1.9570776E8,1.95707792E8,63.991837,-22.605427,146.23077,0.081524,4.846712,180.00974,27.087166,2.324875,0.00761,0.0015,7.767681,-7.169497,-33.118988,3.132567,8.605563,0.555866,0.01656,-29.999857,-30.0,146.23077,0.007033,0.057362,267.90695,111.27482,-0.014255,-0.444468,-1629.2367,962.68396
-0.137686,0.008973,0.0,0.0,0.0,0.0,0.3,1.95707696E8,1.95707696E8,1.95707712E8,1.95707712E8,1.9570776E8,1.95707792E8,63.991837,-22.605427,146.23088,0.080722,4.846406,180.00917,25.851377,2.360314,0.007448,0.001779,7.800261,-9.861443,-35.810932,3.105761,7.631034,0.823065,0.02205,-29.999857,-30.0,146.23088,0.009453,0.066754,262.5485,111.16624,-0.013503,-0.422859,-1632.3184,971.49286
-0.185246,0.002734,0.0,0.0,0.0,0.0,0.32,1.95707696E8,1.95707696E8,1.95707712E8,1.95707712E8,1.9570776E8,1.95707792E8,63.991837,-22.605427,146.231,0.080012,4.84636,180.00854,24.640762,2.397831,0.007264,0.002052,7.822726,-12.559937,-38.509426,3.043187,6.715356,1.037155,0.028584,-39.99986,-40.0,146.231,0.012326,0.076952,255.97769,111.221176,-0.012774,-0.402313,-1635.4506,978.1163
-0.109015,0.016461,0.0,0.0,0.0,0.0,0.34,1.95707696E8,1.95707696E8,1.95707712E8,1.95707712E8,1.9570776E8,1.95707792E8,63.991837,-22.605427,146.23114,0.079435,4.846212,180.00787,23.460838,2.437173,0.007295,0.00239,7.841434,-15.260739,-41.210228,3.154939,5.859069,1.408021,0.036009,-39.99986,-40.0,146.23114,0.015664,0.085573,248.24269,111.4363,-0.012,-0.382776,-1638.4623,983.01013
-0.185246,0.002734,0.0,0.0,0.0,0.0,0.42,1.95707696E8,1.95707696E8,1.95707712E8,1.95707712E8,1.9570776E8,1.95707792E8,63.991837,-22.605427,146.23131,0.078857,4.846288,180.00716,22.210102,2.481421,0.007011,0.002647,7.831254,-18.235159,-44.184647,3.289924,4.998642,1.803736,0.044681,-39.99986,-40.0,146.23131,0.019809,0.103184,238.80116,111.845924,-0.011285,-0.362685,-1643.3812,987.1567
-0.109015,0.016461,0.0,0.0,0.0,0.0,0.44,1.95707696E8,1.95707696E8,1.95707712E8,1.95707712E8,1.9570776E8,1.95707792E8,63.991837,-22.605427,146.23148,0.07849,4.846354,180.00638,21.196684,2.520495,0.00712,0.002996,7.827244,-20.696783,-46.646275,3.437925,4.324923,2.156069,0.052067,-39.99986,-40.0,146.23148,0.02375,0.108619,230.32481,112.33243,-0.01056,-0.346541,-1645.0868,990.9927
-0.185246,0.002734,0.0,0.0,0.0,0.0,0.44,1.95707696E8,1.95707696E8,1.95707712E8,1.95707712E8,1.9570776E8,1.95707792E8,63.991837,-22.605427,146.23167,0.078095,4.846544,180.00545,20.111887,2.564451,0.007101,0.003331,7.874805,-23.377691,-49.327183,3.754644,3.646246,2.678649,0.059596,-49.99986,-50.0,146.23167,0.028504,0.111772,221.12761,113.00552,-0.009885,-0.329769,-1646.6694,995.9582
-0.109015,0.036075,0.0,0.0,0.0,0.0,0.44,1.95707696E8,1.95707696E8,1.95707712E8,1.95707712E8,1.9570776E8,1.95707792E8,63.991837,-22.605427,146.23189,0.077744,4.846109,180.00441,19.059645,2.610064,0.007118,0.003692,7.906578,-26.072296,-52.021786,4.324443,3.025807,3.436496,0.065984,-49.99986,-50.0,146.23189,0.033738,0.133911,212.63916,113.823006,-0.008659,-0.313833,-1648.6818,1001.553
-0.109015,0.016461,0.0,0.0,0.0,0.0,0.44,1.95707696E8,1.95707696E8,1.95707712E8,1.95707712E8,1.9570776E8,1.95707792E8,63.991837,-22.605427,146.23213,0.077441,4.8456,180.00323,18.03814,2.657357,0.007063,0.004024,7.929919,-28.771715,-54.721203,3.998542,2.463336,3.280787,0.07082,-49.99986,-50.0,146.23213,0.03946,0.142465,205.48354,114.78038,-0.007328,-0.298696,-1650.7468,1007.5984
-0.109015,0.053573,0.0,0.0,0.0,0.0,0.44,1.95707696E8,1.95707696E8,1.95707712E8,1.95707712E8,1.9570776E8,1.95707792E8,63.991837,-22.605427,146.23239,0.077153,4.844623,180.00194,17.046526,2.706355,0.007082,0.004408,7.951612,-31.472824,-57.422314,4.309896,1.958896,3.744422,0.073983,-49.99986,-50.0,146.23239,0.045678,0.162693,200.06657,115.87299,-0.006014,-0.284319,-1652.7386,1013.93805
-0.109015,0.036075,0.0,0.0,0.0,0.0,0.44,1.95707696E8,1.95707696E8,1.95707712E8,1.95707712E8,1.9570776E8,1.95707792E8,63.991837,-22.605427,146.23268,0.076868,4.843544,180.00047,16.084682,2.757071,0.007029,0.004757,7.972857,-34.174522,-60.124012,4.668305,1.512905,4.237137,0.075677,-59.99986,-60.0,146.23268,0.0524,0.171381,196.45726,117.095985,-0.004763,-0.270675,-1654.619,1020.43665
-0.109015,0.016461,0.0,0.0,0.0,0.0,0.44,1.95707696E8,1.95707696E8,1.95707712E8,1.95707712E8,1.9570776E8,1.95707792E8,63.991837,-22.605427,146.23299,0.076571,4.843855,179.9988,15.15261,2.809498,0.007023,0.005146,7.994412,-36.876427,-62.825916,4.606047,1.126005,4.291141,0.076315,-59.99986,-60.0,146.23299,0.059636,0.17913,194.3901,118.44435,-0.003554,-0.257731,-1656.3801,1026.9783
-0.109015,0.074888,0.0,0.0,0.0,0.0,0.44,1.95707696E8,1.95707696E8,1.95707712E8,1.95707712E8,1.9570776E8,1.95707792E8,63.991833,-22.605427,146.23332,0.076273,4.842944,179.99692,14.250937,2.863628,0.007039,0.005563,8.016567,-39.578403,-65.52789,4.754355,0.798886,4.537593,0.076347,-59.99986,-60.0,146.23332,0.067397,0.207241,193.40015,119.91293,-0.00235,-0.245452,-1658.0248,1033.4653
-0.109015,0.036075,0.0,0.0,0.0,0.0,0.44,1.95707696E8,1.95707696E8,1.95707712E8,1.95707712E8,1.9570776E8,1.95707792E8,63.991833,-22.605427,146.23369,0.075971,4.841952,179.99477,13.381388,2.919445,0.006998,0.005947,8.03943,-42.28039,-68.22988,4.852591,0.532123,4.715786,0.07611,-69.999855,-70.0,146.23369,0.075691,0.211736,193.01588,121.496445,-0.001358,-0.233819,-1659.5581,1039.8164
-0.109015,0.085823,0.0,0.0,0.0,0.0,0.44,1.95707696E8,1.95707696E8,1.95707712E8,1.95707712E8,1.9570776E8,1.95707792E8,63.991833,-22.605427,146.23407,0.075656,4.840599,179.9924,12.538301,2.976836,0.007041,0.006413,8.063054,-44.98238,-70.93187,4.835039,0.326128,4.759935,0.075783,-69.999855,-70.0,146.23407,0.084529,0.235418,192.89848,123.18947,-6.29E-4,-0.22279,-1660.9873,1045.9656
-0.109015,0.036075,0.0,0.0,0.0,0.0,0.44,1.95707696E8,1.95707696E8,1.95707712E8,1.95707712E8,1.9570776E8,1.95707792E8,63.991833,-22.605427,146.23442,0.075391,4.83985,179.99028,11.856985,3.025842,0.00701,0.006749,8.083274,-47.23403,-73.183525,4.85915,0.201099,4.821468,0.075494,-69.999855,-70.0,146.23442,0.092313,0.234613,192.8724,124.67998,4.1E-5,-0.214034,-1662.103,1050.8975
-0.004659,0.095199,0.0,0.0,0.0,0.0,0.44,1.95707696E8,1.95707696E8,1.95707712E8,1.95707712E8,1.9570776E8,1.95707792E8,63.991833,-22.605427,146.23492,0.075147,4.838318,179.98709,10.937522,3.096204,0.007022,0.007285,8.07189,-50.411663,-76.36115,4.84176,0.097651,4.835021,0.075186,-69.999855,-70.0,146.23492,0.103862,0.270137,192.86316,126.88181,7.81E-4,-0.202407,-1664.4542,1057.4598
-0.109015,0.036075,0.0,0.0,0.0,0.0,0.48,1.95707696E8,1.95707696E8,1.95707712E8,1.95707712E8,1.9570776E8,1.95707792E8,63.991833,-22.605427,146.23543,0.074807,4.838146,179.98393,10.09709,3.163067,0.006885,0.007633,8.132349,-53.38477,-79.33426,4.837285,0.074914,4.837285,0.074914,-79.999855,-80.0,146.23543,0.115274,0.290432,192.85951,129.03949,0.001404,-0.192241,-1667.414,1063.1686
-0.001395,0.0967,0.0,0.0,0.0,0.0,0.52,1.95707696E8,1.95707696E8,1.95707712E8,1.95707712E8,1.9570776E8,1.95707792E8,63.991833,-22.605427,146.23593,0.074622,4.837628,179.9808,9.373347,3.225199,0.006892,0.008089,8.095042,-56.07052,-82.02001,4.837866,0.074669,4.837866,0.074669,-79.999855,-80.0,146.23593,0.126398,0.316362,192.85625,131.12134,0.002089,-0.183361,-1667.6615,1038.4626
-0.109015,0.036075,0.0,0.0,0.0,0.0,0.52,1.95707696E8,1.95707696E8,1.95707712E8,1.95707712E8,1.9570776E8,1.95707792E8,63.991833,-22.605427,146.23639,0.074886,4.837254,179.97804,8.767567,3.276735,0.006861,0.008391,8.159471,-58.508038,-84.45753,4.837162,0.0748,4.837162,0.0748,-79.999855,-80.0,146.23639,0.137021,0.290063,192.8533,133.10059,0.002699,-0.175569,-1666.9434,993.6835
-0.001395,0.0967,0.0,0.0,0.0,0.0,0.52,1.95707696E8,1.95707696E8,1.95707712E8,1.95707712E8,1.9570776E8,1.95707792E8,63.991833,-22.605427,146.23691,0.075767,4.836351,179.97527,8.128426,3.32648,0.006843,0.008659,8.202701,-61.199734,-87.14922,4.836654,0.075576,4.836654,0.075576,-79.999855,-80.0,146.23691,0.148928,0.312303,192.85036,135.33157,0.003114,-0.167412,-1667.464,947.77203
-0.109015,0.0967,0.0,0.0,0.0,0.0,0.52,1.95707696E8,1.95707696E8,1.95707712E8,1.95707712E8,1.9570776E8,1.95707792E8,63.991833,-22.605427,146.23746,0.077041,4.833865,179.97281,7.518071,3.370262,0.006816,0.00884,8.229349,-63.898067,-89.84756,4.834217,0.07684,4.834217,0.07684,-89.999855,-90.0,146.23746,0.161032,0.321964,192.84776,137.63176,0.003225,-0.159598,-1668.2031,904.6078
-0.001395,0.0967,0.0,0.0,0.0,0.0,0.52,1.95707696E8,1.95707696E8,1.95707712E8,1.95707712E8,1.9570776E8,1.95707792E8,63.991833,-22.605427,146.238,0.07862,4.831603,179.97057,6.945947,3.404155,0.006794,0.008959,8.195053,-66.60073,-92.550224,4.831909,0.078369,4.831909,0.078369,-89.999855,-90.0,146.238,0.173207,0.326191,192.84549,139.9952,0.003209,-0.15212,-1669.0177,863.9036
-0.109015,0.0967,0.0,0.0,0.0,0.0,0.52,1.95707696E8,1.95707696E8,1.95707712E8,1.95707712E8,1.9570776E8,1.95707792E8,63.991833,-22.605427,146.23856,0.080284,4.829741,179.9686,6.437697,3.408422,0.006752,0.008992,8.252298,-69.30095,-95.250435,4.829994,0.080041,4.829994,0.080041,-89.999855,-90.0,146.23856,0.185344,0.325956,192.84348,142.41594,0.002952,-0.144964,-1669.7186,825.41364
-0.00112,0.096638,0.0,0.0,0.0,0.0,0.56,1.95707696E8,1.95707696E8,1.95707712E8,1.95707712E8,1.9570776E8,1.95707792E8,63.99183,-22.605427,146.2391,0.082055,4.828246,179.96681,5.941097,3.408318,0.006729,0.008995,8.254899,-72.002304,-97.95179,4.828449,0.081784,4.828449,0.081784,-99.999855,-100.0,146.2391,0.197345,0.324581,192.84166,144.88805,0.002649,-0.138124,-1670.413,788.9192
-0.109015,0.0967,0.0,0.0,0.0,0.0,0.62,1.95707696E8,1.95707696E8,1.95707712E8,1.95707712E8,1.9570776E8,1.95707792E8,63.99183,-22.605427,146.2397,0.083871,4.826944,179.96512,5.39785,3.403671,0.00669,0.008925,8.21048,-74.969284,-100.91877,4.827106,0.083652,4.827106,0.083652,-99.999855,-100.0,146.2397,0.210094,0.333571,192.83994,147.61726,0.002157,-0.131053,-1672.6216,751.46216
-0.001168,0.096569,0.0,0.0,0.0,0.0,0.62,1.95707696E8,1.95707696E8,1.95707712E8,1.95707712E8,1.9570776E8,1.95707792E8,63.99183,-22.605427,146.24019,0.085474,4.826048,179.96384,4.961699,3.396572,0.006714,0.008903,8.229806,-77.41504,-103.364525,4.826187,0.085213,4.826187,0.085213,-99.999855,-100.0,146.24019,0.220608,0.321562,192.83862,149.96272,0.001653,-0.125339,-1671.894,721.36786
-0.109015,0.0967,0.0,0.0,0.0,0.0,0.62,1.95707696E8,1.95707696E8,1.95707712E8,1.95707712E8,1.9570776E8,1.95707792E8,63.99183,-22.605427,146.24072,0.087077,4.825243,179.96262,4.474699,3.385658,0.006717,0.00881,8.24572,-80.11117,-106.06066,4.825355,0.08685,4.825355,0.08685,-99.999855,-100.0,146.24072,0.231726,0.314551,192.83737,152.55356,0.00103,-0.119372,-1672.2292,690.0536
-0.001168,0.096569,0.0,0.0,0.0,0.0,0.62,1.95707696E8,1.95707696E8,1.95707712E8,1.95707712E8,1.9570776E8,1.95707792E8,63.99183,-22.605427,146.24126,0.088646,4.824577,179.96152,3.991284,3.371824,0.006711,0.008668,8.228593,-82.817856,-108.76735,4.82467,0.088406,4.82467,0.088406,-109.999855,-110.0,146.24126,0.242421,0.311029,192.83626,155.17232,4.38E-4,-0.113676,-1672.9243,660.16406
-0.109015,0.096569,0.0,0.0,0.0,0.0,0.62,1.95707696E8,1.95707696E8,1.95707712E8,1.95707712E8,1.9570776E8,1.95707792E8,63.99183,-22.605427,146.24178,0.090085,4.824022,179.96059,3.503753,3.355311,0.006705,0.008494,8.236739,-85.51484,-111.46433,4.824097,0.089881,4.824097,0.089881,-109.999855,-110.0,146.24178,0.252641,0.299892,192.83528,157.81323,-2.63E-4,-0.108236,-1673.2146,631.5528
-0.001241,0.096507,0.0,0.0,0.0,0.0,0.72,1.95707696E8,1.95707696E8,1.95707712E8,1.95707712E8,1.9570776E8,1.95707792E8,63.99183,-22.605427,146.24232,0.091584,4.823528,179.95969,2.968767,3.334685,0.006664,0.008228,8.248898,-88.491745,-114.44123,4.823593,0.091387,4.823593,0.091387,-109.999855,-110.0,146.24232,0.263123,0.305997,192.83437,160.69266,-9.08E-4,-0.102626,-1675.6227,601.866
-0.001284,0.096482,0.0,0.0,0.0,0.0,0.74,1.95707696E8,1.95707696E8,1.95707712E8,1.95707712E8,1.9570776E8,1.95707792E8,63.99183,-22.605427,146.24277,0.092868,4.823171,179.95901,2.524241,3.315253,0.006698,0.008063,8.176481,-90.94838,-116.897865,4.823227,0.092665,4.823227,0.092665,-109.999855,-110.0,146.24277,0.271477,0.286843,192.83368,163.13896,-0.001595,-0.098096,-1675.0902,577.78107
-0.001241,0.096507,0.0,0.0,0.0,0.0,0.74,1.95707696E8,1.95707696E8,1.95707712E8,1.95707712E8,1.9570776E8,1.95707792E8,63.99183,-22.605427,146.24326,0.094143,4.822841,179.95837,2.026652,3.292123,0.00671,0.007828,8.199939,-93.62973,-119.57922,4.822888,0.093954,4.822888,0.093954,-119.999855,-120.0,146.24326,0.280016,0.27896,192.83304,165.8127,-0.002284,-0.093372,-1674.6201,552.5185
-0.001284,0.096482,0.0,0.0,0.0,0.0,0.74,1.95707696E8,1.95707696E8,1.95707712E8,1.95707712E8,1.9570776E8,1.95707792E8,63.99183,-22.605427,146.24374,0.095399,4.822544,179.95786,1.475546,3.265021,0.006672,0.007487,8.18499,-96.56141,-122.510895,4.822582,0.095237,4.822582,0.095237,-119.999855,-120.0,146.24374,0.288557,0.275538,192.83247,168.70908,-0.002991,-0.088492,-1675.1506,526.2061
-0.001342,0.096458,0.0,0.0,0.0,0.0,0.74,1.95707696E8,1.95707696E8,1.95707712E8,1.95707712E8,1.9570776E8,1.95707792E8,63.99183,-22.605427,146.24416,0.096407,4.82233,179.95753,1.011923,3.240592,0.006706,0.007255,8.195127,-99.02434,-124.97383,4.822365,0.096246,4.822365,0.096246,-119.999855,-120.0,146.24416,0.295184,0.258564,192.83214,171.15488,-0.003728,-0.084545,-1674.9039,504.70654
-0.001284,0.096482,0.0,0.0,0.0,0.0,0.74,1.95707696E8,1.95707696E8,1.95707712E8,1.95707712E8,1.9570776E8,1.95707792E8,63.99183,-22.605427,146.24458,0.097424,4.822132,179.9573,0.492949,3.212498,0.006694,0.006927,8.187728,-101.72559,-127.67509,4.82216,0.097273,4.82216,0.097273,-129.99986,-130.0,146.24458,0.301761,0.246086,192.8319,173.81285,-0.004455,-0.080425,-1675.1952,481.95813
-0.001342,0.096458,0.0,0.0,0.0,0.0,0.74,1.95707696E8,1.95707696E8,1.95707712E8,1.95707712E8,1.9570776E8,1.95707792E8,63.991825,-22.605427,146.24498,0.098375,4.821965,179.95717,-0.034989,3.183038,0.006702,0.006601,8.177192,-104.42752,-130.37701,4.82199,0.098233,4.82199,0.098233,-129.99986,-130.0,146.24498,0.30764,0.23837,192.83173,176.45529,-0.005243,-0.076495,-1675.4877,459.839
-0.001284,0.096447,0.0,0.0,0.0,0.0,0.74,1.95707696E8,1.95707696E8,1.95707712E8,1.95707712E8,1.9570776E8,1.95707792E8,63.991825,-22.605427,146.24538,0.099265,4.821824,179.95705,-0.573334,3.152326,0.006694,0.006243,8.165567,-107.12971,-133.0792,4.821844,0.099132,4.821844,0.099132,-129.99986,-130.0,146.24538,0.312803,0.223242,192.83162,179.07727,-0.006035,-0.072753,-1675.7651,438.2435
-0.001284,0.096482,0.0,0.0,0.0,0.0,0.74,1.95707696E8,1.95707696E8,1.95707712E8,1.95707712E8,1.9570776E8,1.95707792E8,63.991825,-22.605427,146.24573,0.100091,4.821707,179.95695,-1.122677,3.120467,0.006645,0.005834,8.153531,-109.832016,-135.78151,4.821725,0.099967,4.821725,0.099967,-129.99986,-130.0,146.24573,0.317235,0.214252,192.83151,181.67401,-0.006803,-0.069193,-1676.023,417.0684
-0.001284,0.096458,0.0,0.0,0.0,0.0,0.74,1.95707696E8,1.95707696E8,1.95707712E8,1.95707712E8,1.9570776E8,1.95707792E8,63.991825,-22.605427,146.24608,0.100868,4.821615,179.95686,-1.684006,3.087562,0.006696,0.005497,8.140885,-112.53438,-138.48387,4.821629,0.100751,4.821629,0.100751,-139.99986,-140.0,146.24608,0.320922,0.19077,192.83142,184.24088,-0.007533,-0.065806,-1676.2605,396.21072
-0.001284,0.096437,0.0,0.0,0.0,0.0,0.74,1.95707696E8,1.95707696E8,1.95707712E8,1.95707712E8,1.9570776E8,1.95707792E8,63.991825,-22.605427,146.24638,0.101598,4.82154,179.9568,-2.258319,3.053708,0.00664,0.005058,8.127841,-115.23679,-141.1863,4.821551,0.101488,4.821551,0.101488,-139.99986,-140.0,146.24638,0.323853,0.182115,192.83136,186.77335,-0.008252,-0.062584,-1676.4784,375.56512
-0.001439,0.096433,0.0,0.0,0.0,0.0,0.74,1.95707696E8,1.95707696E8,1.95707712E8,1.95707712E8,1.9570776E8,1.95707792E8,63.991825,-22.605427,146.24667,0.10228,4.821478,179.95674,-2.846622,3.018991,0.006598,0.004622,8.114372,-117.939255,-143.88875,4.821486,0.102176,4.821486,0.102176,-139.99986,-140.0,146.24667,0.326021,0.168094,192.8313,189.2671,-0.008929,-0.059517,-1676.6776,355.0208
-0.001284,0.096437,0.0,0.0,0.0,0.0,0.74,1.95707696E8,1.95707696E8,1.95707712E8,1.95707712E8,1.9570776E8,1.95707792E8,63.991825,-22.605427,146.24695,0.102921,4.821432,179.9567,-3.449902,2.98349,0.006656,0.004244,8.100686,-120.641754,-146.59125,4.821439,0.102823,4.821439,0.102823,-139.99986,-140.0,146.24695,0.327416,0.14904,192.83124,191.71799,-0.009564,-0.056601,-1676.8593,334.45737
-0.001439,0.096433,0.0,0.0,0.0,0.0,0.74,1.95707696E8,1.95707696E8,1.95707712E8,1.95707712E8,1.9570776E8,1.95707792E8,63.991825,-22.605427,146.24718,0.103518,4.821399,179.95668,-4.065727,2.947269,0.006611,0.003787,8.08674,-123.3443,-149.2938,4.821404,0.103426,4.821404,0.103426,-149.99986,-150.0,146.24718,0.328034,0.136327,192.83122,194.12198,-0.010131,-0.053824,-1677.0244,313.73914
-0.001284,0.096437,0.0,0.0,0.0,0.0,0.74,1.95707696E8,1.95707696E8,1.95707712E8,1.95707712E8,1.9570776E8,1.95707792E8,63.991825,-22.605427,146.24739,0.104089,4.821369,179.9567,-4.705078,2.910433,0.00662,0.003352,8.072567,-126.046875,-151.99637,4.821373,0.104,4.821373,0.104,-149.99986,-150.0,146.24739,0.327868,0.119554,192.83122,196.47523,-0.010934,-0.051177,-1677.1741,292.7071
-0.001469,0.096429,0.0,0.0,0.0,0.0,0.74,1.95707696E8,1.95707696E8,1.95707712E8,1.95707712E8,1.9570776E8,1.95707792E8,63.991825,-22.605427,146.24757,0.10463,4.821348,179.95667,-5.36003,2.873018,0.006567,0.002878,8.058105,-128.7495,-154.69899,4.821352,0.10455,4.821352,0.10455,-149.99986,-150.0,146.24757,0.326916,0.101507,192.8312,198.77412,-0.011949,-0.048665,-1677.3094,271.16647
-0.001284,0.096433,0.0,0.0,0.0,0.0,0.2,1.95707696E8,1.95707696E8,1.95707712E8,1.95707712E8,1.9570776E8,1.95707792E8,63.991825,-22.605427,146.24774,0.105161,4.821336,179.95667,-6.03161,2.835079,0.006581,0.002426,8.043764,-131.45216,-157.40166,4.821338,0.105076,4.821338,0.105076,-149.99986,-150.0,146.24774,0.325175,0.084164,192.8312,201.01515,-0.012435,-0.046273,-1677.4313,248.86617
-0.001494,0.096427,0.0,0.0,0.0,0.0,0.2,1.95707696E8,1.95707696E8,1.95707712E8,1.95707712E8,1.9570776E8,1.95707792E8,63.991825,-22.605427,146.24742,0.10908,4.90798,179.95695,-12.321097,2.65632,-0.026575,-3.09E-4,6.029589,119.923744,-182.99034,4.905126,0.109052,4.905126,0.109052,-179.99986,-180.0,146.24742,0.281441,-0.075074,192.8315,218.23007,-0.016542,-0.029241,-1568.0549,31.916258
-0.001284,0.096433,0.0,0.0,0.0,0.0,0.2,1.95707696E8,1.95707696E8,1.95707712E8,1.95707712E8,1.9570776E8,1.95707792E8,63.991825,-22.605427,146.24731,0.109233,4.922143,179.95699,-12.933286,2.664844,-0.024193,-1.99E-4,7.304281,117.89265,-185.02144,4.91953,0.10921,4.91953,0.10921,-179.99986,-180.0,146.24731,0.27599,-0.054008,192.83151,219.73624,-0.016791,-0.027804,-1547.5753,64.53801
-0.001494,0.096427,0.0,0.0,0.0,0.0,0.2,1.95707696E8,1.95707696E8,1.95707712E8,1.95707712E8,1.9570776E8,1.95707792E8,63.991825,-22.605427,146.24725,0.10934,4.930552,179.957,-13.441959,2.671859,-0.024361,-1.44E-4,7.669601,115.85217,-187.06192,4.92882,0.109321,4.92882,0.109321,-189.99986,-190.0,146.24725,0.2715,-0.039013,192.83153,220.92754,-0.017008,-0.026662,-1546.0466,90.89419
-0.001284,0.096433,0.0,0.0,0.0,0.0,0.2,1.95707696E8,1.95707696E8,1.95707712E8,1.95707712E8,1.9570776E8,1.95707792E8,63.991825,-22.605427,146.2472,0.109452,4.938353,179.95702,-14.152306,2.681568,-0.021397,-7.5E-5,7.871534,112.77685,-190.13724,4.937414,0.109438,4.937414,0.109438,-189.99986,-190.0,146.2472,0.26529,-0.022039,192.83156,222.49644,-0.017218,-0.025143,-1553.1179,126.377396
-0.001562,0.098576,0.0,0.0,0.0,0.0,0.2,1.95707696E8,1.95707696E8,1.95707712E8,1.95707712E8,1.9570776E8,1.95707792E8,63.991825,-22.605427,146.24718,0.109496,4.94206,179.95703,-14.708653,2.689189,-0.008025,-1.7E-5,7.91712,110.34944,-192.56465,4.941395,0.109491,4.941395,0.109491,-189.99986,-190.0,146.24718,0.260467,-0.011808,192.83156,223.64731,-0.017413,-0.024012,-1558.7366,153.00421
-0.001284,0.096433,0.0,0.0,0.0,0.0,0.2,1.95707696E8,1.95707696E8,1.95707712E8,1.95707712E8,1.9570776E8,1.95707792E8,63.991825,-22.605427,146.24716,0.109505,4.944355,179.95703,-15.313143,2.697559,0.014537,1.5E-5,7.947801,107.662,-195.25208,4.944024,0.109506,4.944024,0.109506,-189.99986,-190.0,146.24716,0.255305,-0.004562,192.83156,224.81984,-0.017587,-0.022838,-1566.0631,180.75168
-0.001564,0.098828,0.0,0.0,0.0,0.0,0.2,1.95707696E8,1.95707696E8,1.95707712E8,1.95707712E8,1.9570776E8,1.95707792E8,63.991825,-22.605427,146.24715,0.109476,4.945314,179.95703,-15.914636,2.706054,0.100221,2.8E-5,7.957301,104.96442,-197.94966,4.94519,0.109481,4.94519,0.109481,-199.99986,-200.0,146.24715,0.250246,2.68E-4,192.83156,225.90523,-0.017729,-0.021723,-1573.2805,207.11362
-0.001284,0.096433,0.0,0.0,0.0,0.0,0.2,1.95707696E8,1.95707696E8,1.95707712E8,1.95707712E8,1.9570776E8,1.95707792E8,63.991825,-22.605427,146.24716,0.109429,4.945314,179.95702,-16.513248,2.714722,0.163134,4.8E-5,7.960454,102.26325,-200.65083,4.945344,0.109439,4.945344,0.109439,-199.99986,-200.0,146.24716,0.245286,0.003925,192.83156,226.90306,-0.01787,-0.020663,-1580.1284,232.07579
-0.001564,0.098828,0.0,0.0,0.0,0.0,0.2,1.95707696E8,1.95707696E8,1.95707712E8,1.95707712E8,1.9570776E8,1.95707792E8,63.991825,-22.605427,146.24716,0.109342,4.944608,179.95702,-17.108637,2.72361,0.082356,6.0E-5,7.961243,99.56082,-203.35326,4.944753,0.109359,4.944753,0.109359,-199.99986,-200.0,146.24716,0.240425,0.00785,192.83156,227.81306,-0.018003,-0.019657,-1586.5414,255.64056
-0.001563,0.098907,0.0,0.0,0.0,0.0,0.2,1.95707696E8,1.95707696E8,1.95707712E8,1.95707712E8,1.9570776E8,1.95707792E8,63.991825,-22.605427,146.24718,0.109215,4.943372,179.957,-17.700468,2.732723,0.081685,8.5E-5,7.961182,96.85793,-206.05615,4.943604,0.109238,4.943604,0.109238,-199.99986,-200.0,146.24718,0.235661,0.009862,192.83154,228.6352,-0.018118,-0.018701,-1592.5201,277.82397
-0.001564,0.098828,0.0,0.0,0.0,0.0,0.2,1.95707696E8,1.95707696E8,1.95707712E8,1.95707712E8,1.9570776E8,1.95707792E8,63.991825,-22.605427,146.24721,0.109072,4.941761,179.95699,-18.288465,2.742069,0.068329,8.6E-5,7.914289,94.12474,-208.78934,4.942054,0.109096,4.942054,0.109096,-209.99986,-210.0,146.24721,0.23099,0.012714,192.83153,229.36955,-0.018211,-0.017793,-1599.2275,298.65317
-0.001563,0.098907,0.0,0.0,0.0,0.0,0.2,1.95707696E8,1.95707696E8,1.95707712E8,1.95707712E8,1.9570776E8,1.95707792E8,63.991825,-22.605427,146.24722,0.108921,4.939886,179.95697,-18.87278,2.751669,0.068362,9.6E-5,7.941914,91.441154,-211.47293,4.940224,0.108948,4.940224,0.108948,-209.99986,-210.0,146.24722,0.226413,0.01268,192.83151,230.01645,-0.018288,-0.01693,-1603.542,318.16425
-0.001559,0.098841,0.0,0.0,0.0,0.0,0.2,1.95707696E8,1.95707696E8,1.95707712E8,1.95707712E8,1.9570776E8,1.95707792E8,63.991825,-22.605427,146.24724,0.108753,4.937824,179.95695,-19.45314,2.761526,0.065854,1.0E-4,7.952923,88.74488,-214.1692,4.938194,0.108782,4.938194,0.108782,-209.99986,-210.0,146.24724,0.221926,0.013217,192.8315,230.57631,-0.018356,-0.016109,-1608.0686,336.40012
-0.001563,0.098907,0.0,0.0,0.0,0.0,0.2,1.95707696E8,1.95707696E8,1.95707712E8,1.95707712E8,1.9570776E8,1.95707792E8,63.991825,-22.605427,146.24727,0.10858,4.935641,179.95694,-20.029446,2.771641,0.064872,1.03E-4,7.956674,86.04413,-216.86995,4.936032,0.10861,4.936032,0.10861,-209.99986,-210.0,146.24727,0.217528,0.013351,192.83148,231.04977,-0.018417,-0.015328,-1612.4622,353.4091
-0.001554,0.098764,0.0,0.0,0.0,0.0,0.2,1.95707696E8,1.95707696E8,1.95707712E8,1.95707712E8,1.9570776E8,1.95707792E8,63.991825,-22.605427,146.24728,0.108398,4.933386,179.95692,-20.601645,2.782014,0.058595,9.4E-5,7.957568,83.34179,-219.5723,4.93379,0.10843,4.93379,0.10843,-219.99986,-220.0,146.24728,0.213217,0.011841,192.83147,231.43759,-0.018468,-0.014586,-1616.6166,369.24316
-0.001563,0.098907,0.0,0.0,0.0,0.0,0.2,1.95707696E8,1.95707696E8,1.95707712E8,1.95707712E8,1.9570776E8,1.95707792E8,63.991825,-22.605427,146.24731,0.108219,4.931109,179.95691,-21.169683,2.792647,0.05546,9.0E-5,7.95743,80.638885,-222.2752,4.931518,0.10825,4.931518,0.10825,-219.99986,-220.0,146.24731,0.208991,0.012714,192.83145,231.7407,-0.01852,-0.013881,-1620.5084,383.95712
-0.001554,0.098764,0.0,0.0,0.0,0.0,0.2,1.95707696E8,1.95707696E8,1.95707712E8,1.95707712E8,1.9570776E8,1.95707792E8,63.991825,-22.605427,146.24733,0.108038,4.928841,179.9569,-21.73346,2.803543,0.057208,9.1E-5,7.956911,77.93577,-224.97832,4.929249,0.108069,4.929249,0.108069,-219.99986,-220.0,146.24733,0.20485,0.012781,192.83144,231.9602,-0.018556,-0.013209,-1624.1422,397.60715
-0.001546,0.09863,0.0,0.0,0.0,0.0,0.2,1.95707696E8,1.95707696E8,1.95707712E8,1.95707712E8,1.9570776E8,1.95707792E8,63.991825,-22.605427,146.24736,0.107842,4.9266,179.95688,-22.293053,2.81471,0.064662,1.02E-4,7.956242,75.23257,-227.68152,4.927005,0.107877,4.927005,0.107877,-229.99986,-230.0,146.24736,0.20079,0.013552,192.83142,232.0973,-0.01859,-0.012572,-1627.5312,410.2502
-0.001554,0.098764,0.0,0.0,0.0,0.0,0.2,1.95707696E8,1.95707696E8,1.95707712E8,1.95707712E8,1.9570776E8,1.95707792E8,63.991825,-22.605427,146.24738,0.107643,4.924402,179.95686,-22.848038,2.826129,0.064273,9.9E-5,7.955504,72.52933,-230.38477,4.92478,0.107677,4.92478,0.107677,-229.99986,-230.0,146.24738,0.196811,0.013083,192.8314,232.15337,-0.01861,-0.011965,-1630.6907,421.9432
-0.001546,0.098764,0.0,0.0,0.0,0.0,0.2,1.95707696E8,1.95707696E8,1.95707712E8,1.95707712E8,1.9570776E8,1.95707792E8,63.991825,-22.605427,146.24739,0.107463,4.922269,179.95685,-23.398453,2.837801,0.069151,1.03E-4,7.954722,69.82606,-233.08803,4.922676,0.107492,4.922676,0.107492,-229.99986,-230.0,146.24739,0.192911,0.011405,192.83139,232.1299,-0.018614,-0.011387,-1633.6361,432.7511
-0.001541,0.09854,0.0,0.0,0.0,0.0,0.2,1.95707696E8,1.95707696E8,1.95707712E8,1.95707712E8,1.9570776E8,1.95707792E8,63.991825,-22.605427,146.24742,0.107296,4.920216,179.95683,-23.944448,2.849731,0.061129,8.7E-5,7.953926,67.12277,-235.7913,4.92061,0.107325,4.92061,0.107325,-229.99986,-230.0,146.24742,0.189087,0.0105,192.83138,232.0285,-0.018628,-0.010837,-1636.3821,442.73517
-0.001546,0.098764,0.0,0.0,0.0,0.0,0.2,1.95707696E8,1.95707696E8,1.95707712E8,1.95707712E8,1.9570776E8,1.95707792E8,63.991825,-22.605427,146.24744,0.107155,4.918253,179.95682,-24.48586,2.861914,0.055835,7.6E-5,7.945943,64.36866,-238.54543,4.918633,0.107179,4.918633,0.107179,-239.99986,-240.0,146.24744,0.18534,0.012613,192.83136,231.85094,-0.018638,-0.010313,-1640.9562,451.94745
-0.001541,0.098764,0.0,0.0,0.0,0.0,0.2,1.95707696E8,1.95707696E8,1.95707712E8,1.95707712E8,1.9570776E8,1.95707792E8,63.991825,-22.605427,146.24745,0.107016,4.916381,179.9568,-25.022818,2.874359,0.069715,9.0E-5,7.921226,61.698265,-241.21582,4.916746,0.107041,4.916746,0.107041,-239.99986,-240.0,146.24745,0.181667,0.011405,192.83134,231.59906,-0.018647,-0.009815,-1641.914,460.43835
-0.001533,0.098412,0.0,0.0,0.0,0.0,0.2,1.95707696E8,1.95707696E8,1.95707712E8,1.95707712E8,1.9570776E8,1.95707792E8,63.991825,-22.605427,146.24748,0.1069,4.914607,179.95679,-25.55487,2.886947,0.061874,7.5E-5,6.347333,59.563736,-243.35034,4.914953,0.106918,4.914953,0.106918,-239.99986,-240.0,146.24748,0.178067,0.009996,192.83133,231.27487,-0.018642,-0.009339,-1621.0627,468.25665
-0.001541,0.098764,0.0,0.0,0.0,0.0,0.2,1.95707696E8,1.95707696E8,1.95707712E8,1.95707712E8,1.9570776E8,1.95707792E8,63.991825,-22.605427,146.2475,0.106804,4.912937,179.95679,-26.082533,2.899745,0.07644,8.8E-5,4.322161,58.760952,-244.15314,4.913266,0.106822,4.913266,0.106822,-239.99986,-240.0,146.2475,0.174538,0.01003,192.83133,230.8804,-0.018644,-0.008887,-1546.4672,475.44998
-0.001533,0.098335,0.0,0.0,0.0,0.0,0.2,1.95707696E8,1.95707696E8,1.95707712E8,1.95707712E8,1.9570776E8,1.95707792E8,63.991825,-22.605427,146.24751,0.1067,4.911353,179.95677,-26.605227,2.912821,0.080736,9.3E-5,3.313087,58.47265,-244.44144,4.911667,0.106718,4.911667,0.106718,-239.99986,-240.0,146.24751,0.171079,0.010768,192.83131,230.41788,-0.018642,-0.008457,-1450.7954,497.30243
-0.001541,0.098412,0.0,0.0,0.0,0.0,0.2,1.95707696E8,1.95707696E8,1.95707712E8,1.95707712E8,1.9570776E8,1.95707792E8,63.991825,-22.605427,146.24753,0.10644,4.90906,179.95676,-27.118843,2.926852,0.06919,1.67E-4,2.860204,58.365425,-244.54866,4.909598,0.106503,4.909598,0.106503,-239.99986,-240.0,146.24753,0.167689,0.02271,192.8313,229.88953,-0.018724,-0.008055,-1347.3411,561.7535
-0.001541,0.098764,0.0,0.0,0.0,0.0,0.2,1.95707696E8,1.95707696E8,1.95707712E8,1.95707712E8,1.9570776E8,1.95707792E8,63.991825,-22.605427,146.24759,0.105818,4.904517,179.9567,-27.62478,2.941401,0.061712,2.6E-4,2.671652,58.32195,-244.59213,4.9055,0.105947,4.9055,0.105947,-239.99986,-240.0,146.24759,0.16437,0.033344,192.83125,229.29773,-0.018795,-0.007686,-1240.9647,620.94275
-0.001541,0.098233,0.0,0.0,0.0,0.0,0.2,1.95707696E8,1.95707696E8,1.95707712E8,1.95707712E8,1.9570776E8,1.95707792E8,63.991825,-22.605427,146.24767,0.104803,4.89685,179.9566,-28.167677,2.957275,0.052492,3.11E-4,2.594253,58.29964,-244.61444,4.898301,0.104987,4.898301,0.104987,-239.99986,-240.0,146.24767,0.160915,0.047265,192.83116,228.58781,-0.018829,-0.00732,-1124.4965,678.56946
-0.001514,0.09811,0.0,0.0,0.0,0.0,0.2,1.95707696E8,1.95707696E8,1.95707712E8,1.95707712E8,1.9570776E8,1.95707792E8,63.991825,-22.605427,146.24774,0.103739,4.888551,179.95651,-28.624107,2.970704,0.052431,3.67E-4,2.569576,58.287796,-244.62628,4.890376,0.103957,4.890376,0.103957,-239.99986,-240.0,146.24774,0.158066,0.055953,192.83109,227.93356,-0.018821,-0.007033,-1025.5679,721.88666
-0.001541,0.098233,0.0,0.0,0.0,0.0,0.2,1.95707696E8,1.95707696E8,1.95707712E8,1.95707712E8,1.9570776E8,1.95707792E8,63.991825,-22.605427,146.24783,0.102451,4.878202,179.9564,-29.119,2.985322,0.049776,3.85E-4,2.557752,58.27743,-244.63666,4.880226,0.10269,4.880226,0.10269,-239.99986,-240.0,146.24783,0.155028,0.063031,192.83098,227.16626,-0.018757,-0.006739,-917.49634,763.4832
-0.001514,0.09811,0.0,0.0,0.0,0.0,0.2,1.95707696E8,1.95707696E8,1.95707712E8,1.95707712E8,1.9570776E8,1.95707792E8,63.991825,-22.605427,146.24794,0.101101,4.867183,179.9563,-29.605354,3.000435,0.042051,3.79E-4,2.551411,58.26793,-244.64615,4.869304,0.101348,4.869304,0.101348,-239.99986,-240.0,146.24794,0.152059,0.061589,192.83086,226.34566,-0.018674,-0.006462,-809.37396,799.35944
-0.001467,0.097605,0.0,0.0,0.0,0.0,0.2,1.95707696E8,1.95707696E8,1.95707712E8,1.95707712E8,1.9570776E8,1.95707792E8,63.991825,-22.605427,146.24803,0.099748,4.857656,179.95613,-29.825838,3.011867,0.023259,3.76E-4,2.551175,58.259064,-244.65501,4.859249,0.099979,4.859249,0.099979,-239.99986,-240.0,146.24803,0.149194,0.052968,192.8307,225.47443,-0.018543,-0.006206,-701.21155,829.8101
-0.001514,0.09811,0.0,0.0,0.0,0.0,0.2,1.95707696E8,1.95707696E8,1.95707712E8,1.95707712E8,1.9570776E8,1.95707792E8,63.991825,-22.605427,146.24811,0.098423,4.8507,179.95592,-29.747728,3.018368,0.015012,4.39E-4,2.556827,58.250656,-244.66344,4.851705,0.098633,4.851705,0.098633,-239.99986,-240.0,146.24811,0.146505,0.044145,192.83049,224.55533,-0.0185,-0.005981,-593.01776,855.2001
-0.001514,0.09811,0.0,0.0,0.0,0.0,0.2,1.95707696E8,1.95707696E8,1.95707712E8,1.95707712E8,1.9570776E8,1.95707792E8,63.991825,-22.605427,146.24817,0.097156,4.845822,179.95569,-29.650663,3.027724,0.010873,5.15E-4,2.566701,58.24243,-244.67166,4.846591,0.097343,4.846591,0.097343,-239.99986,-240.0,146.24817,0.144051,0.03965,192.83026,223.59111,-0.018161,-0.005747,-484.8181,875.93646
-0.001514,0.097185,0.0,0.0,0.0,0.0,0.2,1.95707696E8,1.95707696E8,1.95707712E8,1.95707712E8,1.9570776E8,1.95707792E8,63.991825,-22.605427,146.24825,0.095992,4.842473,179.95543,-29.527668,3.039123,0.009057,6.31E-4,2.57942,58.23427,-244.67981,4.842975,0.096161,4.842975,0.096161,-239.99986,-240.0,146.24825,0.141883,0.038979,192.83002,222.58461,-0.018303,-0.005539,-376.63333,892.4464
-0.001514,0.09811,0.0,0.0,0.0,0.0,0.2,1.95707696E8,1.95707696E8,1.95707712E8,1.95707712E8,1.9570776E8,1.95707792E8,63.991825,-22.605427,146.2483,0.094941,4.84018,179.95511,-29.386091,3.052209,0.008304,7.92E-4,2.595232,58.225945,-244.68814,4.840512,0.09509,4.840512,0.09509,-239.99986,-240.0,146.2483,0.14004,0.046493,192.8297,221.53865,-0.018459,-0.005341,-268.52914,905.16064
-0.001514,0.09811,0.0,0.0,0.0,0.0,0.2,1.95707696E8,1.95707696E8,1.95707712E8,1.95707712E8,1.9570776E8,1.95707792E8,63.991825,-22.605427,146.24838,0.094019,4.8386,179.9547,-29.232311,3.066635,0.007753,9.58E-4,2.610618,58.217777,-244.6963,4.838821,0.094147,4.838821,0.094147,-239.99986,-240.0,146.24838,0.138549,0.047533,192.8293,220.45607,-0.01874,-0.005169,-160.48286,914.5015
-0.001514,0.096859,0.0,0.0,0.0,0.0,0.2,1.95707696E8,1.95707696E8,1.95707712E8,1.95707712E8,1.9570776E8,1.95707792E8,63.991825,-22.605427,146.24846,0.093235,4.83755,179.95421,-29.070154,3.082026,0.007414,0.001138,2.628376,58.2098,-244.70428,4.837692,0.093342,4.837692,0.093342,-239.99986,-240.0,146.24846,0.13743,0.051793,192.82884,219.33978,-0.01909,-0.005013,-52.651203,920.8743
-0.001514,0.09811,0.0,0.0,0.0,0.0,0.2,1.95707696E8,1.95707696E8,1.95707712E8,1.95707712E8,1.9570776E8,1.95707792E8,63.991825,-22.605427,146.24854,0.0926,4.836831,179.95369,-28.90318,3.098047,0.007252,0.001339,2.6472,58.201736,-244.71234,4.836932,0.092686,4.836932,0.092686,-239.99986,-240.0,146.24854,0.136692,0.059677,192.82832,218.19263,-0.019486,-0.004868,-17.378567,924.66174
-0.001514,0.096776,0.0,0.0,0.0,0.0,0.2,1.95707696E8,1.95707696E8,1.95707712E8,1.95707712E8,1.9570776E8,1.95707792E8,63.991825,-22.605427,146.24864,0.092096,4.836337,179.95312,-28.7347,3.114414,0.006983,0.001512,2.666257,58.193653,-244.72043,4.836401,0.092164,4.836401,0.092164,-239.99986,-240.0,146.24864,0.136339,0.066956,192.82776,217.01749,-0.019912,-0.004734,-17.49852,926.2203
