aileron,elevator,rudder,flaps,slats,speedbrake,throttle,engine-pump0,engine-pump1,electric-pump0,electric-pump1,external-power,APU-generator,latitude-deg,longitude-deg,altitude-ft,roll-deg,pitch-deg,heading-deg,side-slip-deg,airspeed-kt,glideslope,vertical-speed-fps,airspeed-indicator_indicated-speed-kt,altimeter_indicated-altitude-ft,altimeter_pressure-alt-ft,attitude-indicator_indicated-pitch-deg,attitude-indicator_indicated-roll-deg,attitude-indicator_internal-pitch-deg,attitude-indicator_internal-roll-deg,encoder_indicated-altitude-ft,encoder_pressure-alt-ft,gps_indicated-altitude-ft,gps_indicated-ground-speed-kt,gps_indicated-vertical-speed,indicated-heading-offset-deg,indicated-heading-deg,magnetic-compass_indicated-heading-deg,slip-skid-ball_indicated-slip-skid,turn-indicator_indicated-turn-rate,vertical-speed-indicator_indicated-speed-fpm,engine_rpm
0.0,0.0,0.0,0.0,0.0,0.0,1.0,1.62050864E8,1.62050864E8,1.6205088E8,1.6205088E8,1.62050928E8,1.6205096E8,63.985043,-22.592484,-9999.0,0.0,0.424,270.02136,0.0,0.0,0.0,0.0,0.0,0.0,0.0,0.0,0.0,0.0,0.0,0.0,0.0,0.0,0.0,0.0,12.876752,0.0,0.0,0.0,0.0,0.0,0.0
0.0,0.0,0.0,0.0,0.0,0.0,1.0,1.62050864E8,1.62050864E8,1.6205088E8,1.6205088E8,1.62050928E8,1.6205096E8,63.985043,-22.592484,-9999.0,0.0,0.424,270.02136,0.0,0.0,0.0,0.0,0.0,389.08878,1.193444,12.0,40.0,0.0,0.0,0.0,0.0,0.0,0.0,0.0,12.876752,282.89813,0.0,0.0,0.0,0.0,0.0
0.0,0.0,0.0,0.0,0.0,0.0,1.0,1.62050864E8,1.62050864E8,1.6205088E8,1.6205088E8,1.62050928E8,1.6205096E8,63.991837,-22.605425,-9999.0,0.0,0.424,180.01839,0.0,0.0,0.0,0.0,0.0,389.08878,1.193444,12.0,40.0,0.0,0.0,0.0,0.0,0.0,0.0,0.0,12.876752,282.89813,0.0,0.0,0.0,0.0,0.0
0.0,0.0,0.0,0.0,0.0,0.0,1.0,1.62050864E8,1.62050864E8,1.6205088E8,1.6205088E8,1.62050928E8,1.6205096E8,63.991837,-22.605425,-9999.0,0.0,0.424,180.01839,0.0,0.0,0.0,0.0,0.0,389.08878,1.193444,12.0,40.0,0.0,0.0,0.0,0.0,0.0,0.0,0.0,12.876752,282.89813,0.0,0.0,0.0,0.0,0.0
0.0,0.0,0.0,0.0,0.0,0.0,1.0,1.62050864E8,1.62050864E8,1.6205088E8,1.6205088E8,1.62050928E8,1.6205096E8,63.991837,-22.605425,-9999.0,0.0,0.424,180.01839,0.0,0.0,0.0,0.0,0.0,389.08878,1.193444,12.0,40.0,0.0,0.0,0.0,0.0,0.0,0.0,0.0,12.876752,282.89813,0.0,0.0,0.0,0.0,0.0
0.0,0.0,0.0,0.0,0.0,0.0,1.0,1.62050864E8,1.62050864E8,1.6205088E8,1.6205088E8,1.62050928E8,1.6205096E8,63.991837,-22.605425,-9999.0,0.0,0.424,180.01839,0.0,0.0,0.0,0.0,0.0,389.08878,1.193444,12.0,40.0,0.0,0.0,0.0,0.0,0.0,0.0,0.0,12.876752,282.89813,0.0,0.0,0.0,0.0,0.0
0.0,0.0,0.0,0.0,0.0,0.0,1.0,1.62050864E8,1.62050864E8,1.6205088E8,1.6205088E8,1.62050928E8,1.6205096E8,63.991837,-22.605425,-9999.0,0.0,0.424,180.01839,0.0,0.0,0.0,0.0,0.0,389.08878,1.193444,12.0,40.0,0.0,0.0,0.0,0.0,0.0,0.0,0.0,12.876752,282.89813,0.0,0.0,0.0,0.0,0.0
0.0,0.0,0.0,0.0,0.0,0.0,1.0,1.62050864E8,1.62050864E8,1.6205088E8,1.6205088E8,1.62050928E8,1.6205096E8,63.991837,-22.605425,-9999.0,0.0,0.424,180.01839,0.0,0.0,0.0,0.0,0.0,389.08878,1.193444,12.0,40.0,0.0,0.0,0.0,0.0,0.0,0.0,0.0,12.876752,282.89813,0.0,0.0,0.0,0.0,0.0
0.0,0.0,0.0,0.0,0.0,0.0,1.0,1.62050864E8,1.62050864E8,1.6205088E8,1.6205088E8,1.62050928E8,1.6205096E8,63.991837,-22.605425,-9999.0,0.0,0.424,180.01839,0.0,0.0,0.0,0.0,0.0,389.08878,1.193444,12.0,40.0,0.0,0.0,0.0,0.0,0.0,0.0,0.0,12.876752,282.89813,0.0,0.0,0.0,0.0,0.0
0.0,0.0,0.0,0.0,0.0,0.0,1.0,1.62050864E8,1.62050864E8,1.6205088E8,1.6205088E8,1.62050928E8,1.6205096E8,63.991837,-22.605425,-9999.0,0.0,0.424,180.01839,0.0,0.0,0.0,0.0,0.0,389.08878,1.193444,12.0,40.0,0.0,0.0,0.0,0.0,0.0,0.0,0.0,12.876752,282.89813,0.0,0.0,0.0,0.0,0.0
0.0,0.0,0.0,0.0,0.0,0.0,1.0,1.62050864E8,1.62050864E8,1.6205088E8,1.6205088E8,1.62050928E8,1.6205096E8,63.991837,-22.605425,-9999.0,0.0,0.424,180.01839,0.0,0.0,0.0,0.0,0.0,389.08878,1.193444,12.0,40.0,0.0,0.0,0.0,0.0,0.0,0.0,0.0,12.876752,282.89813,0.0,0.0,0.0,0.0,0.0
0.0,0.0,0.0,0.0,0.0,0.0,1.0,1.62050864E8,1.62050864E8,1.6205088E8,1.6205088E8,1.62050928E8,1.6205096E8,63.991837,-22.605425,-9999.0,0.0,0.424,180.01839,0.0,0.0,0.0,0.0,0.0,389.08878,1.193444,12.0,40.0,0.0,0.0,0.0,0.0,0.0,0.0,0.0,12.876752,282.89813,0.0,0.0,0.0,0.0,0.0
0.0,0.0,0.0,0.0,0.0,0.0,1.0,1.62050864E8,1.62050864E8,1.6205088E8,1.6205088E8,1.62050928E8,1.6205096E8,63.991837,-22.605425,-9999.0,0.0,0.424,180.01839,0.0,0.0,0.0,0.0,0.0,389.08878,1.193444,12.0,40.0,0.0,0.0,0.0,0.0,0.0,0.0,0.0,12.876752,282.89813,0.0,0.0,0.0,0.0,0.0
0.0,0.0,0.0,0.0,0.0,0.0,1.0,1.62050864E8,1.62050864E8,1.6205088E8,1.6205088E8,1.62050928E8,1.6205096E8,63.991837,-22.605425,-9999.0,0.0,0.424,180.01839,0.0,0.0,0.0,0.0,0.0,389.08878,1.193444,12.0,40.0,0.0,0.0,0.0,0.0,0.0,0.0,0.0,12.876752,282.89813,0.0,0.0,0.0,0.0,0.0
0.0,0.0,0.0,0.0,0.0,0.0,1.0,1.62050864E8,1.62050864E8,1.6205088E8,1.6205088E8,1.62050928E8,1.6205096E8,63.991837,-22.605425,-9999.0,0.0,0.424,180.01839,0.0,0.0,0.0,0.0,0.0,389.08878,1.193444,12.0,40.0,0.0,0.0,0.0,0.0,0.0,0.0,0.0,12.876752,282.89813,0.0,0.0,0.0,0.0,0.0
0.0,0.0,0.0,0.0,0.0,0.0,1.0,1.62050864E8,1.62050864E8,1.6205088E8,1.6205088E8,1.62050928E8,1.6205096E8,63.991837,-22.605425,-9999.0,0.0,0.424,180.01839,0.0,0.0,0.0,0.0,0.0,389.08878,1.193444,12.0,40.0,0.0,0.0,0.0,0.0,0.0,0.0,0.0,12.876752,282.89813,0.0,0.0,0.0,0.0,0.0
0.0,0.0,0.0,0.0,0.0,0.0,1.0,1.62050864E8,1.62050864E8,1.6205088E8,1.6205088E8,1.62050928E8,1.6205096E8,63.991837,-22.605425,-9999.0,0.0,0.424,180.01839,0.0,0.0,0.0,0.0,0.0,389.08878,1.193444,12.0,40.0,0.0,0.0,0.0,0.0,0.0,0.0,0.0,12.876752,282.89813,0.0,0.0,0.0,0.0,0.0
0.0,0.0,0.0,0.0,0.0,0.0,1.0,1.62050864E8,1.62050864E8,1.6205088E8,1.6205088E8,1.62050928E8,1.6205096E8,63.991837,-22.605425,-9999.0,0.0,0.424,180.01839,0.0,0.0,0.0,0.0,0.0,389.08878,1.193444,12.0,40.0,0.0,0.0,0.0,0.0,0.0,0.0,0.0,12.876752,282.89813,0.0,0.0,0.0,0.0,0.0
0.0,0.0,0.0,0.0,0.0,0.0,1.0,1.62050864E8,1.62050864E8,1.6205088E8,1.6205088E8,1.62050928E8,1.6205096E8,63.991837,-22.605425,-9999.0,0.0,0.424,180.01839,0.0,0.0,0.0,0.0,0.0,389.08878,1.193444,12.0,40.0,0.0,0.0,0.0,0.0,0.0,0.0,0.0,12.876752,282.89813,0.0,0.0,0.0,0.0,0.0
0.0,0.0,0.0,0.0,0.0,0.0,1.0,1.62050864E8,1.62050864E8,1.6205088E8,1.6205088E8,1.62050928E8,1.6205096E8,63.991837,-22.605425,-9999.0,0.0,0.424,180.01839,0.0,0.0,0.0,0.0,0.0,389.08878,1.193444,12.0,40.0,0.0,0.0,0.0,0.0,0.0,0.0,0.0,12.876752,282.89813,0.0,0.0,0.0,0.0,0.0
0.0,0.0,0.0,0.0,0.0,0.0,1.0,1.62050864E8,1.62050864E8,1.6205088E8,1.6205088E8,1.62050928E8,1.6205096E8,63.991837,-22.605425,-9999.0,0.0,0.424,180.01839,0.0,0.0,0.0,0.0,0.0,389.08878,1.193444,12.0,40.0,0.0,0.0,0.0,0.0,0.0,0.0,0.0,12.876752,282.89813,0.0,0.0,0.0,0.0,0.0
0.0,0.0,0.0,0.0,0.0,0.0,1.0,1.62050864E8,1.62050864E8,1.6205088E8,1.6205088E8,1.62050928E8,1.6205096E8,63.991837,-22.605425,-9999.0,0.0,0.424,180.01839,0.0,0.0,0.0,0.0,0.0,389.08878,1.193444,12.0,40.0,0.0,0.0,0.0,0.0,0.0,0.0,0.0,12.876752,282.89813,0.0,0.0,0.0,0.0,0.0
0.0,0.0,0.0,0.0,0.0,0.0,1.0,1.62050864E8,1.62050864E8,1.6205088E8,1.6205088E8,1.62050928E8,1.6205096E8,63.991837,-22.605425,-9999.0,0.0,0.424,180.01839,0.0,0.0,0.0,0.0,0.0,389.08878,1.193444,12.0,40.0,0.0,0.0,0.0,0.0,0.0,0.0,0.0,12.876752,282.89813,0.0,0.0,0.0,0.0,0.0
0.0,0.0,0.0,0.0,0.0,0.0,1.0,1.62050864E8,1.62050864E8,1.6205088E8,1.6205088E8,1.62050928E8,1.6205096E8,63.991837,-22.605425,-9999.0,0.0,0.424,180.01839,0.0,0.0,0.0,0.0,0.0,389.08878,1.193444,12.0,40.0,0.0,0.0,0.0,0.0,0.0,0.0,0.0,12.876752,282.89813,0.0,0.0,0.0,0.0,0.0
0.0,0.0,0.0,0.0,0.0,0.0,1.0,1.62050864E8,1.62050864E8,1.6205088E8,1.6205088E8,1.62050928E8,1.6205096E8,63.991837,-22.605425,-9999.0,0.0,0.424,180.01839,0.0,0.0,0.0,0.0,0.0,389.08878,1.193444,12.0,40.0,0.0,0.0,0.0,0.0,0.0,0.0,0.0,12.876752,282.89813,0.0,0.0,0.0,0.0,0.0
0.0,0.0,0.0,0.0,0.0,0.0,1.0,1.62050864E8,1.62050864E8,1.6205088E8,1.6205088E8,1.62050928E8,1.6205096E8,63.991837,-22.605425,-9999.0,0.0,0.424,180.01839,0.0,0.0,0.0,0.0,0.0,389.08878,1.193444,12.0,40.0,0.0,0.0,0.0,0.0,0.0,0.0,0.0,12.876752,282.89813,0.0,0.0,0.0,0.0,0.0
0.0,0.0,0.0,0.0,0.0,0.0,1.0,1.62050864E8,1.62050864E8,1.6205088E8,1.6205088E8,1.62050928E8,1.6205096E8,63.991837,-22.605425,-9999.0,0.0,0.424,180.01839,0.0,0.0,0.0,0.0,0.0,389.08878,1.193444,12.0,40.0,0.0,0.0,0.0,0.0,0.0,0.0,0.0,12.876752,282.89813,0.0,0.0,0.0,0.0,0.0
0.0,0.0,0.0,0.0,0.0,0.0,1.0,1.62050864E8,1.62050864E8,1.6205088E8,1.6205088E8,1.62050928E8,1.6205096E8,63.991837,-22.605425,-9999.0,0.0,0.424,180.01839,0.0,0.0,0.0,0.0,0.0,389.08878,1.193444,12.0,40.0,0.0,0.0,0.0,0.0,0.0,0.0,0.0,12.876752,282.89813,0.0,0.0,0.0,0.0,0.0
0.0,0.0,0.0,0.0,0.0,0.0,1.0,1.62050864E8,1.62050864E8,1.6205088E8,1.6205088E8,1.62050928E8,1.6205096E8,63.991837,-22.605425,-9999.0,0.0,0.424,180.01839,0.0,0.0,0.0,0.0,0.0,389.08878,1.193444,12.0,40.0,0.0,0.0,0.0,0.0,0.0,0.0,0.0,12.876752,282.89813,0.0,0.0,0.0,0.0,0.0
0.0,0.0,0.0,0.0,0.0,0.0,1.0,1.62050864E8,1.62050864E8,1.6205088E8,1.6205088E8,1.62050928E8,1.6205096E8,63.991837,-22.605425,-9999.0,0.0,0.424,180.01839,0.0,0.0,0.0,0.0,0.0,389.08878,1.193444,12.0,40.0,0.0,0.0,0.0,0.0,0.0,0.0,0.0,12.876752,282.89813,0.0,0.0,0.0,0.0,0.0
0.0,0.0,0.0,0.0,0.0,0.0,1.0,1.62050864E8,1.62050864E8,1.6205088E8,1.6205088E8,1.62050928E8,1.6205096E8,63.991837,-22.605425,-9999.0,0.0,0.424,180.01839,0.0,0.0,0.0,0.0,0.0,389.08878,1.193444,12.0,40.0,0.0,0.0,0.0,0.0,0.0,0.0,0.0,12.876752,282.89813,0.0,0.0,0.0,0.0,0.0
0.0,0.0,0.0,0.0,0.0,0.0,1.0,1.62050864E8,1.62050864E8,1.6205088E8,1.6205088E8,1.62050928E8,1.6205096E8,63.991837,-22.605425,-9999.0,0.0,0.424,180.01839,0.0,0.0,0.0,0.0,0.0,389.08878,1.193444,12.0,40.0,0.0,0.0,0.0,0.0,0.0,0.0,0.0,12.876752,282.89813,0.0,0.0,0.0,0.0,0.0
0.0,0.0,0.0,0.0,0.0,0.0,1.0,1.62050864E8,1.62050864E8,1.6205088E8,1.6205088E8,1.62050928E8,1.6205096E8,63.991837,-22.605425,-9999.0,0.0,0.424,180.01839,0.0,0.0,0.0,0.0,0.0,389.08878,1.193444,12.0,40.0,0.0,0.0,0.0,0.0,0.0,0.0,0.0,12.876752,282.89813,0.0,0.0,0.0,0.0,0.0
0.0,0.0,0.0,0.0,0.0,0.0,1.0,1.62050864E8,1.62050864E8,1.6205088E8,1.6205088E8,1.62050928E8,1.6205096E8,63.991837,-22.605425,-9999.0,0.0,0.424,180.01839,0.0,0.0,0.0,0.0,0.0,389.08878,1.193444,12.0,40.0,0.0,0.0,0.0,0.0,0.0,0.0,0.0,12.876752,282.89813,0.0,0.0,0.0,0.0,0.0
0.0,0.0,0.0,0.0,0.0,0.0,1.0,1.62050864E8,1.62050864E8,1.6205088E8,1.6205088E8,1.62050928E8,1.6205096E8,63.991837,-22.605425,-9999.0,0.0,0.424,180.01839,0.0,0.0,0.0,0.0,0.0,389.08878,1.193444,12.0,40.0,0.0,0.0,0.0,0.0,0.0,0.0,0.0,12.876752,282.89813,0.0,0.0,0.0,0.0,0.0
0.0,0.0,0.0,0.0,0.0,0.0,1.0,1.62050864E8,1.62050864E8,1.6205088E8,1.6205088E8,1.62050928E8,1.6205096E8,63.991837,-22.605425,-9999.0,0.0,0.424,180.01839,0.0,0.0,0.0,0.0,0.0,389.08878,1.193444,12.0,40.0,0.0,0.0,0.0,0.0,0.0,0.0,0.0,12.876752,282.89813,0.0,0.0,0.0,0.0,0.0
0.0,0.0,0.0,0.0,0.0,0.0,1.0,1.62050864E8,1.62050864E8,1.6205088E8,1.6205088E8,1.62050928E8,1.6205096E8,63.991837,-22.605425,-9999.0,0.0,0.424,180.01839,0.0,0.0,0.0,0.0,0.0,389.08878,1.193444,12.0,40.0,0.0,0.0,0.0,0.0,0.0,0.0,0.0,12.876752,282.89813,0.0,0.0,0.0,0.0,0.0
0.0,0.0,0.0,0.0,0.0,0.0,1.0,1.62050864E8,1.62050864E8,1.6205088E8,1.6205088E8,1.62050928E8,1.6205096E8,63.991837,-22.605425,-9999.0,0.0,0.424,180.01839,0.0,0.0,0.0,0.0,0.0,389.08878,1.193444,12.0,40.0,0.0,0.0,0.0,0.0,0.0,0.0,0.0,12.876752,282.89813,0.0,0.0,0.0,0.0,0.0
0.0,0.0,0.0,0.0,0.0,0.0,1.0,1.62050864E8,1.62050864E8,1.6205088E8,1.6205088E8,1.62050928E8,1.6205096E8,63.991837,-22.605425,-9999.0,0.0,0.424,180.01839,0.0,0.0,0.0,0.0,0.0,389.08878,1.193444,12.0,40.0,0.0,0.0,0.0,0.0,0.0,0.0,0.0,12.876752,282.89813,0.0,0.0,0.0,0.0,0.0
0.0,0.0,0.0,0.0,0.0,0.0,1.0,1.62050864E8,1.62050864E8,1.6205088E8,1.6205088E8,1.62050928E8,1.6205096E8,63.991837,-22.605425,-9999.0,0.0,0.424,180.01839,0.0,0.0,0.0,0.0,0.0,389.08878,1.193444,12.0,40.0,0.0,0.0,0.0,0.0,0.0,0.0,0.0,12.876752,282.89813,0.0,0.0,0.0,0.0,0.0
0.0,0.0,0.0,0.0,0.0,0.0,1.0,1.62050864E8,1.62050864E8,1.6205088E8,1.6205088E8,1.62050928E8,1.6205096E8,63.991837,-22.605425,-9999.0,0.0,0.424,180.01839,0.0,0.0,0.0,0.0,0.0,389.08878,1.193444,12.0,40.0,0.0,0.0,0.0,0.0,0.0,0.0,0.0,12.876752,282.89813,0.0,0.0,0.0,0.0,0.0
0.0,0.0,0.0,0.0,0.0,0.0,1.0,1.62050864E8,1.62050864E8,1.6205088E8,1.6205088E8,1.62050928E8,1.6205096E8,63.991837,-22.605425,-9999.0,0.0,0.424,180.01839,0.0,0.0,0.0,0.0,0.0,389.08878,1.193444,12.0,40.0,0.0,0.0,0.0,0.0,0.0,0.0,0.0,12.876752,282.89813,0.0,0.0,0.0,0.0,0.0
0.0,0.0,0.0,0.0,0.0,0.0,1.0,1.62050864E8,1.62050864E8,1.6205088E8,1.6205088E8,1.62050928E8,1.6205096E8,63.991837,-22.605425,-9999.0,0.0,0.424,180.01839,0.0,0.0,0.0,0.0,0.0,389.08878,1.193444,12.0,40.0,0.0,0.0,0.0,0.0,0.0,0.0,0.0,12.876752,282.89813,0.0,0.0,0.0,0.0,0.0
0.0,0.0,0.0,0.0,0.0,0.0,0.0,1.62050864E8,1.62050864E8,1.6205088E8,1.6205088E8,1.62050928E8,1.6205096E8,63.991837,-22.605427,146.2295,0.104764,4.952322,180.01332,0.0,0.0,0.0,0.0,0.0,389.08878,1.193444,12.0,40.0,0.0,0.0,0.0,0.0,0.0,0.0,0.0,12.876752,282.89813,0.0,0.0,0.0,0.0,0.0
0.0,0.0,0.0,0.0,0.0,0.0,0.0,1.62050864E8,1.62050864E8,1.6205088E8,1.6205088E8,1.62050928E8,1.6205096E8,63.991837,-22.605427,146.2293,0.095972,4.971209,180.01263,89.86088,3.012115,-0.068763,-1.75E-4,0.0,536.69446,148.79913,12.0,40.0,0.0,0.0,140.00014,140.0,146.2293,7.6E-5,-0.020496,12.876752,282.89807,357.0098,-0.00579,-0.479496,3954.7231,0.0
0.0,0.0,0.0,0.0,0.0,0.0,0.0,1.62050864E8,1.62050864E8,1.6205088E8,1.6205088E8,1.62050928E8,1.6205096E8,63.991837,-22.605427,146.22952,0.09545,4.951427,180.01257,83.88305,2.733586,0.079302,1.8E-5,0.0,510.12122,122.225876,12.0,40.0,0.0,0.0,120.000145,120.0,146.22952,6.2E-5,0.002248,12.876752,282.89807,329.84274,-0.012613,-1.275782,2407.7942,0.0
0.0,0.0,0.0,0.0,0.0,0.0,0.0,1.62050864E8,1.62050864E8,1.6205088E8,1.6205088E8,1.62050928E8,1.6205096E8,63.991837,-22.605427,146.22954,0.09548,4.951196,180.01257,83.312004,2.711946,0.073569,1.2E-5,4.844528,508.7485,120.85316,12.0,40.0,0.0,0.0,120.000145,120.0,146.22954,6.1E-5,0.001476,12.876752,282.89807,326.53534,-0.012994,-1.325845,2280.6997,0.0
0.0,0.0,0.0,0.0,0.0,0.0,0.0,1.62050864E8,1.62050864E8,1.6205088E8,1.6205088E8,1.62050928E8,1.6205096E8,63.991837,-22.605427,146.22954,0.095937,4.950895,180.01262,81.36065,2.642481,-0.030628,-4.0E-6,5.731989,501.6016,113.70625,12.0,40.0,0.0,0.0,120.000145,120.0,146.22954,5.8E-5,-6.7E-5,12.876752,282.89807,314.7364,-0.013852,-1.476978,1762.4532,0.0
0.0,0.0,0.0,0.0,0.0,0.0,0.0,1.62050864E8,1.62050864E8,1.6205088E8,1.6205088E8,1.62050928E8,1.6205096E8,63.991837,-22.605427,146.22954,0.096109,4.950874,180.01263,80.62532,2.618006,-0.062769,-8.0E-6,6.884959,499.3173,111.42194,12.0,40.0,0.0,0.0,110.000145,110.0,146.22954,5.7E-5,-4.7E-4,12.876752,282.89807,310.14365,-0.01412,-1.526973,1566.5841,0.0
0.0,0.0,0.0,0.0,0.0,0.0,0.0,1.62050864E8,1.62050864E8,1.6205088E8,1.6205088E8,1.62050928E8,1.6205096E8,63.991837,-22.605427,146.22954,0.09631,4.950884,180.01265,79.876144,2.593967,-0.080576,-1.2E-5,7.254699,496.67667,108.78133,12.0,40.0,0.0,0.0,110.000145,110.0,146.22954,5.6E-5,-8.05E-4,12.876752,282.89807,305.40897,-0.014367,-1.574525,1342.2112,0.0
0.0,0.0,0.0,0.0,0.0,0.0,0.0,1.62050864E8,1.62050864E8,1.6205088E8,1.6205088E8,1.62050928E8,1.6205096E8,63.991837,-22.605427,146.22954,0.096382,4.950893,180.01265,79.62332,2.586054,-0.084991,-1.3E-5,7.312231,495.76285,107.86751,12.0,40.0,0.0,0.0,110.000145,110.0,146.22954,5.5E-5,-9.39E-4,12.876752,282.89807,303.80127,-0.014445,-1.589853,1261.2288,0.0
0.0,0.0,0.0,0.0,0.0,0.0,0.0,1.62050864E8,1.62050864E8,1.6205088E8,1.6205088E8,1.62050928E8,1.6205096E8,63.991837,-22.605427,146.2295,0.098367,4.951508,180.0128,74.23492,2.438961,-0.141232,-1.4E-5,5.467191,475.99316,88.09782,12.0,40.0,0.0,0.0,90.000145,90.0,146.2295,4.8E-5,-9.06E-4,12.876752,282.89807,269.31424,-0.015732,-1.848305,-558.2553,0.0
0.0,0.0,0.0,0.0,0.0,0.0,0.0,1.62050864E8,1.62050864E8,1.6205088E8,1.6205088E8,1.62050928E8,1.6205096E8,63.991837,-22.605427,146.2295,0.09851,4.951553,180.01282,73.372055,2.418897,-0.141736,-1.7E-5,6.834301,473.77386,85.878525,12.0,40.0,0.0,0.0,90.000145,90.0,146.2295,4.7E-5,-0.001073,12.876752,282.89807,263.8811,-0.015861,-1.880153,-680.9074,0.0
0.0,0.0,0.0,0.0,0.0,0.0,0.0,1.62050864E8,1.62050864E8,1.6205088E8,1.6205088E8,1.62050928E8,1.6205096E8,63.991837,-22.605427,146.2295,0.098675,4.951606,180.01283,72.49493,2.399388,-0.139692,-1.8E-5,7.249625,471.15604,83.2607,12.0,40.0,0.0,0.0,90.000145,90.0,146.2295,4.6E-5,-0.001275,12.876752,282.89807,258.41437,-0.015982,-1.910445,-799.9654,0.0
0.0,0.0,0.0,0.0,0.0,0.0,0.0,1.62050864E8,1.62050864E8,1.6205088E8,1.6205088E8,1.62050928E8,1.6205096E8,63.991837,-22.605427,146.2295,0.098858,4.951668,180.01285,71.60357,2.380447,-0.136972,-1.9E-5,7.348276,468.35315,80.45781,12.0,40.0,0.0,0.0,80.000145,80.0,146.2295,4.6E-5,-0.001342,12.876752,282.89807,252.92548,-0.016095,-1.939257,-903.1351,0.0
0.0,0.0,0.0,0.0,0.0,0.0,0.0,1.62050864E8,1.62050864E8,1.6205088E8,1.6205088E8,1.62050928E8,1.6205096E8,63.991837,-22.605427,146.22949,0.09905,4.951736,180.01286,70.69805,2.362088,-0.134206,-2.0E-5,7.400746,465.5372,77.64187,12.0,40.0,0.0,0.0,80.000145,80.0,146.22949,4.5E-5,-0.001711,12.876752,282.89807,247.42577,-0.016203,-1.96666,-986.4553,0.0
0.0,0.0,0.0,0.0,0.0,0.0,0.0,1.62050864E8,1.62050864E8,1.6205088E8,1.6205088E8,1.62050928E8,1.6205096E8,63.991837,-22.605427,146.22949,0.099246,4.951809,180.01288,69.77851,2.344327,-0.137164,-2.1E-5,7.426556,462.74677,74.85142,12.0,40.0,0.0,0.0,80.000145,80.0,146.22949,4.4E-5,-0.001543,12.876752,282.89807,241.92635,-0.016305,-1.992725,-1054.0679,0.0
0.0,0.0,0.0,0.0,0.0,0.0,0.0,1.62050864E8,1.62050864E8,1.6205088E8,1.6205088E8,1.62050928E8,1.6205096E8,63.991837,-22.605427,146.22949,0.099444,4.951883,180.0129,68.845116,2.327178,-0.136713,-2.1E-5,7.455726,459.92786,72.03251,12.0,40.0,0.0,0.0,70.000145,70.0,146.22949,4.3E-5,-0.001543,12.876752,282.89807,236.43811,-0.016401,-2.017515,-1113.1007,0.0
0.0,0.0,0.0,0.0,0.0,0.0,0.0,1.62050864E8,1.62050864E8,1.6205088E8,1.6205088E8,1.62050928E8,1.6205096E8,63.991837,-22.605427,146.22949,0.099643,4.951959,180.01291,67.89806,2.310654,-0.136169,-2.1E-5,7.467206,457.0989,69.20356,12.0,40.0,0.0,0.0,70.000145,70.0,146.22949,4.2E-5,-0.00151,12.876752,282.89807,230.97173,-0.016492,-2.041094,-1164.598,0.0
0.0,0.0,0.0,0.0,0.0,0.0,0.0,1.62050864E8,1.62050864E8,1.6205088E8,1.6205088E8,1.62050928E8,1.6205096E8,63.991837,-22.605427,146.22949,0.09984,4.952034,180.01292,66.937584,2.29477,-0.13526,-2.0E-5,7.472339,454.26642,66.37107,12.0,40.0,0.0,0.0,70.000145,70.0,146.22949,4.1E-5,-0.00151,12.876752,282.89807,225.53757,-0.016578,-2.063521,-1209.7971,0.0
0.0,0.0,0.0,0.0,0.0,0.0,0.0,1.62050864E8,1.62050864E8,1.6205088E8,1.6205088E8,1.62050928E8,1.6205096E8,63.991837,-22.605427,146.22948,0.100034,4.952109,180.01294,65.963936,2.279538,-0.134275,-2.0E-5,7.475225,451.43268,63.537323,12.0,40.0,0.0,0.0,70.000145,70.0,146.22948,4.0E-5,-0.00151,12.876752,282.89807,220.14578,-0.016659,-2.084852,-1249.7622,0.0
0.0,0.0,0.0,0.0,0.0,0.0,0.0,1.62050864E8,1.62050864E8,1.6205088E8,1.6205088E8,1.62050928E8,1.6205096E8,63.991837,-22.605427,146.22948,0.100225,4.952183,180.01295,64.97744,2.264973,-0.132901,-1.9E-5,7.477306,448.59848,60.70312,12.0,40.0,0.0,0.0,60.00014,60.0,146.22948,4.0E-5,-0.001476,12.876752,282.89807,214.80621,-0.016736,-2.10514,-1285.3446,0.0
0.0,0.0,0.0,0.0,0.0,0.0,0.0,1.62050864E8,1.62050864E8,1.6205088E8,1.6205088E8,1.62050928E8,1.6205096E8,63.991837,-22.605427,146.22948,0.100411,4.952255,180.01297,63.97843,2.251087,-0.131097,-1.8E-5,7.479089,445.7641,57.86875,12.0,40.0,0.0,0.0,60.00014,60.0,146.22948,3.9E-5,-0.001342,12.876752,282.89807,209.52841,-0.016808,-2.124437,-1317.2169,0.0
0.0,0.0,0.0,0.0,0.0,0.0,0.0,1.62050864E8,1.62050864E8,1.6205088E8,1.6205088E8,1.62050928E8,1.6205096E8,63.991837,-22.605427,146.22948,0.100594,4.952324,180.01299,62.967285,2.237893,-0.129268,-1.8E-5,7.480751,442.92966,55.03431,12.0,40.0,0.0,0.0,60.00014,60.0,146.22948,3.8E-5,-0.001342,12.876752,282.89807,204.3216,-0.016877,-2.14279,-1345.9135,0.0
0.0,0.0,0.0,0.0,0.0,0.0,0.0,1.62050864E8,1.62050864E8,1.6205088E8,1.6205088E8,1.62050928E8,1.6205096E8,63.991837,-22.605427,146.22948,0.100771,4.952393,180.013,61.944427,2.225404,-0.126794,-1.7E-5,7.482355,440.09518,52.199833,12.0,40.0,0.0,0.0,50.00014,50.0,146.22948,3.7E-5,-0.001342,12.876752,282.89807,199.19469,-0.016943,-2.160247,-1371.864,0.0
0.0,0.0,0.0,0.0,0.0,0.0,0.0,1.62050864E8,1.62050864E8,1.6205088E8,1.6205088E8,1.62050928E8,1.6205096E8,63.991837,-22.605427,146.22948,0.100944,4.952458,180.01302,60.910316,2.213632,-0.123647,-1.6E-5,7.483924,437.26068,49.365334,12.0,40.0,0.0,0.0,50.00014,50.0,146.22948,3.7E-5,-0.001308,12.876752,282.89807,194.15628,-0.017005,-2.176851,-1395.4197,0.0
0.0,0.0,0.0,0.0,0.0,0.0,0.0,1.62050864E8,1.62050864E8,1.6205088E8,1.6205088E8,1.62050928E8,1.6205096E8,63.991837,-22.605427,146.22946,0.101112,4.952522,180.01303,59.86545,2.202588,-0.120377,-1.5E-5,7.531101,434.42615,46.530815,12.0,40.0,0.0,0.0,50.00014,50.0,146.22946,3.6E-5,-0.001208,12.876752,282.89807,189.21457,-0.017064,-2.192643,-1416.8705,0.0
0.0,0.0,0.0,0.0,0.0,0.0,0.0,1.62050864E8,1.62050864E8,1.6205088E8,1.6205088E8,1.62050928E8,1.6205096E8,63.991837,-22.605427,146.22946,0.101275,4.952583,180.01305,58.810368,2.192283,-0.116606,-1.4E-5,7.571232,431.5916,43.69628,12.0,40.0,0.0,0.0,50.00014,50.0,146.22946,3.5E-5,-0.001141,12.876752,282.89807,184.37746,-0.017121,-2.207664,-1436.4594,0.0
0.0,0.0,0.0,0.0,0.0,0.0,0.0,1.62050864E8,1.62050864E8,1.6205088E8,1.6205088E8,1.62050928E8,1.6205096E8,63.991837,-22.605427,146.22946,0.101433,4.952642,180.01306,57.74564,2.182728,-0.112306,-1.3E-5,7.577381,428.75708,40.86173,12.0,40.0,0.0,0.0,40.00014,40.0,146.22946,3.4E-5,-0.00104,12.876752,282.89807,179.65245,-0.017174,-2.22195,-1454.3915,0.0
0.0,0.0,0.0,0.0,0.0,0.0,0.0,1.62050864E8,1.62050864E8,1.6205088E8,1.6205088E8,1.62050928E8,1.6205096E8,63.991837,-22.605427,146.22946,0.101587,4.952699,180.01306,56.671883,2.173933,-0.10762,-1.2E-5,7.583386,425.92252,38.02716,12.0,40.0,0.0,0.0,40.00014,40.0,146.22946,3.4E-5,-9.73E-4,12.876752,282.89807,175.04668,-0.017225,-2.235538,-1470.8423,0.0
0.0,0.0,0.0,0.0,0.0,0.0,0.0,1.62050864E8,1.62050864E8,1.6205088E8,1.6205088E8,1.62050928E8,1.6205096E8,63.991837,-22.605427,146.22946,0.101735,4.952753,180.01308,55.589745,2.165907,-0.102441,-1.1E-5,7.589476,423.08792,35.192574,12.0,40.0,0.0,0.0,40.00014,40.0,146.22946,3.3E-5,-9.39E-4,12.876752,282.89807,170.56693,-0.017274,-2.248463,-1485.9626,0.0
0.0,0.0,0.0,0.0,0.0,0.0,0.0,1.62050864E8,1.62050864E8,1.6205088E8,1.6205088E8,1.62050928E8,1.6205096E8,63.991837,-22.605427,146.22946,0.101879,4.952805,180.01309,54.499905,2.158659,-0.096325,-1.0E-5,7.595654,420.25333,32.35797,12.0,40.0,0.0,0.0,30.000143,30.0,146.22946,3.2E-5,-9.06E-4,12.876752,282.89807,166.21956,-0.017321,-2.260755,-1499.8835,0.0
0.0,0.0,0.0,0.0,0.0,0.0,0.0,1.62050864E8,1.62050864E8,1.6205088E8,1.6205088E8,1.62050928E8,1.6205096E8,63.991837,-22.605427,146.22946,0.102018,4.952854,180.0131,53.40308,2.152197,-0.089803,-9.0E-6,7.601917,417.4187,29.523355,12.0,40.0,0.0,0.0,30.000143,30.0,146.22946,3.2E-5,-8.39E-4,12.876752,282.89807,162.01057,-0.017365,-2.272447,-1512.7191,0.0
0.0,0.0,0.0,0.0,0.0,0.0,0.0,1.62050864E8,1.62050864E8,1.6205088E8,1.6205088E8,1.62050928E8,1.6205096E8,63.991837,-22.605427,146.22946,0.102152,4.952902,180.0131,52.300014,2.146528,-0.082716,-8.0E-6,7.608266,414.58408,26.68872,12.0,40.0,0.0,0.0,30.000143,30.0,146.22946,3.1E-5,-7.38E-4,12.876752,282.89807,157.94557,-0.017408,-2.283568,-1524.5701,0.0
0.0,0.0,0.0,0.0,0.0,0.0,0.0,1.62050864E8,1.62050864E8,1.6205088E8,1.6205088E8,1.62050928E8,1.6205096E8,63.991837,-22.605427,146.22946,0.102282,4.952947,180.01312,51.191483,2.141659,-0.073705,-7.0E-6,7.602823,411.71198,23.816628,12.0,40.0,0.0,0.0,30.000143,30.0,146.22946,3.1E-5,-7.38E-4,12.876752,282.89807,154.02975,-0.017449,-2.294145,-1537.0211,0.0
0.0,0.0,0.0,0.0,0.0,0.0,0.0,1.62050864E8,1.62050864E8,1.6205088E8,1.6205088E8,1.62050928E8,1.6205096E8,63.991837,-22.605427,146.22946,0.102366,4.952976,180.01312,50.449806,2.13886,-0.0691,-6.0E-6,7.588134,409.84097,21.945627,12.0,40.0,0.0,0.0,20.000143,20.0,146.22946,3.0E-5,-6.71E-4,12.876752,282.89807,151.50447,-0.017475,-2.300907,-1543.0309,0.0
0.0,0.0,0.0,0.0,0.0,0.0,0.0,1.62050864E8,1.62050864E8,1.6205088E8,1.6205088E8,1.62050928E8,1.6205096E8,63.991837,-22.605427,146.22945,0.10253,4.953031,180.01314,48.961193,2.134341,-0.056305,-5.0E-6,7.527784,406.01974,18.124388,12.0,40.0,0.0,0.0,20.000143,20.0,146.22945,2.9E-5,-5.7E-4,12.876752,282.89807,146.66447,-0.017525,-2.313773,-1557.0608,0.0
0.0,0.0,0.0,0.0,0.0,0.0,0.0,1.62050864E8,1.62050864E8,1.6205088E8,1.6205088E8,1.62050928E8,1.6205096E8,63.991837,-22.605427,146.22945,0.102647,4.95307,180.01315,47.84109,2.131899,-0.046152,-4.0E-6,7.597269,403.22412,15.328784,12.0,40.0,0.0,0.0,20.000143,20.0,146.22945,2.9E-5,-4.7E-4,12.876752,282.89807,143.22342,-0.017561,-2.322874,-1564.0822,0.0
0.0,0.0,0.0,0.0,0.0,0.0,0.0,1.62050864E8,1.62050864E8,1.6205088E8,1.6205088E8,1.62050928E8,1.6205096E8,63.991837,-22.605427,146.22945,0.102759,4.953106,180.01315,46.71881,2.130275,-0.034819,-3.0E-6,7.628205,400.40317,12.50783,12.0,40.0,0.0,0.0,20.000143,20.0,146.22945,2.8E-5,-3.69E-4,12.876752,282.89807,139.94835,-0.017595,-2.33153,-1571.596,0.0
0.0,0.0,0.0,0.0,0.0,0.0,0.0,1.62050864E8,1.62050864E8,1.6205088E8,1.6205088E8,1.62050928E8,1.6205096E8,63.991837,-22.605427,146.22945,0.102868,4.95314,180.01317,45.59521,2.129469,-0.022219,-2.0E-6,7.643559,397.57327,9.677941,12.0,40.0,0.0,0.0,10.000142,10.0,146.22945,2.8E-5,-3.69E-4,12.876752,282.89807,136.84247,-0.017628,-2.339763,-1578.9221,0.0
0.0,0.0,0.0,0.0,0.0,0.0,0.0,1.62050864E8,1.62050864E8,1.6205088E8,1.6205088E8,1.62050928E8,1.6205096E8,63.991837,-22.605427,146.22945,0.102973,4.953173,180.01318,44.471146,2.129482,-0.008569,-1.0E-6,7.653491,394.74023,6.844897,12.0,40.0,0.0,0.0,10.000142,10.0,146.22945,2.7E-5,-3.02E-4,12.876752,282.89807,133.9086,-0.01766,-2.347594,-1585.851,0.0
0.0,0.0,0.0,0.0,0.0,0.0,0.0,1.62050864E8,1.62050864E8,1.6205088E8,1.6205088E8,1.62050928E8,1.6205096E8,63.991837,-22.605427,146.22945,0.103075,4.953203,180.01318,43.347496,2.130315,0.006431,0.0,7.654121,391.85278,3.957451,12.0,40.0,0.0,0.0,10.000142,10.0,146.22945,2.7E-5,-2.35E-4,12.876752,282.89807,131.14911,-0.01769,-2.355042,-1594.4048,0.0
0.0,0.0,0.0,0.0,0.0,0.0,0.0,1.62050864E8,1.62050864E8,1.6205088E8,1.6205088E8,1.62050928E8,1.6205096E8,63.991837,-22.605427,146.22945,0.103165,4.953229,180.0132,42.31856,2.131797,0.018428,1.0E-6,7.638699,389.22107,1.325711,12.0,40.0,0.0,0.0,1.42E-4,0.0,146.22945,2.6E-5,-1.68E-4,12.876752,282.89807,128.77452,-0.017719,-2.361549,-1601.0969,0.0
0.0,0.0,0.0,0.0,0.0,0.0,0.0,1.62050864E8,1.62050864E8,1.6205088E8,1.6205088E8,1.62050928E8,1.6205096E8,63.991837,-22.605427,146.22945,0.103268,4.953258,180.0132,41.10483,2.134434,0.039144,3.0E-6,7.602094,386.2251,-1.670232,12.0,40.0,0.0,0.0,1.42E-4,0.0,146.22945,2.5E-5,-1.01E-4,12.876752,282.89807,126.16101,-0.017749,-2.368864,-1607.2424,0.0
0.0,0.0,0.0,0.0,0.0,0.0,0.0,1.62050864E8,1.62050864E8,1.6205088E8,1.6205088E8,1.62050928E8,1.6205096E8,63.991837,-22.605427,146.22945,0.103359,4.953283,180.01321,39.98753,2.137717,0.058284,4.0E-6,7.626631,383.58112,-4.314231,12.0,40.0,0.0,0.0,1.42E-4,0.0,146.22945,2.5E-5,-6.7E-5,12.876752,282.89807,123.93525,-0.017775,-2.375273,-1609.9391,0.0
0.0,0.0,0.0,0.0,0.0,0.0,0.0,1.62050864E8,1.62050864E8,1.6205088E8,1.6205088E8,1.62050928E8,1.6205096E8,63.991837,-22.605427,146.22945,0.103432,4.953302,180.01321,39.059322,2.141071,0.075497,5.0E-6,7.665779,381.34778,-6.547579,12.0,40.0,0.0,0.0,1.42E-4,0.0,146.22945,2.5E-5,6.7E-5,12.876752,282.89807,122.218025,-0.017801,-2.380373,-1613.2543,0.0
0.0,0.0,0.0,0.0,0.0,0.0,0.0,1.62050864E8,1.62050864E8,1.6205088E8,1.6205088E8,1.62050928E8,1.6205096E8,63.991837,-22.605427,146.22945,0.103531,4.953326,180.01321,37.765163,2.146708,0.091825,5.0E-6,7.568982,378.16476,-9.730577,12.0,40.0,0.0,0.0,-9.999858,-10.0,146.22945,2.4E-5,2.01E-4,12.876752,282.89807,120.024605,-0.017827,-2.387166,-1619.645,0.0
0.0,0.0,0.0,0.0,0.0,0.0,0.0,1.62050864E8,1.62050864E8,1.6205088E8,1.6205088E8,1.62050928E8,1.6205096E8,63.991837,-22.605427,146.22945,0.103612,4.953346,180.01323,36.66172,2.152407,0.124285,7.0E-6,7.677588,375.49118,-12.404153,12.0,40.0,0.0,0.0,-9.999858,-10.0,146.22945,2.4E-5,1.34E-4,12.876752,282.89807,118.34032,-0.01785,-2.39268,-1622.6857,0.0
0.0,0.0,0.0,0.0,0.0,0.0,0.0,1.62050864E8,1.62050864E8,1.6205088E8,1.6205088E8,1.62050928E8,1.6205096E8,63.991837,-22.605427,146.22945,0.103691,4.953363,180.01323,35.564465,2.1589,0.14947,8.0E-6,7.703811,372.7992,-15.096166,12.0,40.0,0.0,0.0,-9.999858,-10.0,146.22945,2.3E-5,2.68E-4,12.876752,282.89807,116.83652,-0.017873,-2.397925,-1626.2533,0.0
0.0,0.0,0.0,0.0,0.0,0.0,0.0,1.62050864E8,1.62050864E8,1.6205088E8,1.6205088E8,1.62050928E8,1.6205096E8,63.991837,-22.605427,146.22945,0.103766,4.953379,180.01324,34.474144,2.16618,0.176265,1.0E-5,7.717928,370.10068,-17.794678,12.0,40.0,0.0,0.0,-19.999857,-20.0,146.22945,2.3E-5,3.35E-4,12.876752,282.89807,115.51261,-0.017894,-2.402913,-1629.8368,0.0
0.0,0.0,0.0,0.0,0.0,0.0,0.0,1.62050864E8,1.62050864E8,1.6205088E8,1.6205088E8,1.62050928E8,1.6205096E8,63.991837,-22.605427,146.22945,0.10384,4.953393,180.01324,33.39148,2.17424,0.204438,1.1E-5,7.727965,367.39984,-20.49549,12.0,40.0,0.0,0.0,-19.999857,-20.0,146.22945,2.2E-5,4.03E-4,12.876752,282.89807,114.36765,-0.017915,-2.407658,-1633.2686,0.0
0.0,0.0,0.0,0.0,0.0,0.0,0.0,1.62050864E8,1.62050864E8,1.6205088E8,1.6205088E8,1.62050928E8,1.6205096E8,63.991837,-22.605427,146.22945,0.10391,4.953405,180.01324,32.31715,2.183071,0.234222,1.2E-5,7.736621,364.6982,-23.197119,12.0,40.0,0.0,0.0,-19.999857,-20.0,146.22945,2.2E-5,4.36E-4,12.876752,282.89807,113.400375,-0.017935,-2.41217,-1636.5006,0.0
0.0,0.0,0.0,0.0,0.0,0.0,0.0,1.62050864E8,1.62050864E8,1.6205088E8,1.6205088E8,1.62050928E8,1.6205096E8,63.991837,-22.605427,146.22946,0.103979,4.953417,180.01326,31.251806,2.192663,0.265136,1.3E-5,7.744845,361.9963,-25.899046,12.0,40.0,0.0,0.0,-19.999857,-20.0,146.22946,2.1E-5,5.37E-4,12.876752,282.89807,112.60915,-0.017954,-2.416463,-1639.5262,0.0
0.0,0.0,0.0,0.0,0.0,0.0,0.0,1.62050864E8,1.62050864E8,1.6205088E8,1.6205088E8,1.62050928E8,1.6205096E8,63.991837,-22.605427,146.22946,0.104045,4.953426,180.01326,30.196068,2.203007,0.29782,1.4E-5,7.752971,359.29425,-28.60109,12.0,40.0,0.0,0.0,-29.999857,-30.0,146.22946,2.1E-5,5.37E-4,12.876752,282.89807,111.99209,-0.017973,-2.420545,-1642.3523,0.0
0.0,0.0,0.0,0.0,0.0,0.0,0.0,1.62050864E8,1.62050864E8,1.6205088E8,1.6205088E8,1.62050928E8,1.6205096E8,63.991837,-22.605427,146.22946,0.104104,4.953434,180.01326,29.237242,2.21314,0.319173,1.5E-5,7.721241,356.72736,-31.168003,12.0,40.0,0.0,0.0,-29.999857,-30.0,146.22946,2.0E-5,8.05E-4,12.876752,282.89807,111.57753,-0.01799,-2.424112,-1648.3107,0.0
0.0,0.0,0.0,0.0,0.0,0.0,0.0,1.62050864E8,1.62050864E8,1.6205088E8,1.6205088E8,1.62050928E8,1.6205096E8,63.991837,-22.605427,146.22946,0.104171,4.953441,180.01328,28.115665,2.225907,0.365786,1.7E-5,7.723211,353.86478,-34.030582,12.0,40.0,0.0,0.0,-29.999857,-30.0,146.22946,2.0E-5,6.71E-4,12.876752,282.89807,111.27119,-0.018008,-2.428121,-1648.2147,0.0
0.0,0.0,0.0,0.0,0.0,0.0,0.0,1.62050864E8,1.62050864E8,1.6205088E8,1.6205088E8,1.62050928E8,1.6205096E8,63.991837,-22.605427,146.22946,0.104231,4.953446,180.01328,27.092045,2.238442,0.401865,1.8E-5,7.761518,351.17902,-36.716343,12.0,40.0,0.0,0.0,-29.999857,-30.0,146.22946,2.0E-5,8.05E-4,12.876752,282.89807,111.16202,-0.018024,-2.431634,-1649.8186,0.0
0.0,0.0,0.0,0.0,0.0,0.0,0.0,1.62050864E8,1.62050864E8,1.6205088E8,1.6205088E8,1.62050928E8,1.6205096E8,63.991837,-22.605427,146.22946,0.104289,4.95345,180.01328,26.080105,2.251683,0.437595,1.9E-5,7.780297,348.4826,-39.412735,12.0,40.0,0.0,0.0,-39.99986,-40.0,146.22946,1.9E-5,8.39E-4,12.876752,282.89807,111.216354,-0.01804,-2.434975,-1651.73,0.0
0.0,0.0,0.0,0.0,0.0,0.0,0.0,1.62050864E8,1.62050864E8,1.6205088E8,1.6205088E8,1.62050928E8,1.6205096E8,63.991837,-22.605427,146.22946,0.104346,4.953452,180.01329,25.080269,2.265619,0.473768,2.0E-5,7.792391,345.78247,-42.11288,12.0,40.0,0.0,0.0,-39.99986,-40.0,146.22946,1.9E-5,8.72E-4,12.876752,282.89807,111.43084,-0.018056,-2.438153,-1653.659,0.0
0.0,0.0,0.0,0.0,0.0,0.0,0.0,1.62050864E8,1.62050864E8,1.6205088E8,1.6205088E8,1.62050928E8,1.6205096E8,63.991837,-22.605427,146.22946,0.104401,4.953454,180.01329,24.092916,2.280236,0.509632,2.1E-5,7.802191,343.081,-44.814358,12.0,40.0,0.0,0.0,-39.99986,-40.0,146.22946,1.8E-5,0.001006,12.876752,282.89807,111.80187,-0.01807,-2.441175,-1655.5098,0.0
0.0,0.0,0.0,0.0,0.0,0.0,0.0,1.62050864E8,1.62050864E8,1.6205088E8,1.6205088E8,1.62050928E8,1.6205096E8,63.991837,-22.605427,146.22946,0.104454,4.953453,180.01329,23.118391,2.295523,0.544999,2.3E-5,7.811235,340.37903,-47.51631,12.0,40.0,0.0,0.0,-49.99986,-50.0,146.22946,1.8E-5,0.001073,12.876752,282.89807,112.32563,-0.018084,-2.44405,-1657.254,0.0
0.0,0.0,0.0,0.0,0.0,0.0,0.0,1.62050864E8,1.62050864E8,1.6205088E8,1.6205088E8,1.62050928E8,1.6205096E8,63.991837,-22.605427,146.22946,0.104506,4.953452,180.0133,22.156998,2.311466,0.579548,2.4E-5,7.820066,337.6769,-50.218445,12.0,40.0,0.0,0.0,-49.99986,-50.0,146.22946,1.8E-5,0.001107,12.876752,282.89807,112.99804,-0.018098,-2.446784,-1658.8871,0.0
0.0,0.0,0.0,0.0,0.0,0.0,0.0,1.62050864E8,1.62050864E8,1.6205088E8,1.6205088E8,1.62050928E8,1.6205096E8,63.991837,-22.605427,146.22948,0.104557,4.953449,180.0133,21.209002,2.32805,0.613268,2.5E-5,7.828873,334.9747,-52.920654,12.0,40.0,0.0,0.0,-49.99986,-50.0,146.22948,1.7E-5,0.001208,12.876752,282.89807,113.81483,-0.018111,-2.449385,-1660.4122,0.0
0.0,0.0,0.0,0.0,0.0,0.0,0.0,1.62050864E8,1.62050864E8,1.6205088E8,1.6205088E8,1.62050928E8,1.6205096E8,63.991837,-22.605427,146.22948,0.104606,4.953445,180.0133,20.274635,2.345264,0.64592,2.6E-5,7.837723,332.27246,-55.622894,12.0,40.0,0.0,0.0,-49.99986,-50.0,146.22948,1.7E-5,0.001241,12.876752,282.89807,114.77151,-0.018124,-2.451859,-1661.835,0.0
0.0,0.0,0.0,0.0,0.0,0.0,0.0,1.62050864E8,1.62050864E8,1.6205088E8,1.6205088E8,1.62050928E8,1.6205096E8,63.991837,-22.605427,146.22948,0.104656,4.953441,180.0133,19.35415,2.363093,0.626951,2.7E-5,7.84664,329.5702,-58.32516,12.0,40.0,0.0,0.0,-59.99986,-60.0,146.22948,1.7E-5,0.001275,12.876752,282.89807,115.86342,-0.018135,-2.454211,-1663.1615,0.0
0.0,0.0,0.0,0.0,0.0,0.0,0.0,1.62050864E8,1.62050864E8,1.6205088E8,1.6205088E8,1.62050928E8,1.6205096E8,63.991837,-22.605427,146.22948,0.104703,4.953439,180.01332,18.597813,2.37841,0.575987,2.9E-5,7.854125,327.31827,-60.57706,12.0,40.0,0.0,0.0,-59.99986,-60.0,146.22948,1.6E-5,0.001342,12.876752,282.89807,116.87315,-0.018143,-2.456084,-1664.1978,0.0
0.0,0.0,0.0,0.0,0.0,0.0,0.0,1.62050864E8,1.62050864E8,1.6205088E8,1.6205088E8,1.62050928E8,1.6205096E8,63.991837,-22.605427,146.22948,0.104782,4.953443,180.01332,17.555368,2.400539,0.529092,3.0E-5,7.822383,324.1403,-63.755066,12.0,40.0,0.0,0.0,-59.99986,-60.0,146.22948,1.6E-5,0.001375,12.876752,282.89807,118.43339,-0.018153,-2.458577,-1666.4448,0.0
0.0,0.0,0.0,0.0,0.0,0.0,0.0,1.62050864E8,1.62050864E8,1.6205088E8,1.6205088E8,1.62050928E8,1.6205096E8,63.991837,-22.605427,146.22948,0.104857,4.953451,180.01332,16.677198,2.42013,0.510457,3.1E-5,7.85796,321.45438,-66.44097,12.0,40.0,0.0,0.0,-59.99986,-60.0,146.22948,1.6E-5,0.001476,12.876752,282.89807,119.90129,-0.018163,-2.460602,-1666.8236,0.0
0.0,0.0,0.0,0.0,0.0,0.0,0.0,1.62050864E8,1.62050864E8,1.6205088E8,1.6205088E8,1.62050928E8,1.6205096E8,63.991837,-22.605427,146.22949,0.104938,4.953461,180.01334,15.813292,2.440283,0.495546,3.2E-5,7.962174,318.69736,-69.197975,12.0,40.0,0.0,0.0,-69.999855,-70.0,146.22949,1.5E-5,0.001409,12.876752,282.89807,121.48412,-0.018173,-2.462527,-1669.978,0.0
0.0,0.0,0.0,0.0,0.0,0.0,0.0,1.62050864E8,1.62050864E8,1.6205088E8,1.6205088E8,1.62050928E8,1.6205096E8,63.991837,-22.605427,146.22949,0.105024,4.953472,180.01334,14.963669,2.460981,0.492131,3.4E-5,7.892231,315.94565,-71.94971,12.0,40.0,0.0,0.0,-69.999855,-70.0,146.22949,1.5E-5,0.001543,12.876752,282.89807,123.17648,-0.018183,-2.464358,-1672.6476,0.0
0.0,0.0,0.0,0.0,0.0,0.0,0.0,1.62050864E8,1.62050864E8,1.6205088E8,1.6205088E8,1.62050928E8,1.6205096E8,63.991837,-22.605427,146.22949,0.105114,4.953482,180.01335,14.128346,2.482213,0.499907,3.5E-5,7.783647,313.2806,-74.61473,12.0,40.0,0.0,0.0,-69.999855,-70.0,146.22949,1.5E-5,0.001644,12.876752,282.89807,124.97284,-0.018197,-2.4661,-1671.759,0.0
0.0,0.0,0.0,0.0,0.0,0.0,0.0,1.62050864E8,1.62050864E8,1.6205088E8,1.6205088E8,1.62050928E8,1.6205096E8,63.991837,-22.605427,146.22949,0.105204,4.95349,180.01335,13.307333,2.503964,0.507758,3.6E-5,7.863946,310.62726,-77.2681,12.0,40.0,0.0,0.0,-69.999855,-70.0,146.22949,1.5E-5,0.001644,12.876752,282.89807,126.86758,-0.018209,-2.467757,-1670.5166,0.0
0.0,0.0,0.0,0.0,0.0,0.0,0.0,1.62050864E8,1.62050864E8,1.6205088E8,1.6205088E8,1.62050928E8,1.6205096E8,63.991837,-22.605427,146.22949,0.105297,4.953496,180.01337,12.500585,2.526222,0.486394,3.5E-5,7.871639,307.95453,-79.94083,12.0,40.0,0.0,0.0,-79.999855,-80.0,146.22949,1.4E-5,0.002281,12.876752,282.89807,128.85498,-0.018224,-2.469332,-1670.094,0.0
0.0,0.0,0.0,0.0,0.0,0.0,0.0,1.62050864E8,1.62050864E8,1.6205088E8,1.6205088E8,1.62050928E8,1.6205096E8,63.991837,-22.605427,146.2295,0.105392,4.9535,180.01337,11.708066,2.548973,0.520464,3.9E-5,7.931867,305.25012,-82.64521,12.0,40.0,0.0,0.0,-79.999855,-80.0,146.2295,1.4E-5,0.001811,12.876752,282.89807,130.92929,-0.018238,-2.470831,-1670.9204,0.0
0.0,0.0,0.0,0.0,0.0,0.0,0.0,1.62050864E8,1.62050864E8,1.6205088E8,1.6205088E8,1.62050928E8,1.6205096E8,63.991837,-22.605427,146.2295,0.10549,4.953501,180.01338,10.929686,2.572204,0.520973,4.0E-5,8.024799,302.48657,-85.40878,12.0,40.0,0.0,0.0,-79.999855,-80.0,146.2295,1.4E-5,0.001845,12.876752,282.89807,133.08467,-0.01825,-2.472257,-1674.0259,0.0
0.0,0.0,0.0,0.0,0.0,0.0,0.0,1.62050864E8,1.62050864E8,1.6205088E8,1.6205088E8,1.62050928E8,1.6205096E8,63.991837,-22.605427,146.2295,0.105589,4.953498,180.01338,10.165336,2.595902,0.526836,4.2E-5,7.998089,299.7626,-88.132744,12.0,40.0,0.0,0.0,-89.999855,-90.0,146.2295,1.3E-5,0.001979,12.876752,282.89807,135.31525,-0.018263,-2.473613,-1675.3945,0.0
0.0,0.0,0.0,0.0,0.0,0.0,0.0,1.62050864E8,1.62050864E8,1.6205088E8,1.6205088E8,1.62050928E8,1.6205096E8,63.991837,-22.605427,146.2295,0.10569,4.953493,180.0134,9.414907,2.620054,0.538856,4.3E-5,7.910117,297.113,-90.782326,12.0,40.0,0.0,0.0,-89.999855,-90.0,146.2295,1.3E-5,0.002013,12.876752,282.89807,137.61511,-0.018278,-2.474902,-1673.7478,0.0
0.0,0.0,0.0,0.0,0.0,0.0,0.0,1.62050864E8,1.62050864E8,1.6205088E8,1.6205088E8,1.62050928E8,1.6205096E8,63.991837,-22.605427,146.22952,0.105792,4.953484,180.0134,8.725856,2.630351,0.465118,3.7E-5,7.892231,294.42508,-93.47027,12.0,40.0,0.0,0.0,-89.999855,-90.0,146.22952,1.3E-5,0.00208,12.876752,282.89807,139.97832,-0.018294,-2.476129,-1673.6497,0.0
0.0,0.0,0.0,0.0,0.0,0.0,0.0,1.62050864E8,1.62050864E8,1.6205088E8,1.6205088E8,1.62050928E8,1.6205096E8,63.991837,-22.605427,146.22952,0.105898,4.953474,180.01341,8.088402,2.626078,0.315456,2.5E-5,7.957253,291.73178,-96.16356,12.0,40.0,0.0,0.0,-89.999855,-90.0,146.22952,1.3E-5,0.001476,12.876752,282.89807,142.39896,-0.018308,-2.477295,-1673.7898,0.0
0.0,0.0,0.0,0.0,0.0,0.0,0.0,1.62050864E8,1.62050864E8,1.6205088E8,1.6205088E8,1.62050928E8,1.6205096E8,63.991837,-22.605427,146.22952,0.106009,4.953465,180.01341,7.448904,2.622129,0.213958,1.7E-5,7.963584,289.0325,-98.86283,12.0,40.0,0.0,0.0,-99.999855,-100.0,146.22952,1.2E-5,0.00104,12.876752,282.89807,144.87106,-0.018323,-2.478405,-1674.1458,0.0
0.0,0.0,0.0,0.0,0.0,0.0,0.0,1.62050864E8,1.62050864E8,1.6205088E8,1.6205088E8,1.62050928E8,1.6205096E8,63.991837,-22.605427,146.22952,0.106123,4.953457,180.01343,6.807522,2.618509,0.143027,1.2E-5,7.965872,286.33112,-101.56422,12.0,40.0,0.0,0.0,-99.999855,-100.0,146.22952,1.2E-5,6.71E-4,12.876752,282.89807,147.38875,-0.018338,-2.47946,-1674.5544,0.0
0.0,0.0,0.0,0.0,0.0,0.0,0.0,1.62050864E8,1.62050864E8,1.6205088E8,1.6205088E8,1.62050928E8,1.6205096E8,63.991837,-22.605427,146.22952,0.106238,4.953449,180.01344,6.164411,2.615217,0.094069,8.0E-6,7.966836,283.629,-104.26635,12.0,40.0,0.0,0.0,-99.999855,-100.0,146.22952,1.2E-5,4.36E-4,12.876752,282.89807,149.9461,-0.018354,-2.480464,-1674.96,0.0
0.0,0.0,0.0,0.0,0.0,0.0,0.0,1.62050864E8,1.62050864E8,1.6205088E8,1.6205088E8,1.62050928E8,1.6205096E8,63.991837,-22.605427,146.22952,0.106355,4.953441,180.01344,5.519729,2.612256,0.061037,5.0E-6,7.96732,280.92657,-106.968765,12.0,40.0,0.0,0.0,-99.999855,-100.0,146.22952,1.2E-5,2.01E-4,12.876752,282.89807,152.5373,-0.01837,-2.481419,-1675.3442,0.0
0.0,0.0,0.0,0.0,0.0,0.0,0.0,1.62050864E8,1.62050864E8,1.6205088E8,1.6205088E8,1.62050928E8,1.6205096E8,63.991837,-22.605427,146.22952,0.106473,4.953433,180.01346,4.873636,2.609627,0.038936,3.0E-6,7.967621,278.22406,-109.67129,12.0,40.0,0.0,0.0,-109.999855,-110.0,146.22952,1.1E-5,1.68E-4,12.876752,282.89807,155.15648,-0.018387,-2.482327,-1675.7018,0.0
0.0,0.0,0.0,0.0,0.0,0.0,0.0,1.62050864E8,1.62050864E8,1.6205088E8,1.6205088E8,1.62050928E8,1.6205096E8,63.991837,-22.605427,146.22952,0.106591,4.953422,180.01346,4.226294,2.60733,0.024824,2.0E-6,7.967844,275.52148,-112.373856,12.0,40.0,0.0,0.0,-109.999855,-110.0,146.22952,1.1E-5,3.4E-5,12.876752,282.89807,157.79796,-0.018405,-2.48319,-1676.0321,0.0
0.0,0.0,0.0,0.0,0.0,0.0,0.0,1.62050864E8,1.62050864E8,1.6205088E8,1.6205088E8,1.62050928E8,1.6205096E8,63.991837,-22.605427,146.22952,0.10671,4.95341,180.01347,3.577867,2.605366,0.016828,1.0E-6,7.968024,272.81888,-115.076454,12.0,40.0,0.0,0.0,-109.999855,-110.0,146.22952,1.1E-5,-0.0,12.876752,282.89807,160.45604,-0.018423,-2.484012,-1676.3362,0.0
0.0,0.0,0.0,0.0,0.0,0.0,0.0,1.62050864E8,1.62050864E8,1.6205088E8,1.6205088E8,1.62050928E8,1.6205096E8,63.991837,-22.605427,146.22952,0.106828,4.953396,180.01349,2.928519,2.603737,0.012834,1.0E-6,7.968175,270.11627,-117.77907,12.0,40.0,0.0,0.0,-119.999855,-120.0,146.22952,1.1E-5,0.0,12.876752,282.89807,163.12512,-0.018441,-2.484793,-1676.6154,0.0
0.0,0.0,0.0,0.0,0.0,0.0,0.0,1.62050864E8,1.62050864E8,1.6205088E8,1.6205088E8,1.62050928E8,1.6205096E8,63.991837,-22.605427,146.22952,0.106945,4.953381,180.01349,2.278415,2.602442,0.011841,1.0E-6,7.968302,267.41364,-120.481705,12.0,40.0,0.0,0.0,-119.999855,-120.0,146.22952,1.1E-5,0.0,12.876752,282.89807,165.7997,-0.018459,-2.485536,-1676.871,0.0
0.0,0.0,0.0,0.0,0.0,0.0,0.0,1.62050864E8,1.62050864E8,1.6205088E8,1.6205088E8,1.62050928E8,1.6205096E8,63.991837,-22.605427,146.22952,0.107063,4.953362,180.0135,1.627722,2.601483,0.013274,1.0E-6,7.968406,264.711,-123.18435,12.0,40.0,0.0,0.0,-119.999855,-120.0,146.22952,1.0E-5,-3.4E-5,12.876752,282.89807,168.47437,-0.018478,-2.486243,-1677.1045,0.0
0.0,0.0,0.0,0.0,0.0,0.0,0.0,1.62050864E8,1.62050864E8,1.6205088E8,1.6205088E8,1.62050928E8,1.6205096E8,63.991837,-22.605427,146.22952,0.107161,4.953345,180.0135,1.085159,2.60094,0.016097,1.0E-6,7.913645,262.3721,-125.52324,12.0,40.0,0.0,0.0,-119.999855,-120.0,146.22952,1.0E-5,3.4E-5,12.876752,282.89807,170.69951,-0.018495,-2.486806,-1680.5867,0.0
0.0,0.0,0.0,0.0,0.0,0.0,0.0,1.62050864E8,1.62050864E8,1.6205088E8,1.6205088E8,1.62050928E8,1.6205096E8,63.991837,-22.605427,146.22952,0.107299,4.953319,180.01352,0.325243,2.600572,0.020588,2.0E-6,7.841723,259.212,-128.68335,12.0,40.0,0.0,0.0,-129.99986,-130.0,146.22952,1.0E-5,3.4E-5,12.876752,282.89807,173.8029,-0.018515,-2.487555,-1680.7498,0.0
0.0,0.0,0.0,0.0,0.0,0.0,0.0,1.62050864E8,1.62050864E8,1.6205088E8,1.6205088E8,1.62050928E8,1.6205096E8,63.991837,-22.605427,146.22952,0.107415,4.953294,180.01353,-0.326216,2.600619,0.025421,2.0E-6,7.91059,256.56998,-131.32536,12.0,40.0,0.0,0.0,-129.99986,-130.0,146.22952,1.0E-5,3.4E-5,12.876752,282.89807,176.44653,-0.018534,-2.488163,-1678.3821,0.0
0.0,0.0,0.0,0.0,0.0,0.0,0.0,1.62050864E8,1.62050864E8,1.6205088E8,1.6205088E8,1.62050928E8,1.6205096E8,63.991837,-22.605427,146.22952,0.10753,4.953274,180.01353,-0.977583,2.600999,0.029413,2.0E-6,7.948145,253.88863,-134.00671,12.0,40.0,0.0,0.0,-129.99986,-130.0,146.22952,1.0E-5,-3.4E-5,12.876752,282.89807,179.06976,-0.018554,-2.488742,-1677.6721,0.0
0.0,0.0,0.0,0.0,0.0,0.0,0.0,1.62050864E8,1.62050864E8,1.6205088E8,1.6205088E8,1.62050928E8,1.6205096E8,63.991837,-22.605427,146.22952,0.107645,4.953265,180.01355,-1.628688,2.601714,0.033127,3.0E-6,8.04495,251.13297,-136.76237,12.0,40.0,0.0,0.0,-129.99986,-130.0,146.22952,9.0E-6,0.0,12.876752,282.89807,181.6678,-0.018572,-2.489292,-1679.9136,0.0
0.0,0.0,0.0,0.0,0.0,0.0,0.0,1.62050864E8,1.62050864E8,1.6205088E8,1.6205088E8,1.62050928E8,1.6205096E8,63.991837,-22.605427,146.22952,0.107762,4.953267,180.01357,-2.279383,2.602766,0.037466,3.0E-6,7.966347,248.37572,-139.51962,12.0,40.0,0.0,0.0,-139.99986,-140.0,146.22952,9.0E-6,0.0,12.876752,282.89807,184.23604,-0.018591,-2.489815,-1682.0177,0.0
0.0,0.0,0.0,0.0,0.0,0.0,0.0,1.62050864E8,1.62050864E8,1.6205088E8,1.6205088E8,1.62050928E8,1.6205096E8,63.991837,-22.605427,146.22952,0.107879,4.953275,180.01357,-2.929501,2.604155,0.042519,4.0E-6,7.841909,245.66916,-142.22618,12.0,40.0,0.0,0.0,-139.99986,-140.0,146.22952,9.0E-6,0.0,12.876752,282.89807,186.76993,-0.018611,-2.490313,-1681.9716,0.0
0.0,0.0,0.0,0.0,0.0,0.0,0.0,1.62050864E8,1.62050864E8,1.6205088E8,1.6205088E8,1.62050928E8,1.6205096E8,63.991837,-22.605427,146.22952,0.107996,4.953289,180.01358,-3.578852,2.60588,0.048181,4.0E-6,7.891386,242.9127,-144.98265,12.0,40.0,0.0,0.0,-139.99986,-140.0,146.22952,9.0E-6,0.0,12.876752,282.89807,189.26517,-0.018628,-2.490786,-1683.857,0.0
0.0,0.0,0.0,0.0,0.0,0.0,0.0,1.62050864E8,1.62050864E8,1.6205088E8,1.6205088E8,1.62050928E8,1.6205096E8,63.991837,-22.605427,146.22952,0.108094,4.953302,180.01358,-4.119295,2.607573,0.053514,4.0E-6,7.785319,240.67628,-147.21907,12.0,40.0,0.0,0.0,-139.99986,-140.0,146.22952,9.0E-6,0.0,12.876752,282.89807,191.31198,-0.018647,-2.491163,-1682.9615,0.0
0.0,0.0,0.0,0.0,0.0,0.0,0.0,1.62050864E8,1.62050864E8,1.6205088E8,1.6205088E8,1.62050928E8,1.6205096E8,63.991837,-22.605427,146.22952,0.10823,4.953322,180.0136,-4.874663,2.610333,0.061939,5.0E-6,7.842204,237.6108,-150.28455,12.0,40.0,0.0,0.0,-149.99986,-150.0,146.22952,8.0E-6,1.01E-4,12.876752,282.89807,194.12311,-0.018668,-2.491665,-1679.2815,0.0
0.0,0.0,0.0,0.0,0.0,0.0,0.0,1.62050864E8,1.62050864E8,1.6205088E8,1.6205088E8,1.62050928E8,1.6205096E8,63.991837,-22.605427,146.22952,0.108347,4.953339,180.01361,-5.52077,2.61306,0.068984,6.0E-6,7.876127,234.92502,-152.97032,12.0,40.0,0.0,0.0,-149.99986,-150.0,146.22952,8.0E-6,6.7E-5,12.876752,282.89807,196.47797,-0.018687,-2.492072,-1678.5685,0.0
0.0,0.0,0.0,0.0,0.0,0.0,0.0,1.62050864E8,1.62050864E8,1.6205088E8,1.6205088E8,1.62050928E8,1.6205096E8,63.991837,-22.605427,146.22952,0.108464,4.953355,180.01361,-6.165472,2.616119,0.076427,6.0E-6,7.933323,232.25833,-155.63702,12.0,40.0,0.0,0.0,-149.99986,-150.0,146.22952,8.0E-6,1.01E-4,12.876752,282.89807,198.77847,-0.018707,-2.49246,-1677.227,0.0
0.0,0.0,0.0,0.0,0.0,0.0,0.0,1.62050864E8,1.62050864E8,1.6205088E8,1.6205088E8,1.62050928E8,1.6205096E8,63.991837,-22.605427,146.22952,0.108582,4.95337,180.01363,-6.808609,2.619508,0.083409,7.0E-6,7.955567,229.56819,-158.32715,12.0,40.0,0.0,0.0,-159.99986,-160.0,146.22952,8.0E-6,1.34E-4,12.876752,282.89807,201.02116,-0.018727,-2.492828,-1676.8674,0.0
0.0,0.0,0.0,0.0,0.0,0.0,0.0,1.62050864E8,1.62050864E8,1.6205088E8,1.6205088E8,1.62050928E8,1.6205096E8,63.991837,-22.605427,146.22952,0.1087,4.953383,180.01363,-7.450027,2.623227,0.090676,8.0E-6,7.963257,226.8698,-161.02554,12.0,40.0,0.0,0.0,-159.99986,-160.0,146.22952,8.0E-6,2.01E-4,12.876752,282.89807,203.20271,-0.018747,-2.493179,-1676.8427,0.0
0.0,0.0,0.0,0.0,0.0,0.0,0.0,1.62050864E8,1.62050864E8,1.6205088E8,1.6205088E8,1.62050928E8,1.6205096E8,63.991837,-22.605427,146.22952,0.10882,4.953394,180.01364,-8.089573,2.627274,0.098002,8.0E-6,7.965808,224.16849,-163.72685,12.0,40.0,0.0,0.0,-159.99986,-160.0,146.22952,8.0E-6,2.35E-4,12.876752,282.89807,205.32004,-0.018767,-2.493512,-1676.9255,0.0
0.0,0.0,0.0,0.0,0.0,0.0,0.0,1.62050864E8,1.62050864E8,1.6205088E8,1.6205088E8,1.62050928E8,1.6205096E8,63.991837,-22.605427,146.22952,0.108941,4.953403,180.01366,-8.727097,2.631648,0.105233,9.0E-6,7.966537,221.46614,-166.4292,12.0,40.0,0.0,0.0,-159.99986,-160.0,146.22952,8.0E-6,2.68E-4,12.876752,282.89807,207.37021,-0.018787,-2.493829,-1677.0366,0.0
0.0,0.0,0.0,0.0,0.0,0.0,0.0,1.62050864E8,1.62050864E8,1.6205088E8,1.6205088E8,1.62050928E8,1.6205096E8,63.991837,-22.605427,146.22952,0.109062,4.953411,180.01366,-9.362451,2.636346,0.112396,1.0E-5,7.966611,218.76343,-169.13193,12.0,40.0,0.0,0.0,-169.99986,-170.0,146.22952,7.0E-6,2.68E-4,12.876752,282.89807,209.35048,-0.018808,-2.494131,-1677.1484,0.0
0.0,0.0,0.0,0.0,0.0,0.0,0.0,1.62050864E8,1.62050864E8,1.6205088E8,1.6205088E8,1.62050928E8,1.6205096E8,63.991837,-22.605427,146.22952,0.109175,4.953415,180.01367,-9.942828,2.640937,0.115893,1.0E-5,7.970998,216.26562,-171.62971,12.0,40.0,0.0,0.0,-169.99986,-170.0,146.22952,7.0E-6,4.7E-4,12.876752,282.89807,211.10217,-0.018829,-2.494394,-1678.0302,0.0
0.0,0.0,0.0,0.0,0.0,0.0,0.0,1.62050864E8,1.62050864E8,1.6205088E8,1.6205088E8,1.62050928E8,1.6205096E8,63.991837,-22.605427,146.22952,0.109309,4.953418,180.01369,-10.626075,2.646711,0.125464,1.1E-5,7.937046,213.33916,-174.55618,12.0,40.0,0.0,0.0,-169.99986,-170.0,146.22952,7.0E-6,4.36E-4,12.876752,282.89807,213.09142,-0.018851,-2.49469,-1677.9905,0.0
0.0,0.0,0.0,0.0,0.0,0.0,0.0,1.62050864E8,1.62050864E8,1.6205088E8,1.6205088E8,1.62050928E8,1.6205096E8,63.991837,-22.605427,146.22954,0.109433,4.953419,180.01369,-11.254067,2.652373,0.132066,1.2E-5,7.95441,210.64818,-177.24718,12.0,40.0,0.0,0.0,-169.99986,-170.0,146.22954,7.0E-6,4.7E-4,12.876752,282.89807,214.84758,-0.018871,-2.49495,-1677.5695,0.0
0.0,0.0,0.0,0.0,0.0,0.0,0.0,1.62050864E8,1.62050864E8,1.6205088E8,1.6205088E8,1.62050928E8,1.6205096E8,63.991837,-22.605427,146.22954,0.109559,4.953416,180.0137,-11.879331,2.658353,0.13829,1.2E-5,7.961462,207.9494,-179.94594,12.0,40.0,0.0,0.0,-179.99986,-180.0,146.22954,7.0E-6,4.7E-4,12.876752,282.89807,216.52487,-0.018892,-2.495197,-1677.4683,0.0
0.0,0.0,0.0,0.0,0.0,0.0,0.0,1.62050864E8,1.62050864E8,1.6205088E8,1.6205088E8,1.62050928E8,1.6205096E8,63.991837,-22.605427,146.22954,0.109664,4.953413,180.0137,-12.398207,2.663578,0.143282,1.3E-5,7.963492,205.69824,-182.1971,12.0,40.0,0.0,0.0,-179.99986,-180.0,146.22954,7.0E-6,5.37E-4,12.876752,282.89807,217.8611,-0.018912,-2.495393,-1677.4689,0.0
0.0,0.0,0.0,0.0,0.0,0.0,0.0,1.62050864E8,1.62050864E8,1.6205088E8,1.6205088E8,1.62050928E8,1.6205096E8,63.991837,-22.605427,146.22954,0.109814,4.953405,180.01372,-13.121161,2.67126,0.150051,1.4E-5,7.922421,202.52008,-185.37527,12.0,40.0,0.0,0.0,-179.99986,-180.0,146.22954,7.0E-6,5.37E-4,12.876752,282.89807,219.636,-0.018934,-2.495655,-1678.3978,0.0
0.0,0.0,0.0,0.0,0.0,0.0,0.0,1.62050864E8,1.62050864E8,1.6205088E8,1.6205088E8,1.62050928E8,1.6205096E8,63.991837,-22.605427,146.22954,0.109942,4.953396,180.01373,-13.73748,2.678186,0.156197,1.4E-5,7.948415,199.83365,-188.0617,12.0,40.0,0.0,0.0,-189.99986,-190.0,146.22954,6.0E-6,6.71E-4,12.876752,282.89807,221.0669,-0.018954,-2.495867,-1677.7487,0.0
0.0,0.0,0.0,0.0,0.0,0.0,0.0,1.62050864E8,1.62050864E8,1.6205088E8,1.6205088E8,1.62050928E8,1.6205096E8,63.991837,-22.605427,146.22954,0.110072,4.953385,180.01375,-14.350573,2.685419,0.16174,1.5E-5,7.958257,197.13644,-190.75891,12.0,40.0,0.0,0.0,-189.99986,-190.0,146.22954,6.0E-6,6.04E-4,12.876752,282.89807,222.41304,-0.018975,-2.496069,-1677.5492,0.0
0.0,0.0,0.0,0.0,0.0,0.0,0.0,1.62050864E8,1.62050864E8,1.6205088E8,1.6205088E8,1.62050928E8,1.6205096E8,63.991837,-22.605427,146.22954,0.110203,4.953372,180.01375,-14.960327,2.692959,0.166946,1.6E-5,7.961415,194.43544,-193.45992,12.0,40.0,0.0,0.0,-189.99986,-190.0,146.22954,6.0E-6,6.04E-4,12.876752,282.89807,223.67345,-0.018996,-2.496261,-1677.5023,0.0
0.0,0.0,0.0,0.0,0.0,0.0,0.0,1.62050864E8,1.62050864E8,1.6205088E8,1.6205088E8,1.62050928E8,1.6205096E8,63.991837,-22.605427,146.22954,0.110335,4.953355,180.01376,-15.566634,2.700803,0.171754,1.6E-5,7.962202,191.73308,-196.16226,12.0,40.0,0.0,0.0,-189.99986,-190.0,146.22954,6.0E-6,7.04E-4,12.876752,282.89807,224.84734,-0.019017,-2.496444,-1677.5037,0.0
0.0,0.0,0.0,0.0,0.0,0.0,0.0,1.62050864E8,1.62050864E8,1.6205088E8,1.6205088E8,1.62050928E8,1.6205096E8,63.991837,-22.605427,146.22954,0.110469,4.953337,180.01378,-16.169388,2.708947,0.176932,1.7E-5,7.96214,189.03024,-198.8651,12.0,40.0,0.0,0.0,-199.99986,-200.0,146.22954,6.0E-6,7.72E-4,12.876752,282.89807,225.93407,-0.019039,-2.496618,-1677.517,0.0
0.0,0.0,0.0,0.0,0.0,0.0,0.0,1.62050864E8,1.62050864E8,1.6205088E8,1.6205088E8,1.62050928E8,1.6205096E8,63.991837,-22.605427,146.22954,0.110604,4.953316,180.01378,-16.768486,2.71739,0.181657,1.8E-5,7.961765,186.32722,-201.56812,12.0,40.0,0.0,0.0,-199.99986,-200.0,146.22954,6.0E-6,8.05E-4,12.876752,282.89807,226.93324,-0.01906,-2.496783,-1677.5297,0.0
0.0,0.0,0.0,0.0,0.0,0.0,0.0,1.62050864E8,1.62050864E8,1.6205088E8,1.6205088E8,1.62050928E8,1.6205096E8,63.991837,-22.605427,146.22954,0.11074,4.953292,180.0138,-17.363834,2.726129,0.186294,1.9E-5,7.961267,183.62415,-204.27121,12.0,40.0,0.0,0.0,-199.99986,-200.0,146.22954,6.0E-6,8.39E-4,12.876752,282.89807,227.84462,-0.019082,-2.49694,-1677.5378,0.0
0.0,0.0,0.0,0.0,0.0,0.0,0.0,1.62050864E8,1.62050864E8,1.6205088E8,1.6205088E8,1.62050928E8,1.6205096E8,63.991837,-22.605427,146.22954,0.110878,4.953266,180.01381,-17.955338,2.73516,0.190387,1.9E-5,7.960709,180.921,-206.97433,12.0,40.0,0.0,0.0,-199.99986,-200.0,146.22954,6.0E-6,8.72E-4,12.876752,282.89807,228.6681,-0.019104,-2.49709,-1677.54,0.0
0.0,0.0,0.0,0.0,0.0,0.0,0.0,1.62050864E8,1.62050864E8,1.6205088E8,1.6205088E8,1.62050928E8,1.6205096E8,63.991837,-22.605427,146.22955,0.111017,4.953238,180.01382,-18.542912,2.744481,0.194295,2.0E-5,7.960117,178.21786,-209.67749,12.0,40.0,0.0,0.0,-209.99986,-210.0,146.22955,5.0E-6,0.001006,12.876752,282.89807,229.40384,-0.019126,-2.497232,-1677.5364,0.0
0.0,0.0,0.0,0.0,0.0,0.0,0.0,1.62050864E8,1.62050864E8,1.6205088E8,1.6205088E8,1.62050928E8,1.6205096E8,63.991837,-22.605427,146.22955,0.111146,4.95321,180.01382,-19.077995,2.753278,0.195964,2.0E-5,7.947077,175.723,-212.17233,12.0,40.0,0.0,0.0,-209.99986,-210.0,146.22955,5.0E-6,0.001107,12.876752,282.89807,230.0014,-0.019149,-2.497356,-1678.1771,0.0
0.0,0.0,0.0,0.0,0.0,0.0,0.0,1.62050864E8,1.62050864E8,1.6205088E8,1.6205088E8,1.62050928E8,1.6205096E8,63.991837,-22.605427,146.22955,0.111288,4.953177,180.01384,-19.657806,2.763147,0.192717,2.0E-5,7.982808,172.99127,-214.90408,12.0,40.0,0.0,0.0,-209.99986,-210.0,146.22955,5.0E-6,0.001308,12.876752,282.89807,230.56985,-0.019173,-2.497485,-1679.236,0.0
0.0,0.0,0.0,0.0,0.0,0.0,0.0,1.62050864E8,1.62050864E8,1.6205088E8,1.6205088E8,1.62050928E8,1.6205096E8,63.991837,-22.605427,146.22955,0.111444,4.953138,180.01385,-20.281263,2.774155,0.204689,2.1E-5,7.937295,170.07346,-217.8219,12.0,40.0,0.0,0.0,-219.99986,-220.0,146.22955,5.0E-6,0.001241,12.876752,282.89807,231.0881,-0.019199,-2.497618,-1678.6986,0.0
0.0,0.0,0.0,0.0,0.0,0.0,0.0,1.62050864E8,1.62050864E8,1.6205088E8,1.6205088E8,1.62050928E8,1.6205096E8,63.991837,-22.605427,146.22955,0.111582,4.953104,180.01385,-20.852419,2.784606,0.225813,2.2E-5,7.936116,167.39282,-220.50253,12.0,40.0,0.0,0.0,-219.99986,-220.0,146.22955,5.0E-6,9.73E-4,12.876752,282.89807,231.47726,-0.019225,-2.497735,-1677.7264,0.0
0.0,0.0,0.0,0.0,0.0,0.0,0.0,1.62050864E8,1.62050864E8,1.6205088E8,1.6205088E8,1.62050928E8,1.6205096E8,63.991837,-22.605427,146.22955,0.111702,4.953075,180.01387,-21.372189,2.794427,0.238215,2.2E-5,7.936058,164.90546,-222.98988,12.0,40.0,0.0,0.0,-219.99986,-220.0,146.22955,5.0E-6,0.001208,12.876752,282.89807,231.75955,-0.01925,-2.497836,-1678.041,0.0
0.0,0.0,0.0,0.0,0.0,0.0,0.0,1.62050864E8,1.62050864E8,1.6205088E8,1.6205088E8,1.62050928E8,1.6205096E8,63.991837,-22.605427,146.22955,0.111837,4.953045,180.01389,-21.981718,2.806329,0.25329,2.3E-5,7.931312,161.97467,-225.92068,12.0,40.0,0.0,0.0,-219.99986,-220.0,146.22955,5.0E-6,0.001208,12.876752,282.89807,232.00252,-0.019276,-2.497951,-1678.049,0.0
0.0,0.0,0.0,0.0,0.0,0.0,0.0,1.62050864E8,1.62050864E8,1.6205088E8,1.6205088E8,1.62050928E8,1.6205096E8,63.991837,-22.605427,146.22957,0.111959,4.953021,180.01389,-22.53974,2.817595,0.255316,2.3E-5,7.974885,159.24738,-228.64798,12.0,40.0,0.0,0.0,-229.99986,-230.0,146.22957,5.0E-6,0.001476,12.876752,282.89807,232.1409,-0.0193,-2.498051,-1678.91,0.0
0.0,0.0,0.0,0.0,0.0,0.0,0.0,1.62050864E8,1.62050864E8,1.6205088E8,1.6205088E8,1.62050928E8,1.6205096E8,63.991837,-22.605427,146.22957,0.112079,4.952999,180.0139,-23.093275,2.829126,0.276743,2.4E-5,7.925395,156.57516,-231.32018,12.0,40.0,0.0,0.0,-229.99986,-230.0,146.22957,5.0E-6,0.001141,12.876752,282.89807,232.19823,-0.019323,-2.498146,-1677.5721,0.0
0.0,0.0,0.0,0.0,0.0,0.0,0.0,1.62050864E8,1.62050864E8,1.6205088E8,1.6205088E8,1.62050928E8,1.6205096E8,63.991837,-22.605427,146.22957,0.112178,4.952981,180.01392,-23.551096,2.838937,0.283646,2.5E-5,7.94139,154.33223,-233.56311,12.0,40.0,0.0,0.0,-229.99986,-230.0,146.22957,5.0E-6,0.001174,12.876752,282.89807,232.18515,-0.019345,-2.498222,-1677.1403,0.0
0.0,0.0,0.0,0.0,0.0,0.0,0.0,1.62050864E8,1.62050864E8,1.6205088E8,1.6205088E8,1.62050928E8,1.6205096E8,63.991837,-22.605427,146.22957,0.112307,4.952959,180.01392,-24.141516,2.85196,0.277168,2.4E-5,7.966992,151.35884,-236.5365,12.0,40.0,0.0,0.0,-229.99986,-230.0,146.22957,4.0E-6,0.00161,12.876752,282.89807,232.0871,-0.019367,-2.498316,-1678.8094,0.0
0.0,0.0,0.0,0.0,0.0,0.0,0.0,1.62050864E8,1.62050864E8,1.6205088E8,1.6205088E8,1.62050928E8,1.6205096E8,63.991837,-22.605427,146.22957,0.112436,4.952937,180.01393,-24.72653,2.865284,0.293385,2.6E-5,7.910429,148.44843,-239.44691,12.0,40.0,0.0,0.0,-239.99986,-240.0,146.22957,4.0E-6,0.001375,12.876752,282.89807,231.89943,-0.019391,-2.498405,-1677.9451,0.0
0.0,0.0,0.0,0.0,0.0,0.0,0.0,1.62050864E8,1.62050864E8,1.6205088E8,1.6205088E8,1.62050928E8,1.6205096E8,63.991837,-22.605427,146.22957,0.112556,4.952916,180.01395,-25.261703,2.877846,0.294456,2.6E-5,7.916857,145.73369,-242.16165,12.0,40.0,0.0,0.0,-239.99986,-240.0,146.22957,4.0E-6,0.001543,12.876752,282.89807,231.64871,-0.019414,-2.498483,-1678.2703,0.0
0.0,0.0,0.0,0.0,0.0,0.0,0.0,1.62050864E8,1.62050864E8,1.6205088E8,1.6205088E8,1.62050928E8,1.6205096E8,63.991837,-22.605427,146.22957,0.112677,4.952895,180.01395,-25.792202,2.89052,0.28959,2.6E-5,5.500036,144.15294,-243.7424,12.0,40.0,0.0,0.0,-239.99986,-240.0,146.22957,4.0E-6,0.001744,12.876752,282.89807,231.32562,-0.019437,-2.498557,-1633.6576,0.0
0.0,0.0,0.0,0.0,0.0,0.0,0.0,1.62050864E8,1.62050864E8,1.6205088E8,1.6205088E8,1.62050928E8,1.6205096E8,63.991837,-22.605427,146.22958,0.112799,4.952874,180.01396,-26.31799,2.903433,0.300505,2.7E-5,3.865628,143.5908,-244.30453,12.0,40.0,0.0,0.0,-239.99986,-240.0,146.22958,4.0E-6,0.001644,12.876752,282.89807,230.93225,-0.019459,-2.498627,-1548.7867,0.0
0.0,0.0,0.0,0.0,0.0,0.0,0.0,1.62050864E8,1.62050864E8,1.6205088E8,1.6205088E8,1.62050928E8,1.6205096E8,63.991837,-22.605427,146.22958,0.112923,4.952852,180.01396,-26.839048,2.916588,0.303435,2.8E-5,3.084763,143.38719,-244.50815,12.0,40.0,0.0,0.0,-239.99986,-240.0,146.22958,4.0E-6,0.00161,12.876752,282.89807,230.47075,-0.019481,-2.498694,-1449.3313,0.0
0.0,0.0,0.0,0.0,0.0,0.0,0.0,1.62050864E8,1.62050864E8,1.6205088E8,1.6205088E8,1.62050928E8,1.6205096E8,63.991837,-22.605427,146.22958,0.113027,4.952833,180.01398,-27.269636,2.927732,0.305291,2.8E-5,2.790689,143.31833,-244.57703,12.0,40.0,0.0,0.0,-239.99986,-240.0,146.22958,4.0E-6,0.001711,12.876752,282.89807,230.03577,-0.019502,-2.498748,-1362.1321,0.0
0.0,0.0,0.0,0.0,0.0,0.0,0.0,1.62050864E8,1.62050864E8,1.6205088E8,1.6205088E8,1.62050928E8,1.6205096E8,63.991837,-22.605427,146.22958,0.113165,4.952808,180.01399,-27.824448,2.942464,0.311284,2.9E-5,2.632378,143.27867,-244.61667,12.0,40.0,0.0,0.0,-239.99986,-240.0,146.22958,4.0E-6,0.001476,12.876752,282.89807,229.40416,-0.019525,-2.498814,-1246.4924,0.0
0.0,0.0,0.0,0.0,0.0,0.0,0.0,1.62050864E8,1.62050864E8,1.6205088E8,1.6205088E8,1.62050928E8,1.6205096E8,63.991837,-22.605427,146.22958,0.113294,4.952785,180.01399,-28.3316,2.956305,0.303263,2.9E-5,2.579841,143.2604,-244.63493,12.0,40.0,0.0,0.0,-239.99986,-240.0,146.22958,4.0E-6,0.001845,12.876752,282.89807,228.75722,-0.019546,-2.498872,-1138.848,0.0
