aileron,elevator,rudder,flaps,slats,speedbrake,throttle,engine-pump0,engine-pump1,electric-pump0,electric-pump1,external-power,APU-generator,latitude-deg,longitude-deg,altitude-ft,roll-deg,pitch-deg,heading-deg,side-slip-deg,airspeed-kt,glideslope,vertical-speed-fps,airspeed-indicator_indicated-speed-kt,altimeter_indicated-altitude-ft,altimeter_pressure-alt-ft,attitude-indicator_indicated-pitch-deg,attitude-indicator_indicated-roll-deg,attitude-indicator_internal-pitch-deg,attitude-indicator_internal-roll-deg,encoder_indicated-altitude-ft,encoder_pressure-alt-ft,gps_indicated-altitude-ft,gps_indicated-ground-speed-kt,gps_indicated-vertical-speed,indicated-heading-deg,magnetic-compass_indicated-heading-deg,slip-skid-ball_indicated-slip-skid,turn-indicator_indicated-turn-rate,vertical-speed-indicator_indicated-speed-fpm,engine_rpm
0.0,0.0,0.0,0.0,0.0,0.0,1.0,2.48574768E8,2.48574768E8,2.48574784E8,2.48574784E8,2.48574832E8,2.48574864E8,63.985043,-22.592484,-9999.0,0.0,0.424,270.02136,0.0,0.0,0.0,0.0,0.0,0.0,0.0,0.0,0.0,0.0,0.0,0.0,0.0,0.0,0.0,0.0,0.0,0.0,0.0,0.0,0.0,0.0
0.0,0.0,0.0,0.0,0.0,0.0,1.0,2.48574768E8,2.48574768E8,2.48574784E8,2.48574784E8,2.48574832E8,2.48574864E8,63.985043,-22.592484,-9999.0,0.0,0.424,270.02136,0.0,0.0,0.0,0.0,0.0,389.08878,1.193444,12.0,40.0,0.0,0.0,0.0,0.0,0.0,0.0,0.0,282.89813,0.0,0.0,0.0,0.0,0.0
0.0,0.0,0.0,0.0,0.0,0.0,1.0,2.48574768E8,2.48574768E8,2.48574784E8,2.48574784E8,2.48574832E8,2.48574864E8,63.991837,-22.605425,-9999.0,0.0,0.424,180.01839,0.0,0.0,0.0,0.0,0.0,389.08878,1.193444,12.0,40.0,0.0,0.0,0.0,0.0,0.0,0.0,0.0,282.89813,0.0,0.0,0.0,0.0,0.0
0.0,0.0,0.0,0.0,0.0,0.0,1.0,2.48574768E8,2.48574768E8,2.48574784E8,2.48574784E8,2.48574832E8,2.48574864E8,63.991837,-22.605425,-9999.0,0.0,0.424,180.01839,0.0,0.0,0.0,0.0,0.0,389.08878,1.193444,12.0,40.0,0.0,0.0,0.0,0.0,0.0,0.0,0.0,282.89813,0.0,0.0,0.0,0.0,0.0
0.0,0.0,0.0,0.0,0.0,0.0,1.0,2.48574768E8,2.48574768E8,2.48574784E8,2.48574784E8,2.48574832E8,2.48574864E8,63.991837,-22.605425,-9999.0,0.0,0.424,180.01839,0.0,0.0,0.0,0.0,0.0,389.08878,1.193444,12.0,40.0,0.0,0.0,0.0,0.0,0.0,0.0,0.0,282.89813,0.0,0.0,0.0,0.0,0.0
0.0,0.0,0.0,0.0,0.0,0.0,1.0,2.48574768E8,2.48574768E8,2.48574784E8,2.48574784E8,2.48574832E8,2.48574864E8,63.991837,-22.605425,-9999.0,0.0,0.424,180.01839,0.0,0.0,0.0,0.0,0.0,389.08878,1.193444,12.0,40.0,0.0,0.0,0.0,0.0,0.0,0.0,0.0,282.89813,0.0,0.0,0.0,0.0,0.0
0.0,0.0,0.0,0.0,0.0,0.0,1.0,2.48574768E8,2.48574768E8,2.48574784E8,2.48574784E8,2.48574832E8,2.48574864E8,63.991837,-22.605425,-9999.0,0.0,0.424,180.01839,0.0,0.0,0.0,0.0,0.0,389.08878,1.193444,12.0,40.0,0.0,0.0,0.0,0.0,0.0,0.0,0.0,282.89813,0.0,0.0,0.0,0.0,0.0
0.0,0.0,0.0,0.0,0.0,0.0,1.0,2.48574768E8,2.48574768E8,2.48574784E8,2.48574784E8,2.48574832E8,2.48574864E8,63.991837,-22.605425,-9999.0,0.0,0.424,180.01839,0.0,0.0,0.0,0.0,0.0,389.08878,1.193444,12.0,40.0,0.0,0.0,0.0,0.0,0.0,0.0,0.0,282.89813,0.0,0.0,0.0,0.0,0.0
0.0,0.0,0.0,0.0,0.0,0.0,1.0,2.48574768E8,2.48574768E8,2.48574784E8,2.48574784E8,2.48574832E8,2.48574864E8,63.991837,-22.605425,-9999.0,0.0,0.424,180.01839,0.0,0.0,0.0,0.0,0.0,389.08878,1.193444,12.0,40.0,0.0,0.0,0.0,0.0,0.0,0.0,0.0,282.89813,0.0,0.0,0.0,0.0,0.0
0.0,0.0,0.0,0.0,0.0,0.0,1.0,2.48574768E8,2.48574768E8,2.48574784E8,2.48574784E8,2.48574832E8,2.48574864E8,63.991837,-22.605425,-9999.0,0.0,0.424,180.01839,0.0,0.0,0.0,0.0,0.0,389.08878,1.193444,12.0,40.0,0.0,0.0,0.0,0.0,0.0,0.0,0.0,282.89813,0.0,0.0,0.0,0.0,0.0
0.0,0.0,0.0,0.0,0.0,0.0,1.0,2.48574768E8,2.48574768E8,2.48574784E8,2.48574784E8,2.48574832E8,2.48574864E8,63.991837,-22.605425,-9999.0,0.0,0.424,180.01839,0.0,0.0,0.0,0.0,0.0,389.08878,1.193444,12.0,40.0,0.0,0.0,0.0,0.0,0.0,0.0,0.0,282.89813,0.0,0.0,0.0,0.0,0.0
0.0,0.0,0.0,0.0,0.0,0.0,1.0,2.48574768E8,2.48574768E8,2.48574784E8,2.48574784E8,2.48574832E8,2.48574864E8,63.991837,-22.605425,-9999.0,0.0,0.424,180.01839,0.0,0.0,0.0,0.0,0.0,389.08878,1.193444,12.0,40.0,0.0,0.0,0.0,0.0,0.0,0.0,0.0,282.89813,0.0,0.0,0.0,0.0,0.0
0.0,0.0,0.0,0.0,0.0,0.0,1.0,2.48574768E8,2.48574768E8,2.48574784E8,2.48574784E8,2.48574832E8,2.48574864E8,63.991837,-22.605425,-9999.0,0.0,0.424,180.01839,0.0,0.0,0.0,0.0,0.0,389.08878,1.193444,12.0,40.0,0.0,0.0,0.0,0.0,0.0,0.0,0.0,282.89813,0.0,0.0,0.0,0.0,0.0
0.0,0.0,0.0,0.0,0.0,0.0,1.0,2.48574768E8,2.48574768E8,2.48574784E8,2.48574784E8,2.48574832E8,2.48574864E8,63.991837,-22.605425,-9999.0,0.0,0.424,180.01839,0.0,0.0,0.0,0.0,0.0,389.08878,1.193444,12.0,40.0,0.0,0.0,0.0,0.0,0.0,0.0,0.0,282.89813,0.0,0.0,0.0,0.0,0.0
0.0,0.0,0.0,0.0,0.0,0.0,1.0,2.48574768E8,2.48574768E8,2.48574784E8,2.48574784E8,2.48574832E8,2.48574864E8,63.991837,-22.605425,-9999.0,0.0,0.424,180.01839,0.0,0.0,0.0,0.0,0.0,389.08878,1.193444,12.0,40.0,0.0,0.0,0.0,0.0,0.0,0.0,0.0,282.89813,0.0,0.0,0.0,0.0,0.0
0.0,0.0,0.0,0.0,0.0,0.0,1.0,2.48574768E8,2.48574768E8,2.48574784E8,2.48574784E8,2.48574832E8,2.48574864E8,63.991837,-22.605425,-9999.0,0.0,0.424,180.01839,0.0,0.0,0.0,0.0,0.0,389.08878,1.193444,12.0,40.0,0.0,0.0,0.0,0.0,0.0,0.0,0.0,282.89813,0.0,0.0,0.0,0.0,0.0
0.0,0.0,0.0,0.0,0.0,0.0,1.0,2.48574768E8,2.48574768E8,2.48574784E8,2.48574784E8,2.48574832E8,2.48574864E8,63.991837,-22.605425,-9999.0,0.0,0.424,180.01839,0.0,0.0,0.0,0.0,0.0,389.08878,1.193444,12.0,40.0,0.0,0.0,0.0,0.0,0.0,0.0,0.0,282.89813,0.0,0.0,0.0,0.0,0.0
0.0,0.0,0.0,0.0,0.0,0.0,1.0,2.48574768E8,2.48574768E8,2.48574784E8,2.48574784E8,2.48574832E8,2.48574864E8,63.991837,-22.605425,-9999.0,0.0,0.424,180.01839,0.0,0.0,0.0,0.0,0.0,389.08878,1.193444,12.0,40.0,0.0,0.0,0.0,0.0,0.0,0.0,0.0,282.89813,0.0,0.0,0.0,0.0,0.0
0.0,0.0,0.0,0.0,0.0,0.0,1.0,2.48574768E8,2.48574768E8,2.48574784E8,2.48574784E8,2.48574832E8,2.48574864E8,63.991837,-22.605425,-9999.0,0.0,0.424,180.01839,0.0,0.0,0.0,0.0,0.0,389.08878,1.193444,12.0,40.0,0.0,0.0,0.0,0.0,0.0,0.0,0.0,282.89813,0.0,0.0,0.0,0.0,0.0
0.0,0.0,0.0,0.0,0.0,0.0,1.0,2.48574768E8,2.48574768E8,2.48574784E8,2.48574784E8,2.48574832E8,2.48574864E8,63.991837,-22.605425,-9999.0,0.0,0.424,180.01839,0.0,0.0,0.0,0.0,0.0,389.08878,1.193444,12.0,40.0,0.0,0.0,0.0,0.0,0.0,0.0,0.0,282.89813,0.0,0.0,0.0,0.0,0.0
0.0,0.0,0.0,0.0,0.0,0.0,1.0,2.48574768E8,2.48574768E8,2.48574784E8,2.48574784E8,2.48574832E8,2.48574864E8,63.991837,-22.605425,-9999.0,0.0,0.424,180.01839,0.0,0.0,0.0,0.0,0.0,389.08878,1.193444,12.0,40.0,0.0,0.0,0.0,0.0,0.0,0.0,0.0,282.89813,0.0,0.0,0.0,0.0,0.0
0.0,0.0,0.0,0.0,0.0,0.0,1.0,2.48574768E8,2.48574768E8,2.48574784E8,2.48574784E8,2.48574832E8,2.48574864E8,63.991837,-22.605425,-9999.0,0.0,0.424,180.01839,0.0,0.0,0.0,0.0,0.0,389.08878,1.193444,12.0,40.0,0.0,0.0,0.0,0.0,0.0,0.0,0.0,282.89813,0.0,0.0,0.0,0.0,0.0
0.0,0.0,0.0,0.0,0.0,0.0,1.0,2.48574768E8,2.48574768E8,2.48574784E8,2.48574784E8,2.48574832E8,2.48574864E8,63.991837,-22.605425,-9999.0,0.0,0.424,180.01839,0.0,0.0,0.0,0.0,0.0,389.08878,1.193444,12.0,40.0,0.0,0.0,0.0,0.0,0.0,0.0,0.0,282.89813,0.0,0.0,0.0,0.0,0.0
0.0,0.0,0.0,0.0,0.0,0.0,1.0,2.48574768E8,2.48574768E8,2.48574784E8,2.48574784E8,2.48574832E8,2.48574864E8,63.991837,-22.605425,-9999.0,0.0,0.424,180.01839,0.0,0.0,0.0,0.0,0.0,389.08878,1.193444,12.0,40.0,0.0,0.0,0.0,0.0,0.0,0.0,0.0,282.89813,0.0,0.0,0.0,0.0,0.0
0.0,0.0,0.0,0.0,0.0,0.0,1.0,2.48574768E8,2.48574768E8,2.48574784E8,2.48574784E8,2.48574832E8,2.48574864E8,63.991837,-22.605425,-9999.0,0.0,0.424,180.01839,0.0,0.0,0.0,0.0,0.0,389.08878,1.193444,12.0,40.0,0.0,0.0,0.0,0.0,0.0,0.0,0.0,282.89813,0.0,0.0,0.0,0.0,0.0
0.0,0.0,0.0,0.0,0.0,0.0,1.0,2.48574768E8,2.48574768E8,2.48574784E8,2.48574784E8,2.48574832E8,2.48574864E8,63.991837,-22.605425,-9999.0,0.0,0.424,180.01839,0.0,0.0,0.0,0.0,0.0,389.08878,1.193444,12.0,40.0,0.0,0.0,0.0,0.0,0.0,0.0,0.0,282.89813,0.0,0.0,0.0,0.0,0.0
0.0,0.0,0.0,0.0,0.0,0.0,1.0,2.48574768E8,2.48574768E8,2.48574784E8,2.48574784E8,2.48574832E8,2.48574864E8,63.991837,-22.605425,-9999.0,0.0,0.424,180.01839,0.0,0.0,0.0,0.0,0.0,389.08878,1.193444,12.0,40.0,0.0,0.0,0.0,0.0,0.0,0.0,0.0,282.89813,0.0,0.0,0.0,0.0,0.0
0.0,0.0,0.0,0.0,0.0,0.0,1.0,2.48574768E8,2.48574768E8,2.48574784E8,2.48574784E8,2.48574832E8,2.48574864E8,63.991837,-22.605425,-9999.0,0.0,0.424,180.01839,0.0,0.0,0.0,0.0,0.0,389.08878,1.193444,12.0,40.0,0.0,0.0,0.0,0.0,0.0,0.0,0.0,282.89813,0.0,0.0,0.0,0.0,0.0
0.0,0.0,0.0,0.0,0.0,0.0,1.0,2.48574768E8,2.48574768E8,2.48574784E8,2.48574784E8,2.48574832E8,2.48574864E8,63.991837,-22.605425,-9999.0,0.0,0.424,180.01839,0.0,0.0,0.0,0.0,0.0,389.08878,1.193444,12.0,40.0,0.0,0.0,0.0,0.0,0.0,0.0,0.0,282.89813,0.0,0.0,0.0,0.0,0.0
0.0,0.0,0.0,0.0,0.0,0.0,1.0,2.48574768E8,2.48574768E8,2.48574784E8,2.48574784E8,2.48574832E8,2.48574864E8,63.991837,-22.605425,-9999.0,0.0,0.424,180.01839,0.0,0.0,0.0,0.0,0.0,389.08878,1.193444,12.0,40.0,0.0,0.0,0.0,0.0,0.0,0.0,0.0,282.89813,0.0,0.0,0.0,0.0,0.0
0.0,0.0,0.0,0.0,0.0,0.0,1.0,2.48574768E8,2.48574768E8,2.48574784E8,2.48574784E8,2.48574832E8,2.48574864E8,63.991837,-22.605425,-9999.0,0.0,0.424,180.01839,0.0,0.0,0.0,0.0,0.0,389.08878,1.193444,12.0,40.0,0.0,0.0,0.0,0.0,0.0,0.0,0.0,282.89813,0.0,0.0,0.0,0.0,0.0
0.0,0.0,0.0,0.0,0.0,0.0,1.0,2.48574768E8,2.48574768E8,2.48574784E8,2.48574784E8,2.48574832E8,2.48574864E8,63.991837,-22.605425,-9999.0,0.0,0.424,180.01839,0.0,0.0,0.0,0.0,0.0,389.08878,1.193444,12.0,40.0,0.0,0.0,0.0,0.0,0.0,0.0,0.0,282.89813,0.0,0.0,0.0,0.0,0.0
0.0,0.0,0.0,0.0,0.0,0.0,1.0,2.48574768E8,2.48574768E8,2.48574784E8,2.48574784E8,2.48574832E8,2.48574864E8,63.991837,-22.605425,-9999.0,0.0,0.424,180.01839,0.0,0.0,0.0,0.0,0.0,389.08878,1.193444,12.0,40.0,0.0,0.0,0.0,0.0,0.0,0.0,0.0,282.89813,0.0,0.0,0.0,0.0,0.0
0.0,0.0,0.0,0.0,0.0,0.0,1.0,2.48574768E8,2.48574768E8,2.48574784E8,2.48574784E8,2.48574832E8,2.48574864E8,63.991837,-22.605425,-9999.0,0.0,0.424,180.01839,0.0,0.0,0.0,0.0,0.0,389.08878,1.193444,12.0,40.0,0.0,0.0,0.0,0.0,0.0,0.0,0.0,282.89813,0.0,0.0,0.0,0.0,0.0
0.0,0.0,0.0,0.0,0.0,0.0,1.0,2.48574768E8,2.48574768E8,2.48574784E8,2.48574784E8,2.48574832E8,2.48574864E8,63.991837,-22.605425,-9999.0,0.0,0.424,180.01839,0.0,0.0,0.0,0.0,0.0,389.08878,1.193444,12.0,40.0,0.0,0.0,0.0,0.0,0.0,0.0,0.0,282.89813,0.0,0.0,0.0,0.0,0.0
0.0,0.0,0.0,0.0,0.0,0.0,1.0,2.48574768E8,2.48574768E8,2.48574784E8,2.48574784E8,2.48574832E8,2.48574864E8,63.991837,-22.605425,-9999.0,0.0,0.424,180.01839,0.0,0.0,0.0,0.0,0.0,389.08878,1.193444,12.0,40.0,0.0,0.0,0.0,0.0,0.0,0.0,0.0,282.89813,0.0,0.0,0.0,0.0,0.0
0.0,0.0,0.0,0.0,0.0,0.0,1.0,2.48574768E8,2.48574768E8,2.48574784E8,2.48574784E8,2.48574832E8,2.48574864E8,63.991837,-22.605425,-9999.0,0.0,0.424,180.01839,0.0,0.0,0.0,0.0,0.0,389.08878,1.193444,12.0,40.0,0.0,0.0,0.0,0.0,0.0,0.0,0.0,282.89813,0.0,0.0,0.0,0.0,0.0
0.0,0.0,0.0,0.0,0.0,0.0,1.0,2.48574768E8,2.48574768E8,2.48574784E8,2.48574784E8,2.48574832E8,2.48574864E8,63.991837,-22.605425,-9999.0,0.0,0.424,180.01839,0.0,0.0,0.0,0.0,0.0,389.08878,1.193444,12.0,40.0,0.0,0.0,0.0,0.0,0.0,0.0,0.0,282.89813,0.0,0.0,0.0,0.0,0.0
0.0,0.0,0.0,0.0,0.0,0.0,1.0,2.48574768E8,2.48574768E8,2.48574784E8,2.48574784E8,2.48574832E8,2.48574864E8,63.991837,-22.605425,-9999.0,0.0,0.424,180.01839,0.0,0.0,0.0,0.0,0.0,389.08878,1.193444,12.0,40.0,0.0,0.0,0.0,0.0,0.0,0.0,0.0,282.89813,0.0,0.0,0.0,0.0,0.0
0.0,0.0,0.0,0.0,0.0,0.0,1.0,2.48574768E8,2.48574768E8,2.48574784E8,2.48574784E8,2.48574832E8,2.48574864E8,63.991837,-22.605425,-9999.0,0.0,0.424,180.01839,0.0,0.0,0.0,0.0,0.0,389.08878,1.193444,12.0,40.0,0.0,0.0,0.0,0.0,0.0,0.0,0.0,282.89813,0.0,0.0,0.0,0.0,0.0
0.0,0.0,0.0,0.0,0.0,0.0,1.0,2.48574768E8,2.48574768E8,2.48574784E8,2.48574784E8,2.48574832E8,2.48574864E8,63.991837,-22.605425,-9999.0,0.0,0.424,180.01839,0.0,0.0,0.0,0.0,0.0,389.08878,1.193444,12.0,40.0,0.0,0.0,0.0,0.0,0.0,0.0,0.0,282.89813,0.0,0.0,0.0,0.0,0.0
0.0,0.0,0.0,0.0,0.0,0.0,1.0,2.48574768E8,2.48574768E8,2.48574784E8,2.48574784E8,2.48574832E8,2.48574864E8,63.991837,-22.605425,-9999.0,0.0,0.424,180.01839,0.0,0.0,0.0,0.0,0.0,389.08878,1.193444,12.0,40.0,0.0,0.0,0.0,0.0,0.0,0.0,0.0,282.89813,0.0,0.0,0.0,0.0,0.0
0.0,0.0,0.0,0.0,0.0,0.0,1.0,2.48574768E8,2.48574768E8,2.48574784E8,2.48574784E8,2.48574832E8,2.48574864E8,63.991837,-22.605425,-9999.0,0.0,0.424,180.01839,0.0,0.0,0.0,0.0,0.0,389.08878,1.193444,12.0,40.0,0.0,0.0,0.0,0.0,0.0,0.0,0.0,282.89813,0.0,0.0,0.0,0.0,0.0
0.0,0.0,0.0,0.0,0.0,0.0,1.0,2.48574768E8,2.48574768E8,2.48574784E8,2.48574784E8,2.48574832E8,2.48574864E8,63.991837,-22.605425,-9999.0,0.0,0.424,180.01839,0.0,0.0,0.0,0.0,0.0,389.08878,1.193444,12.0,40.0,0.0,0.0,0.0,0.0,0.0,0.0,0.0,282.89813,0.0,0.0,0.0,0.0,0.0
0.0,0.0,0.0,0.0,0.0,0.0,0.0,2.48574768E8,2.48574768E8,2.48574784E8,2.48574784E8,2.48574832E8,2.48574864E8,63.991837,-22.605427,146.2295,0.104764,4.952322,180.01332,0.0,0.0,0.0,0.0,0.0,389.08878,1.193444,12.0,40.0,0.0,0.0,0.0,0.0,0.0,0.0,0.0,282.89813,0.0,0.0,0.0,0.0,0.0
0.0,0.0,0.0,0.0,0.0,0.0,0.0,2.48574768E8,2.48574768E8,2.48574784E8,2.48574784E8,2.48574832E8,2.48574864E8,63.991837,-22.605427,146.22925,0.094054,4.976727,180.0125,89.87069,3.012373,-0.06778,-9.2E-5,0.0,538.27686,150.38148,12.0,40.0,0.0,0.0,150.00014,150.0,146.22925,7.3E-5,-0.010869,282.89807,353.34915,-0.007892,-0.687355,3747.953,0.0
0.0,0.0,0.0,0.0,0.0,0.0,0.0,2.48574768E8,2.48574768E8,2.48574784E8,2.48574784E8,2.48574832E8,2.48574864E8,63.991837,-22.605427,146.22952,0.095379,4.951539,180.01257,83.882675,2.733597,0.080024,2.1E-5,0.0,510.12122,122.22587,12.0,40.0,0.0,0.0,120.000145,120.0,146.22952,6.0E-5,0.002549,282.89807,320.97733,-0.013386,-1.401723,2137.2034,0.0
0.0,0.0,0.0,0.0,0.0,0.0,0.0,2.48574768E8,2.48574768E8,2.48574784E8,2.48574784E8,2.48574832E8,2.48574864E8,63.991837,-22.605427,146.22954,0.095426,4.951274,180.01257,83.311745,2.711955,0.074592,1.4E-5,4.844518,508.7485,120.85316,12.0,40.0,0.0,0.0,120.000145,120.0,146.22954,5.9E-5,0.001677,282.89807,317.34647,-0.013586,-1.446636,2005.1536,0.0
0.0,0.0,0.0,0.0,0.0,0.0,0.0,2.48574768E8,2.48574768E8,2.48574784E8,2.48574784E8,2.48574832E8,2.48574864E8,63.991837,-22.605427,146.22954,0.095939,4.950919,180.01262,81.29981,2.640427,-0.025416,-3.0E-6,5.683461,501.34515,113.44981,12.0,40.0,0.0,0.0,120.000145,120.0,146.22954,5.5E-5,-3.4E-5,282.89807,304.2063,-0.0144,-1.586045,1430.0975,0.0
0.0,0.0,0.0,0.0,0.0,0.0,0.0,2.48574768E8,2.48574768E8,2.48574784E8,2.48574784E8,2.48574832E8,2.48574864E8,63.991837,-22.605427,146.22952,0.097744,4.9513,180.01276,76.80562,2.504209,-0.088982,-8.0E-6,0.103195,483.2372,95.34186,12.0,40.0,0.0,0.0,100.000145,100.0,146.22952,4.9E-5,-7.38E-4,282.89807,274.2578,-0.015542,-1.817675,-324.51202,0.0
0.0,0.0,0.0,0.0,0.0,0.0,0.0,2.48574768E8,2.48574768E8,2.48574784E8,2.48574784E8,2.48574832E8,2.48574864E8,63.991837,-22.605427,146.2295,0.097887,4.95134,180.01277,75.84894,2.478943,-0.133783,-1.3E-5,5.988801,481.64673,93.75139,12.0,40.0,0.0,0.0,90.000145,90.0,146.2295,4.8E-5,-8.39E-4,282.89807,267.96268,-0.015735,-1.856417,-464.29886,0.0
0.0,0.0,0.0,0.0,0.0,0.0,0.0,2.48574768E8,2.48574768E8,2.48574784E8,2.48574784E8,2.48574832E8,2.48574864E8,63.991837,-22.605427,146.2295,0.098036,4.951382,180.01279,75.01356,2.457851,-0.134764,-1.6E-5,6.982295,479.28412,91.38878,12.0,40.0,0.0,0.0,90.000145,90.0,146.2295,4.7E-5,-0.001073,282.89807,262.52026,-0.015861,-1.887869,-632.9967,0.0
0.0,0.0,0.0,0.0,0.0,0.0,0.0,2.48574768E8,2.48574768E8,2.48574784E8,2.48574784E8,2.48574832E8,2.48574864E8,63.991837,-22.605427,146.2295,0.09821,4.951435,180.0128,74.16384,2.437286,-0.134524,-1.9E-5,7.296478,476.61588,88.72052,12.0,40.0,0.0,0.0,90.000145,90.0,146.2295,4.6E-5,-0.001275,282.89807,257.0471,-0.015981,-1.917784,-769.2817,0.0
0.0,0.0,0.0,0.0,0.0,0.0,0.0,2.48574768E8,2.48574768E8,2.48574784E8,2.48574784E8,2.48574832E8,2.48574864E8,63.991837,-22.605427,146.2295,0.098401,4.951498,180.01282,73.29978,2.417263,-0.134858,-2.0E-5,7.40481,473.84,85.944664,12.0,40.0,0.0,0.0,90.000145,90.0,146.2295,4.5E-5,-0.001375,282.89807,251.55463,-0.016094,-1.946237,-877.6597,0.0
0.0,0.0,0.0,0.0,0.0,0.0,0.0,2.48574768E8,2.48574768E8,2.48574784E8,2.48574784E8,2.48574832E8,2.48574864E8,63.991837,-22.605427,146.2295,0.098602,4.951568,180.01283,72.42142,2.397797,-0.135236,-2.1E-5,7.443728,471.02628,83.13093,12.0,40.0,0.0,0.0,90.000145,90.0,146.2295,4.4E-5,-0.001543,282.89807,246.05415,-0.0162,-1.973299,-965.64484,0.0
0.0,0.0,0.0,0.0,0.0,0.0,0.0,2.48574768E8,2.48574768E8,2.48574784E8,2.48574784E8,2.48574832E8,2.48574864E8,63.991837,-22.605427,146.2295,0.098811,4.951643,180.01285,71.528824,2.378901,-0.131908,-2.1E-5,7.376485,468.12057,80.22522,12.0,40.0,0.0,0.0,80.000145,80.0,146.2295,4.4E-5,-0.001778,282.89807,240.5567,-0.016299,-1.999039,-1043.2081,0.0
0.0,0.0,0.0,0.0,0.0,0.0,0.0,2.48574768E8,2.48574768E8,2.48574784E8,2.48574784E8,2.48574832E8,2.48574864E8,63.991837,-22.605427,146.22949,0.099021,4.951722,180.01286,70.62208,2.36059,-0.13585,-2.2E-5,7.415563,465.33972,77.444374,12.0,40.0,0.0,0.0,80.000145,80.0,146.22949,4.3E-5,-0.00161,282.89807,235.07314,-0.016395,-2.023521,-1101.726,0.0
0.0,0.0,0.0,0.0,0.0,0.0,0.0,2.48574768E8,2.48574768E8,2.48574784E8,2.48574784E8,2.48574832E8,2.48574864E8,63.991837,-22.605427,146.22949,0.09923,4.951801,180.01288,69.70134,2.342878,-0.136437,-2.2E-5,7.45083,462.5242,74.628845,12.0,40.0,0.0,0.0,80.000145,80.0,146.22949,4.2E-5,-0.00161,282.89807,229.61404,-0.016485,-2.046807,-1154.0282,0.0
0.0,0.0,0.0,0.0,0.0,0.0,0.0,2.48574768E8,2.48574768E8,2.48574784E8,2.48574784E8,2.48574832E8,2.48574864E8,63.991837,-22.605427,146.22949,0.099437,4.95188,180.0129,68.76678,2.325779,-0.136358,-2.1E-5,7.464466,459.69644,71.8011,12.0,40.0,0.0,0.0,70.000145,70.0,146.22949,4.1E-5,-0.001577,282.89807,224.18973,-0.01657,-2.068954,-1200.2877,0.0
0.0,0.0,0.0,0.0,0.0,0.0,0.0,2.48574768E8,2.48574768E8,2.48574784E8,2.48574784E8,2.48574832E8,2.48574864E8,63.991837,-22.605427,146.22949,0.099642,4.951959,180.01291,67.81857,2.309308,-0.136041,-2.1E-5,7.470371,456.86438,68.96905,12.0,40.0,0.0,0.0,70.000145,70.0,146.22949,4.0E-5,-0.001577,282.89807,218.81029,-0.016651,-2.090019,-1241.2665,0.0
0.0,0.0,0.0,0.0,0.0,0.0,0.0,2.48574768E8,2.48574768E8,2.48574784E8,2.48574784E8,2.48574832E8,2.48574864E8,63.991837,-22.605427,146.22949,0.099844,4.952036,180.01292,66.85697,2.293477,-0.135454,-2.1E-5,7.473543,454.0308,66.13546,12.0,40.0,0.0,0.0,70.000145,70.0,146.22949,3.9E-5,-0.001577,282.89807,213.48547,-0.016727,-2.110055,-1277.7461,0.0
0.0,0.0,0.0,0.0,0.0,0.0,0.0,2.48574768E8,2.48574768E8,2.48574784E8,2.48574784E8,2.48574832E8,2.48574864E8,63.991837,-22.605427,146.22948,0.100041,4.952113,180.01294,65.88224,2.2783,-0.134294,-2.0E-5,7.475739,451.1967,63.301327,12.0,40.0,0.0,0.0,70.000145,70.0,146.22948,3.9E-5,-0.001543,282.89807,208.22475,-0.0168,-2.129112,-1310.3972,0.0
0.0,0.0,0.0,0.0,0.0,0.0,0.0,2.48574768E8,2.48574768E8,2.48574784E8,2.48574784E8,2.48574832E8,2.48574864E8,63.991837,-22.605427,146.22948,0.100234,4.952187,180.01295,64.894684,2.26379,-0.132862,-1.9E-5,7.477575,448.36234,60.46699,12.0,40.0,0.0,0.0,60.00014,60.0,146.22948,3.8E-5,-0.001409,282.89807,203.0373,-0.016868,-2.147237,-1339.7688,0.0
0.0,0.0,0.0,0.0,0.0,0.0,0.0,2.48574768E8,2.48574768E8,2.48574784E8,2.48574784E8,2.48574832E8,2.48574864E8,63.991837,-22.605427,146.22948,0.100422,4.952259,180.01297,63.894638,2.249961,-0.131048,-1.9E-5,7.47927,445.52792,57.632572,12.0,40.0,0.0,0.0,60.00014,60.0,146.22948,3.7E-5,-0.001342,282.89807,197.93192,-0.016934,-2.164476,-1366.3075,0.0
0.0,0.0,0.0,0.0,0.0,0.0,0.0,2.48574768E8,2.48574768E8,2.48574784E8,2.48574784E8,2.48574832E8,2.48574864E8,63.991837,-22.605427,146.22948,0.100605,4.95233,180.01299,62.8825,2.236826,-0.12924,-1.8E-5,7.4809,442.69345,54.79811,12.0,40.0,0.0,0.0,60.00014,60.0,146.22948,3.6E-5,-0.001409,282.89807,192.9171,-0.016996,-2.180873,-1390.3788,0.0
0.0,0.0,0.0,0.0,0.0,0.0,0.0,2.48574768E8,2.48574768E8,2.48574784E8,2.48574784E8,2.48574832E8,2.48574864E8,63.991837,-22.605427,146.22948,0.100784,4.952397,180.013,61.85868,2.224396,-0.126717,-1.7E-5,7.482492,439.85898,51.963627,12.0,40.0,0.0,0.0,50.00014,50.0,146.22948,3.6E-5,-0.001342,282.89807,188.001,-0.017055,-2.196469,-1412.2845,0.0
0.0,0.0,0.0,0.0,0.0,0.0,0.2,2.48574768E8,2.48574768E8,2.48574784E8,2.48574784E8,2.48574832E8,2.48574864E8,63.991837,-22.605427,146.22948,0.100813,4.952409,180.013,61.686943,2.222394,-0.126234,-1.7E-5,7.482754,439.38657,51.49121,12.0,40.0,0.0,0.0,50.00014,50.0,146.22948,3.5E-5,-0.001308,282.89807,187.19182,-0.017055,-2.198993,-1415.7434,0.0
0.0,0.0,0.0,0.0,0.0,0.0,0.2,2.48574768E8,2.48574768E8,2.48574784E8,2.48574784E8,2.48574832E8,2.48574864E8,63.991837,-22.605427,146.22945,0.102564,4.953094,180.01314,51.745415,2.14397,-0.127181,-3.0E-6,1.109967,118.71204,22.787796,12.0,40.0,0.0,0.0,20.000143,20.0,146.22945,2.9E-5,-2.01E-4,282.89807,147.8554,-0.017574,-2.310637,-1427.443,0.0
0.0,0.0,0.0,0.0,0.0,0.0,0.2,2.48574768E8,2.48574768E8,2.48574784E8,2.48574784E8,2.48574832E8,2.48574864E8,63.991837,-22.605427,146.22945,0.102612,4.953107,180.01315,50.54183,2.139174,-0.089755,-3.0E-6,5.324803,116.8753,20.951052,12.0,40.0,0.0,0.0,20.000143,20.0,146.22945,2.9E-5,-2.68E-4,282.89807,144.07608,-0.017598,-2.320246,-1393.6185,0.319368
0.0,0.0,0.0,0.0,0.0,0.0,0.2,2.48574768E8,2.48574768E8,2.48574784E8,2.48574784E8,2.48574832E8,2.48574864E8,63.991837,-22.605427,146.22945,0.102697,4.953103,180.01315,48.866558,2.134115,0.022634,1.0E-6,6.886379,113.45288,17.528633,12.0,40.0,0.0,0.0,20.000143,20.0,146.22945,2.8E-5,2.01E-4,282.89807,139.164,-0.017647,-2.307985,-1389.2651,60.08754
0.0,0.0,0.0,0.0,0.0,0.0,0.2,2.48574768E8,2.48574768E8,2.48574784E8,2.48574784E8,2.48574832E8,2.48574864E8,63.991837,-22.605427,146.22945,0.102742,4.952952,180.01315,47.74455,2.131792,0.04873,9.0E-6,7.371581,110.89025,14.966002,12.0,40.0,0.0,0.0,20.000143,20.0,146.22945,2.7E-5,0.001308,282.89807,136.10107,-0.017681,-2.280537,-1399.3158,93.879105
0.0,0.0,0.0,0.0,0.0,0.0,0.2,2.48574768E8,2.48574768E8,2.48574784E8,2.48574784E8,2.48574832E8,2.48574864E8,63.991837,-22.605427,146.22945,0.102763,4.952574,180.01315,46.61984,2.130305,0.051154,1.9E-5,7.550282,108.1513,12.227056,12.0,40.0,0.0,0.0,10.000142,10.0,146.22945,2.7E-5,0.002751,282.89807,133.21075,-0.017714,-2.240537,-1416.2102,126.1741
0.0,0.0,0.0,0.0,0.0,0.0,0.2,2.48574768E8,2.48574768E8,2.48574784E8,2.48574784E8,2.48574832E8,2.48574864E8,63.991837,-22.605427,146.22946,0.10275,4.951916,180.01315,45.49364,2.129646,0.051304,3.0E-5,7.616711,105.35028,9.426037,12.0,40.0,0.0,0.0,10.000142,10.0,146.22946,2.6E-5,0.004428,282.89807,130.49538,-0.017746,-2.190197,-1434.3412,156.90623
0.0,0.0,0.0,0.0,0.0,0.0,0.2,2.48574768E8,2.48574768E8,2.48574784E8,2.48574784E8,2.48574832E8,2.48574864E8,63.991837,-22.605427,146.22946,0.102711,4.951142,180.01315,44.554844,2.129727,0.051152,3.9E-5,7.687052,102.95408,7.029831,11.995679,39.985596,0.0,0.0,10.000142,10.0,146.22946,2.6E-5,0.005837,282.89807,128.36758,-0.017766,-2.141802,-1450.9432,181.29425
0.0,0.0,0.0,0.0,0.0,0.0,0.2,2.48574768E8,2.48574768E8,2.48574784E8,2.48574784E8,2.48574832E8,2.48574864E8,63.991837,-22.605427,146.22948,0.102629,4.949946,180.01315,43.42884,2.130573,0.051132,4.9E-5,7.586688,100.07345,4.149203,11.908669,39.695564,0.0,0.0,10.000142,10.0,146.22948,2.5E-5,0.007346,282.89807,125.97761,-0.01779,-2.077573,-1469.4767,209.08026
0.0,0.0,0.0,0.0,0.0,0.0,0.2,2.48574768E8,2.48574768E8,2.48574784E8,2.48574784E8,2.48574832E8,2.48574864E8,63.991837,-22.605427,146.22949,0.102499,4.948349,180.01314,42.21074,2.132408,0.051092,5.9E-5,7.554993,97.02215,1.097903,11.724229,39.080765,0.0,0.0,1.42E-4,0.0,146.22949,2.5E-5,0.008923,282.89807,123.5909,-0.017818,-2.002216,-1484.9282,237.36563
0.0,0.0,0.0,0.0,0.0,0.0,0.2,2.48574768E8,2.48574768E8,2.48574784E8,2.48574784E8,2.48574832E8,2.48574864E8,63.991837,-22.605427,146.2295,0.102385,4.947081,180.01312,41.369106,2.134235,0.050997,6.4E-5,7.617828,94.921715,-1.002526,11.577601,38.592007,0.0,0.0,1.42E-4,0.0,146.2295,2.5E-5,0.009896,282.89807,122.06242,-0.017827,-1.947487,-1496.4138,255.85446
0.0,0.0,0.0,0.0,0.0,0.0,0.2,2.48574768E8,2.48574768E8,2.48574784E8,2.48574784E8,2.48574832E8,2.48574864E8,63.991837,-22.605427,146.22952,0.102158,4.944723,180.0131,39.970547,2.138286,0.051417,7.3E-5,7.557455,91.57032,-4.353922,11.310818,37.702724,0.0,0.0,1.42E-4,0.0,146.22952,2.4E-5,0.011171,282.89807,119.74076,-0.017837,-1.853297,-1511.2526,284.73373
0.0,0.0,0.0,0.0,0.0,0.0,0.2,2.48574768E8,2.48574768E8,2.48574784E8,2.48574784E8,2.48574832E8,2.48574864E8,63.991837,-22.605427,146.22955,0.101932,4.942486,180.01308,38.763718,2.142809,0.051432,7.8E-5,7.597964,88.693344,-7.230897,11.058937,36.863125,0.0,0.0,1.42E-4,0.0,146.22955,2.3E-5,0.012009,282.89807,117.95705,-0.017838,-1.770135,-1521.9354,307.87646
0.0,0.0,0.0,0.0,0.0,0.0,0.2,2.48574768E8,2.48574768E8,2.48574784E8,2.48574784E8,2.48574832E8,2.48574864E8,63.991837,-22.605427,146.22957,0.101707,4.940308,180.01306,37.654964,2.147813,0.052122,8.2E-5,7.685456,86.00504,-9.919201,10.812132,36.04044,0.0,0.0,-9.999858,-10.0,146.22957,2.3E-5,0.012512,282.89807,116.498436,-0.017835,-1.693243,-1532.4374,327.74612
0.0,0.0,0.0,0.0,0.0,0.0,0.2,2.48574768E8,2.48574768E8,2.48574784E8,2.48574784E8,2.48574832E8,2.48574864E8,63.991837,-22.605427,146.22958,0.101469,4.938058,180.01305,36.55198,2.153607,0.052565,8.5E-5,7.702159,83.30787,-12.616375,10.553438,35.178123,1.0E-6,0.0,-9.999858,-10.0,146.22958,2.2E-5,0.012848,282.89807,115.219505,-0.017828,-1.617075,-1542.527,346.243
0.0,0.0,0.0,0.0,0.0,0.0,0.2,2.48574768E8,2.48574768E8,2.48574784E8,2.48574784E8,2.48574832E8,2.48574864E8,63.991837,-22.605427,146.22961,0.101223,4.935768,180.01302,35.45551,2.160185,0.053071,8.7E-5,7.712877,80.60756,-15.316682,10.284495,34.281643,2.0E-6,0.0,-9.999858,-10.0,146.22961,2.2E-5,0.013015,282.89804,114.11924,-0.017816,-1.542314,-1552.0007,363.4296
0.0,0.0,0.0,0.0,0.0,0.0,0.2,2.48574768E8,2.48574768E8,2.48574784E8,2.48574784E8,2.48574832E8,2.48574864E8,63.991837,-22.605427,146.22963,0.100973,4.933468,180.013,34.36625,2.167542,0.05367,8.8E-5,7.721673,77.90614,-18.0181,10.006846,33.356133,7.0E-6,0.0,-19.999857,-20.0,146.22963,2.2E-5,0.013015,282.89798,113.19627,-0.017801,-1.469513,-1560.8267,379.3706
0.0,0.0,0.0,0.0,0.0,0.0,0.2,2.48574768E8,2.48574768E8,2.48574784E8,2.48574784E8,2.48574832E8,2.48574864E8,63.991837,-22.605427,146.22966,0.100722,4.931182,180.01297,33.284874,2.175669,0.054366,8.8E-5,7.729845,75.20432,-20.719923,9.721939,32.406406,1.8E-5,0.0,-19.999857,-20.0,146.22966,2.1E-5,0.012948,282.8978,112.44892,-0.017781,-1.399098,-1569.0293,394.13184
0.0,0.0,0.0,0.0,0.0,0.0,0.2,2.48574768E8,2.48574768E8,2.48574784E8,2.48574784E8,2.48574832E8,2.48574864E8,63.991837,-22.605427,146.22968,0.100473,4.928933,180.01295,32.212025,2.18456,0.055153,8.7E-5,7.737851,72.50235,-23.421896,9.431129,31.436956,4.2E-5,1.0E-6,-19.999857,-20.0,146.22968,2.1E-5,0.01268,282.89743,111.87518,-0.017759,-1.331381,-1576.6487,407.7794
0.0,0.0,0.0,0.0,0.0,0.0,0.2,2.48574768E8,2.48574768E8,2.48574784E8,2.48574784E8,2.48574832E8,2.48574864E8,63.991837,-22.605427,146.22969,0.100229,4.926739,180.01294,31.148338,2.194205,0.055919,8.6E-5,7.688819,69.51026,-26.41398,9.137107,30.45672,9.1E-5,2.0E-6,-19.999857,-20.0,146.22969,2.0E-5,0.012546,282.8967,111.47276,-0.017733,-1.266558,-1595.5178,420.37772
0.0,0.0,0.0,0.0,0.0,0.0,0.2,2.48574768E8,2.48574768E8,2.48574784E8,2.48574784E8,2.48574832E8,2.48574864E8,63.991837,-22.605427,146.22972,0.099991,4.924613,180.01291,30.094305,2.204596,0.056988,8.5E-5,7.570015,66.99615,-28.928097,8.838182,29.459988,1.87E-4,4.0E-6,-29.999857,-30.0,146.22972,2.0E-5,0.012143,282.89523,111.23906,-0.017707,-1.20472,-1593.6726,431.99323
0.0,0.0,0.0,0.0,0.0,0.0,0.2,2.48574768E8,2.48574768E8,2.48574784E8,2.48574784E8,2.48574832E8,2.48574864E8,63.991837,-22.605427,146.22974,0.09976,4.922566,180.0129,29.050568,2.215723,0.058155,8.3E-5,7.648722,64.33008,-31.594164,8.537114,28.455843,3.64E-4,7.0E-6,-29.999857,-30.0,146.22974,2.0E-5,0.011741,282.89255,111.171196,-0.017677,-1.145857,-1598.024,442.68732
0.0,0.0,0.0,0.0,0.0,0.0,0.2,2.48574768E8,2.48574768E8,2.48574784E8,2.48574784E8,2.48574832E8,2.48574864E8,63.991837,-22.605427,146.22975,0.099556,4.920766,180.01288,28.103258,2.226561,0.058603,8.0E-5,7.775219,61.869854,-34.054394,8.259847,27.530691,6.43E-4,1.3E-5,-29.999857,-30.0,146.22975,1.9E-5,0.011674,282.88828,111.25199,-0.017647,-1.094427,-1602.5007,451.73288
0.0,0.0,0.0,0.0,0.0,0.0,0.2,2.48574768E8,2.48574768E8,2.48574784E8,2.48574784E8,2.48574832E8,2.48574864E8,63.991837,-22.605427,146.22977,0.099449,4.919817,180.01286,27.590378,2.232726,0.065986,8.8E-5,7.728423,60.538868,-35.385376,8.10839,27.025103,8.65E-4,1.8E-5,-29.999857,-30.0,146.22977,1.9E-5,0.013015,282.88492,111.352745,-0.017636,-1.067354,-1604.3574,456.37823
0.0,0.0,0.0,0.0,0.0,0.0,0.2,2.48574768E8,2.48574768E8,2.48574784E8,2.48574784E8,2.48574832E8,2.48574864E8,63.991837,-22.605427,146.22981,0.098953,4.915324,180.01282,24.987974,2.267379,0.062236,7.1E-5,6.28444,52.80395,-43.120293,7.338358,24.449787,0.003442,7.0E-5,-39.99986,-40.0,146.22981,1.8E-5,0.009728,282.84558,112.49128,-0.017543,-0.937785,-1637.7213,477.41757
0.0,0.0,0.0,0.0,0.0,0.0,0.2,2.48574768E8,2.48574768E8,2.48574784E8,2.48574784E8,2.48574832E8,2.48574864E8,63.991837,-22.605427,146.22983,0.098752,4.913676,180.0128,23.998922,2.282207,0.074237,1.09E-4,7.289973,50.60959,-45.314655,7.035193,23.432196,0.005569,1.12E-4,-39.99986,-40.0,146.22983,1.8E-5,0.012814,282.81314,113.200325,-0.017553,-0.891964,-1620.466,523.0881
0.0,0.0,0.0,0.0,0.0,0.0,0.2,2.48574768E8,2.48574768E8,2.48574784E8,2.48574784E8,2.48574832E8,2.48574864E8,63.991837,-22.605427,146.22986,0.098255,4.910652,180.01276,23.012575,2.298372,0.064687,2.02E-4,7.636131,48.08615,-47.838097,6.703965,22.317118,0.008883,1.79E-4,-49.99986,-50.0,146.22986,1.7E-5,0.026132,282.7625,114.05266,-0.017633,-0.848394,-1617.3674,591.74603
0.0,0.0,0.0,0.0,0.0,0.0,0.2,2.48574768E8,2.48574768E8,2.48574784E8,2.48574784E8,2.48574832E8,2.48574864E8,63.991837,-22.605427,146.22992,0.097357,4.905091,180.01268,22.039597,2.315333,0.057654,2.87E-4,7.719594,45.4042,-50.520042,6.348374,21.114424,0.014132,2.83E-4,-49.99986,-50.0,146.22992,4.6E-5,0.040388,282.68225,115.04373,-0.017677,-0.806969,-1620.7732,654.0309
0.0,0.0,0.0,0.0,0.0,0.0,0.2,2.48574768E8,2.48574768E8,2.48574784E8,2.48574784E8,2.48574832E8,2.48574864E8,63.991837,-22.605427,146.23,0.096144,4.897101,180.01259,21.083607,2.332795,0.053946,3.51E-4,7.73339,42.715958,-53.208286,5.975591,19.844128,0.022486,4.48E-4,-49.99986,-50.0,146.23,1.19E-4,0.051894,282.5543,116.16885,-0.017672,-0.76758,-1624.17,709.5783
0.0,0.0,0.0,0.0,0.0,0.0,0.2,2.48574768E8,2.48574768E8,2.48574784E8,2.48574784E8,2.48574832E8,2.48574864E8,63.991837,-22.605427,146.23007,0.094965,4.888997,180.01248,20.300459,2.347649,0.05206,3.86E-4,7.791068,40.5007,-55.423546,5.65735,18.748152,0.033101,6.55E-4,-49.99986,-50.0,146.23007,1.92E-4,0.058536,282.39142,117.20533,-0.017641,-0.736236,-1625.8668,750.6726
0.0,0.0,0.0,0.0,0.0,0.0,0.2,2.48574768E8,2.48574768E8,2.48574784E8,2.48574784E8,2.48574832E8,2.48574864E8,63.991837,-22.605427,146.2302,0.093167,4.876287,180.01233,19.220907,2.369294,0.046255,4.11E-4,7.792332,37.341393,-58.58285,5.212115,17.186098,0.056617,0.001108,-59.99986,-60.0,146.2302,3.05E-4,0.062629,282.02954,118.80152,-0.01752,-0.694502,-1630.2864,800.445
0.0,0.0,0.0,0.0,0.0,0.0,0.2,2.48574768E8,2.48574768E8,2.48574784E8,2.48574784E8,2.48574832E8,2.48574864E8,63.991837,-22.605427,146.23029,0.091565,4.86653,180.0121,18.281048,2.392171,0.025083,4.18E-4,7.838072,34.66066,-61.263584,4.841924,15.844956,0.088953,0.00172,-59.99986,-60.0,146.23029,4.49E-4,0.053538,281.53027,120.298836,-0.017197,-0.660637,-1632.7914,836.23114
0.0,0.0,0.0,0.0,0.0,0.0,0.2,2.48574768E8,2.48574768E8,2.48574784E8,2.48574784E8,2.48574832E8,2.48574864E8,63.991837,-22.605427,146.23038,0.090031,4.859569,180.01193,17.33961,2.419753,0.01539,4.84E-4,7.863057,31.966,-63.958244,4.500002,14.543075,0.137869,0.002631,-59.99986,-60.0,146.23038,7.22E-4,0.047131,280.7727,121.90977,-0.017015,-0.628426,-1635.6776,866.0944
0.0,0.0,0.0,0.0,0.0,0.0,0.2,2.48574768E8,2.48574768E8,2.48574784E8,2.48574784E8,2.48574832E8,2.48574864E8,63.991837,-22.605427,146.23045,0.088544,4.854932,180.01169,16.385939,2.451236,0.011443,5.98E-4,7.880501,29.266418,-66.65783,4.194982,13.287866,0.209807,0.003951,-59.99986,-60.0,146.23045,0.001198,0.04173,279.65494,123.62888,-0.016872,-0.597786,-1638.563,890.50073
0.0,0.0,0.0,0.0,0.0,0.0,0.2,2.48574768E8,2.48574768E8,2.48574784E8,2.48574784E8,2.48574832E8,2.48574864E8,63.991837,-22.605427,146.23051,0.087182,4.851981,180.01132,15.442416,2.486258,0.009474,7.39E-4,7.895943,26.565092,-69.35915,3.935825,12.082956,0.312681,0.005807,-69.999855,-70.0,146.23051,0.001937,0.039818,278.05026,125.45064,-0.016798,-0.56866,-1641.3224,909.946
0.0,0.0,0.0,0.0,0.0,0.0,0.2,2.48574768E8,2.48574768E8,2.48574784E8,2.48574784E8,2.48574832E8,2.48574864E8,63.991837,-22.605427,146.23059,0.085947,4.850179,180.011,14.51146,2.524209,0.00874,9.42E-4,7.911246,23.863138,-72.061104,3.732513,10.931168,0.455667,0.008348,-69.999855,-70.0,146.23059,0.002988,0.038476,275.80878,127.369385,-0.016547,-0.540955,-1643.92,924.93445
0.0,0.0,0.0,0.0,0.0,0.0,0.2,2.48574768E8,2.48574768E8,2.48574784E8,2.48574784E8,2.48574832E8,2.48574864E8,63.991837,-22.605427,146.23067,0.084871,4.849142,180.01057,13.598406,2.56456,0.007855,0.001104,7.900917,21.152967,-74.77128,3.5955,9.834723,0.648601,0.011728,-69.999855,-70.0,146.23067,0.004385,0.051793,272.7642,129.3794,-0.015911,-0.51461,-1646.6488,935.96234
0.0,0.0,0.0,0.0,0.0,0.0,0.2,2.48574768E8,2.48574768E8,2.48574784E8,2.48574784E8,2.48574832E8,2.48574864E8,63.991837,-22.605427,146.23076,0.08398,4.848609,180.01013,12.708782,2.606825,0.007573,0.001329,8.02237,18.395428,-77.52882,3.534562,8.795325,0.900791,0.016088,-79.999855,-80.0,146.23076,0.006154,0.057899,268.74875,131.47488,-0.015232,-0.489556,-1651.1165,943.5067
0.0,0.0,0.0,0.0,0.0,0.0,0.2,2.48574768E8,2.48574768E8,2.48574784E8,2.48574784E8,2.48574832E8,2.48574864E8,63.991837,-22.605427,146.23085,0.083247,4.848375,180.00963,11.844032,2.650532,0.007414,0.001572,7.921965,15.734123,-80.190125,3.556909,7.814177,1.219115,0.021528,-79.999855,-80.0,146.23085,0.008307,0.064004,263.6186,133.65001,-0.014521,-0.465731,-1651.4677,948.01996
0.0,0.0,0.0,0.0,0.0,0.0,0.2,2.48574768E8,2.48574768E8,2.48574784E8,2.48574784E8,2.48574832E8,2.48574864E8,63.991837,-22.605427,146.23096,0.082678,4.848313,180.00908,11.005756,2.695266,0.007201,0.001794,7.963437,13.046239,-82.878006,3.664666,6.892204,1.605423,0.028063,-79.999855,-80.0,146.23096,0.01085,0.073329,257.29105,135.89886,-0.013805,-0.443072,-1652.8318,949.9214
0.0,0.0,0.0,0.0,0.0,0.0,0.2,2.48574768E8,2.48574768E8,2.48574784E8,2.48574784E8,2.48574832E8,2.48574864E8,63.991837,-22.605427,146.23108,0.082266,4.848331,180.00851,10.194624,2.740662,0.007205,0.002065,7.989898,10.348997,-85.57525,3.851865,6.029908,2.053566,0.035576,-79.999855,-80.0,146.23108,0.013781,0.079367,249.79106,138.21553,-0.013104,-0.421522,-1654.4684,949.59766
0.0,0.0,0.0,0.0,0.0,0.0,0.2,2.48574768E8,2.48574768E8,2.48574784E8,2.48574784E8,2.48574832E8,2.48574864E8,63.991837,-22.605427,146.23122,0.081995,4.848366,180.00792,9.41053,2.786404,0.007041,0.002279,8.010775,7.648459,-88.27579,4.101977,5.22742,2.546888,0.04379,-89.999855,-90.0,146.23122,0.017091,0.09302,241.29857,140.59407,-0.012416,-0.401026,-1656.1226,947.40125
0.0,0.0,0.0,0.0,0.0,0.0,0.2,2.48574768E8,2.48574768E8,2.48574784E8,2.48574784E8,2.48574832E8,2.48574864E8,63.991837,-22.605427,146.23137,0.081858,4.848385,180.0073,8.653178,2.832224,0.007039,0.002534,8.029742,4.94676,-90.977486,4.387223,4.484533,3.057537,0.052249,-89.999855,-90.0,146.23137,0.020767,0.097851,232.17952,143.02853,-0.011765,-0.381532,-1657.7096,943.65094
0.0,0.0,0.0,0.0,0.0,0.0,0.26,2.48574768E8,2.48574768E8,2.48574784E8,2.48574784E8,2.48574832E8,2.48574864E8,63.991837,-22.605427,146.23154,0.081839,4.848365,180.00665,7.968291,2.861135,0.006956,0.002749,8.040091,2.166299,-93.75794,4.67119,3.800736,3.549082,0.060373,-89.999855,-90.0,146.23154,0.024791,0.105935,222.97797,145.513,-0.011161,-0.362992,-1662.2338,938.6672
0.0,0.0,0.0,0.0,0.0,0.0,0.32,2.48574768E8,2.48574768E8,2.48574784E8,2.48574784E8,2.48574832E8,2.48574864E8,63.991837,-22.605427,146.23169,0.081885,4.848313,180.00607,7.43296,2.874506,0.006865,0.002908,7.983209,-0.075744,-95.99999,4.879061,3.275632,3.916307,0.066452,-89.999855,-90.0,146.23169,0.028395,0.113583,215.71846,147.61731,-0.010753,-0.348255,-1662.8456,934.20544
0.0,0.0,0.0,0.0,0.0,0.0,0.32,2.48574768E8,2.48574768E8,2.48574784E8,2.48574784E8,2.48574832E8,2.48574864E8,63.991837,-22.605427,146.2319,0.08209,4.848196,180.00517,6.701813,2.892862,0.006873,0.003175,8.013703,-3.18492,-99.10916,5.089808,2.607976,4.32942,0.073353,-99.999855,-100.0,146.2319,0.033798,0.122204,206.92339,150.60829,-0.009977,-0.328618,-1662.4857,928.687
0.0,0.0,0.0,0.0,0.0,0.0,0.32,2.48574768E8,2.48574768E8,2.48574784E8,2.48574784E8,2.48574832E8,2.48574864E8,63.991837,-22.605427,146.23212,0.082283,4.848082,180.00436,6.079361,2.908292,0.006834,0.003374,8.049826,-5.871046,-101.79529,5.180109,2.097799,4.574029,0.077534,-99.999855,-100.0,146.23212,0.03874,0.129215,201.15358,153.20737,-0.009054,-0.312687,-1663.0343,924.78625
0.0,0.0,0.0,0.0,0.0,0.0,0.32,2.48574768E8,2.48574768E8,2.48574784E8,2.48574784E8,2.48574832E8,2.48574864E8,63.991837,-22.605427,146.23233,0.082518,4.847966,180.00348,5.465246,2.923575,0.006819,0.003578,8.103867,-8.658279,-104.58253,5.193101,1.644754,4.723742,0.080222,-99.999855,-100.0,146.23233,0.043953,0.135991,197.1772,155.83301,-0.008069,-0.297547,-1667.4482,921.57367
0.0,0.0,0.0,0.0,0.0,0.0,0.32,2.48574768E8,2.48574768E8,2.48574784E8,2.48574784E8,2.48574832E8,2.48574864E8,63.991837,-22.605427,146.23256,0.082764,4.847868,180.00253,4.858855,2.938797,0.006793,0.00377,8.022455,-11.29991,-107.22415,5.15121,1.249022,4.801033,0.081767,-99.999855,-100.0,146.23256,0.049422,0.14525,194.79865,158.47948,-0.007131,-0.283155,-1665.9417,918.9817
0.0,0.0,0.0,0.0,0.0,0.0,0.32,2.48574768E8,2.48574768E8,2.48574784E8,2.48574784E8,2.48574832E8,2.48574864E8,63.991837,-22.605427,146.23279,0.082998,4.847787,180.00154,4.2593,2.954029,0.00679,0.00397,8.065025,-13.980889,-109.905136,5.082115,0.910831,4.833642,0.082588,-109.999855,-110.0,146.23279,0.055135,0.151992,193.59439,161.14111,-0.006229,-0.269473,-1666.0522,916.9438
0.0,0.0,0.0,0.0,0.0,0.0,0.32,2.48574768E8,2.48574768E8,2.48574784E8,2.48574784E8,2.48574832E8,2.48574864E8,63.991833,-22.605427,146.23305,0.08324,4.847717,180.0005,3.666218,2.969341,0.006771,0.004157,8.084579,-16.675722,-112.59997,5.008666,0.630412,4.844458,0.08305,-109.999855,-110.0,146.23305,0.061081,0.162559,193.09308,163.81235,-0.005367,-0.256467,-1666.6877,915.39777
0.0,0.0,0.0,0.0,0.0,0.0,0.32,2.48574768E8,2.48574768E8,2.48574784E8,2.48574784E8,2.48574832E8,2.48574864E8,63.991833,-22.605427,146.2333,0.083468,4.847674,179.99942,3.079405,2.984792,0.006796,0.00437,8.095596,-19.375433,-115.299675,4.944489,0.407874,4.847136,0.083365,-109.999855,-110.0,146.2333,0.067251,0.166517,192.92691,166.48767,-0.004542,-0.244105,-1667.4662,914.2852
0.0,0.0,0.0,0.0,0.0,0.0,0.32,2.48574768E8,2.48574768E8,2.48574784E8,2.48574784E8,2.48574832E8,2.48574864E8,63.991833,-22.605427,146.23358,0.083681,4.847652,179.99829,2.498756,3.000433,0.006807,0.004573,8.103596,-22.076862,-118.00111,4.89548,0.243232,4.847597,0.083619,-119.999855,-120.0,146.23358,0.073639,0.175474,192.8842,169.16174,-0.003763,-0.232357,-1668.2555,913.5515
0.0,0.0,0.0,0.0,0.0,0.0,0.32,2.48574768E8,2.48574768E8,2.48574784E8,2.48574784E8,2.48574832E8,2.48574864E8,63.991833,-22.605427,146.23387,0.083881,4.847651,179.99707,1.924248,3.01631,0.006816,0.004775,8.110529,-24.778902,-120.70315,4.863432,0.136463,4.847645,0.083839,-119.999855,-120.0,146.23387,0.080238,0.180271,192.87534,171.82925,-0.003029,-0.221195,-1669.012,913.1459
0.0,0.0,0.0,0.0,0.0,0.0,0.32,2.48574768E8,2.48574768E8,2.48574784E8,2.48574784E8,2.48574832E8,2.48574864E8,63.991833,-22.605427,146.23418,0.084066,4.847671,179.99579,1.355846,3.03246,0.006801,0.004959,8.117089,-27.481157,-123.4054,4.848718,0.087555,4.847663,0.084039,-119.999855,-120.0,146.23418,0.087042,0.187684,192.87306,174.48506,-0.002341,-0.210592,-1669.7224,913.0213
0.0,0.0,0.0,0.0,0.0,0.0,0.32,2.48574768E8,2.48574768E8,2.48574784E8,2.48574784E8,2.48574832E8,2.48574864E8,63.991833,-22.605427,146.23448,0.084232,4.84771,179.99443,0.79363,3.048915,0.006814,0.005164,8.123531,-30.183493,-126.107735,4.847699,0.08422,4.847699,0.08422,-119.999855,-120.0,146.23448,0.094048,0.194024,192.8716,177.12415,-0.001684,-0.200519,-1670.3845,913.1345
0.0,0.0,0.0,0.0,0.0,0.0,0.32,2.48574768E8,2.48574768E8,2.48574784E8,2.48574784E8,2.48574832E8,2.48574864E8,63.991833,-22.605427,146.2348,0.084379,4.847765,179.993,0.237424,3.065701,0.006805,0.005353,8.12995,-32.885857,-128.8101,4.847752,0.084379,4.847752,0.084379,-129.99986,-130.0,146.2348,0.101252,0.204825,192.8701,179.7416,-0.001055,-0.190952,-1670.9995,913.44617
0.0,0.0,0.0,0.0,0.0,0.0,0.4,2.48574768E8,2.48574768E8,2.48574784E8,2.48574784E8,2.48574832E8,2.48574864E8,63.991833,-22.605427,146.23508,0.084532,4.847823,179.99173,-0.217798,3.079958,0.006815,0.005525,8.168935,-35.177376,-131.10162,4.84781,0.084507,4.84781,0.084507,-129.99986,-130.0,146.23508,0.107405,0.209589,192.86879,181.90282,-6.45E-4,-0.183343,-1673.021,913.934
0.0,0.0,0.0,0.0,0.0,0.0,0.42,2.48574768E8,2.48574768E8,2.48574784E8,2.48574784E8,2.48574832E8,2.48574864E8,63.991833,-22.605427,146.23549,0.08464,4.847931,179.98988,-0.856351,3.100437,0.006802,0.005745,8.097016,-38.314487,-134.23872,4.847916,0.084654,4.847916,0.084654,-129.99986,-130.0,146.23549,0.116244,0.222,192.8669,184.89267,1.34E-4,-0.173236,-1672.8828,916.19836
0.0,0.0,0.0,0.0,0.0,0.0,0.42,2.48574768E8,2.48574768E8,2.48574784E8,2.48574784E8,2.48574832E8,2.48574864E8,63.991833,-22.605427,146.23584,0.08473,4.848067,179.98819,-1.393873,3.118712,0.006805,0.00595,8.135014,-41.00141,-136.92566,4.848046,0.084749,4.848046,0.084749,-129.99986,-130.0,146.23584,0.124032,0.227971,192.8652,187.41725,6.99E-4,-0.165045,-1672.7227,919.96643
0.0,0.0,0.0,0.0,0.0,0.0,0.42,2.48574768E8,2.48574768E8,2.48574784E8,2.48574784E8,2.48574832E8,2.48574864E8,63.991833,-22.605427,146.23622,0.084785,4.848257,179.98634,-1.924279,3.137877,0.006835,0.006188,8.151309,-43.69836,-139.6226,4.848227,0.084805,4.848227,0.084805,-139.99986,-140.0,146.23622,0.132021,0.236224,192.86339,189.90205,0.001122,-0.157282,-1672.9542,925.1119
0.0,0.0,0.0,0.0,0.0,0.0,0.42,2.48574768E8,2.48574768E8,2.48574784E8,2.48574784E8,2.48574832E8,2.48574864E8,63.991833,-22.605427,146.2366,0.084796,4.848512,179.9843,-2.447343,3.158103,0.006849,0.006421,8.161792,-46.39884,-142.32309,4.848474,0.084817,4.848474,0.084817,-139.99986,-140.0,146.2366,0.140222,0.242362,192.86137,192.34297,0.001325,-0.149929,-1673.3013,931.34985
0.0,0.0,0.0,0.0,0.0,0.0,0.42,2.48574768E8,2.48574768E8,2.48574784E8,2.48574784E8,2.48574832E8,2.48574864E8,63.991833,-22.605427,146.23701,0.084741,4.848829,179.98215,-2.963319,3.179528,0.006849,0.006652,8.170505,-49.100567,-145.02481,4.848783,0.08477,4.848783,0.08477,-139.99986,-140.0,146.23701,0.148648,0.249709,192.85924,194.73601,0.001502,-0.142955,-1673.668,938.4246
0.0,0.0,0.0,0.0,0.0,0.0,0.42,2.48574768E8,2.48574768E8,2.48574784E8,2.48574784E8,2.48574832E8,2.48574864E8,63.991833,-22.605427,146.23743,0.084639,4.849205,179.97989,-3.471017,3.202253,0.006855,0.006901,8.133635,-51.83288,-147.75713,4.849153,0.084673,4.849153,0.084673,-149.99986,-150.0,146.23743,0.157313,0.261147,192.85698,197.07738,0.001708,-0.136342,-1675.1173,946.1079
0.0,0.0,0.0,0.0,0.0,0.0,0.42,2.48574768E8,2.48574768E8,2.48574784E8,2.48574784E8,2.48574832E8,2.48574864E8,63.991833,-22.605427,146.23785,0.084493,4.849644,179.9775,-3.970052,3.226353,0.006851,0.007154,8.162534,-54.56647,-150.49072,4.849584,0.084533,4.849584,0.084533,-149.99986,-150.0,146.23785,0.166235,0.27111,192.85461,199.36346,0.001935,-0.130074,-1676.5968,954.1993
0.0,0.0,0.0,0.0,0.0,0.0,0.42,2.48574768E8,2.48574768E8,2.48574784E8,2.48574784E8,2.48574832E8,2.48574864E8,63.991833,-22.605427,146.2383,0.08431,4.850129,179.97496,-4.460006,3.251878,0.006844,0.007416,8.159877,-57.229046,-153.15329,4.850064,0.084355,4.850064,0.084355,-149.99986,-150.0,146.2383,0.175431,0.283757,192.8521,201.59084,0.002192,-0.124135,-1675.2235,962.524
0.0,0.0,0.0,0.0,0.0,0.0,0.42,2.48574768E8,2.48574768E8,2.48574784E8,2.48574784E8,2.48574832E8,2.48574864E8,63.991833,-22.605427,146.23877,0.084106,4.850653,179.97229,-4.940451,3.278851,0.006851,0.007709,8.154512,-59.960125,-155.88437,4.850585,0.084153,4.850585,0.084153,-149.99986,-150.0,146.23877,0.184921,0.293619,192.84944,203.75623,0.002488,-0.118511,-1676.5542,970.9303
0.0,0.0,0.0,0.0,0.0,0.0,0.42,2.48574768E8,2.48574768E8,2.48574784E8,2.48574784E8,2.48574832E8,2.48574864E8,63.99183,-22.605427,146.23924,0.083871,4.851207,179.96947,-5.410829,3.307277,0.006863,0.00802,8.267398,-62.690395,-158.61464,4.851136,0.083923,4.851136,0.083923,-159.99986,-160.0,146.23924,0.194722,0.304118,192.84663,205.85658,0.002823,-0.113187,-1677.8319,979.2904
0.0,0.0,0.0,0.0,0.0,0.0,0.42,2.48574768E8,2.48574768E8,2.48574784E8,2.48574784E8,2.48574832E8,2.48574864E8,63.99183,-22.605427,146.23975,0.083622,4.851783,179.96649,-5.870766,3.337145,0.006859,0.008329,8.262218,-65.4026,-161.32684,4.851709,0.083675,4.851709,0.083675,-159.99986,-160.0,146.23975,0.204853,0.314115,192.84367,207.88904,0.003189,-0.10815,-1678.3252,987.49725
0.0,0.0,0.0,0.0,0.0,0.0,0.42,2.48574768E8,2.48574768E8,2.48574784E8,2.48574784E8,2.48574832E8,2.48574864E8,63.99183,-22.605427,146.24028,0.08336,4.852383,179.96333,-6.320089,3.368426,0.006861,0.008659,8.18573,-68.04798,-163.97223,4.852308,0.083414,4.852308,0.083414,-159.99986,-160.0,146.24028,0.215331,0.326963,192.84055,209.85088,0.003582,-0.103387,-1676.154,995.46344
0.0,0.0,0.0,0.0,0.0,0.0,0.42,2.48574768E8,2.48574768E8,2.48574784E8,2.48574784E8,2.48574832E8,2.48574864E8,63.99183,-22.605427,146.24081,0.08309,4.852993,179.96,-6.758724,3.40108,0.006857,0.008995,8.311635,-70.79078,-166.71503,4.852918,0.083145,4.852918,0.083145,-159.99986,-160.0,146.24081,0.226173,0.337999,192.83723,211.73962,0.004004,-0.098886,-1677.9207,1003.11774
0.0,0.0,0.0,0.0,0.0,0.0,0.42,2.48574768E8,2.48574768E8,2.48574784E8,2.48574784E8,2.48574832E8,2.48574864E8,63.99183,-22.605427,146.2412,0.082912,4.853399,179.95769,-7.045165,3.423588,0.006873,0.009251,8.202906,-72.55658,-168.48082,4.853326,0.082967,4.853326,0.082967,-169.99986,-170.0,146.2412,0.233611,0.347928,192.83493,212.95703,0.0043,-0.096024,-1676.5486,1008.0205
0.0,0.0,0.0,0.0,0.0,0.0,0.42,2.48574768E8,2.48574768E8,2.48574784E8,2.48574784E8,2.48574832E8,2.48574864E8,63.99183,-22.605427,146.24196,0.082565,4.854206,179.9528,-7.60335,3.470296,0.00684,0.00969,8.196121,-76.16884,-172.09308,4.854134,0.082619,4.854134,0.082619,-169.99986,-170.0,146.24196,0.24901,0.375703,192.8301,215.28883,0.004924,-0.090619,-1676.8907,1017.28876
0.0,0.0,0.0,0.0,0.0,0.0,0.46,2.48574768E8,2.48574768E8,2.48574784E8,2.48574784E8,2.48574832E8,2.48574864E8,63.99183,-22.605427,146.24257,0.082314,4.854798,179.94893,-8.009321,3.506734,0.006855,0.010089,8.303911,-78.94545,-174.86969,4.854728,0.082367,4.854728,0.082367,-169.99986,-170.0,146.24257,0.261034,0.384895,192.82623,216.94528,0.005416,-0.086832,-1679.872,1023.7547
0.0,0.0,0.0,0.0,0.0,0.0,0.48,2.48574768E8,2.48574768E8,2.48574784E8,2.48574784E8,2.48574832E8,2.48574864E8,63.99183,-22.605427,146.24315,0.082165,4.855326,179.94519,-8.352684,3.540979,0.006911,0.010531,8.200368,-81.37342,-177.29767,4.855258,0.082168,4.855258,0.082168,-169.99986,-170.0,146.24315,0.272423,0.371745,192.82251,218.39247,0.005921,-0.083551,-1677.8469,1029.7952
0.0,0.0,0.0,0.0,0.0,0.0,0.48,2.48574768E8,2.48574768E8,2.48574784E8,2.48574784E8,2.48574832E8,2.48574864E8,63.99183,-22.605427,146.24387,0.08185,4.855949,179.94055,-8.788477,3.583178,0.006849,0.010871,8.282543,-84.2493,-180.17354,4.855882,0.081901,4.855882,0.081901,-179.99986,-180.0,146.24387,0.286349,0.415354,192.8179,220.01329,0.006435,-0.0799,-1675.8845,1037.6863
0.0,0.0,0.0,0.0,0.0,0.0,0.48,2.48574768E8,2.48574768E8,2.48574784E8,2.48574784E8,2.48574832E8,2.48574864E8,63.99183,-22.605427,146.24454,0.081618,4.856529,179.93605,-9.161315,3.62336,0.006848,0.011285,8.318858,-86.93998,-182.86423,4.856462,0.081671,4.856462,0.081671,-179.99986,-180.0,146.24454,0.299668,0.429946,192.81342,221.422,0.006965,-0.076739,-1675.5686,1045.5033
0.0,0.0,0.0,0.0,0.0,0.0,0.48,2.48574768E8,2.48574768E8,2.48574784E8,2.48574784E8,2.48574832E8,2.48574864E8,63.991825,-22.605427,146.24525,0.081284,4.857129,179.93123,-9.525394,3.664979,0.006855,0.011728,8.341252,-89.638214,-185.56245,4.85706,0.081376,4.85706,0.081376,-179.99986,-180.0,146.24525,0.313448,0.444336,192.80865,222.7456,0.008061,-0.073789,-1675.5577,1053.6343
0.0,0.0,0.0,0.0,0.0,0.0,0.48,2.48574768E8,2.48574768E8,2.48574784E8,2.48574784E8,2.48574832E8,2.48574864E8,63.991825,-22.605427,146.24586,0.081134,4.85764,179.92676,-9.803524,3.700585,0.006858,0.012102,8.356833,-91.88886,-187.81311,4.857572,0.081156,4.857572,0.081156,-189.99986,-190.0,146.24586,0.325294,0.461444,192.80424,223.78291,0.008928,-0.07151,-1675.6265,1060.5304
0.0,0.0,0.0,0.0,0.0,0.0,0.48,2.48574768E8,2.48574768E8,2.48574784E8,2.48574784E8,2.48574832E8,2.48574864E8,63.991825,-22.605427,146.24675,0.080701,4.858379,179.92006,-10.213429,3.752513,0.00685,0.012624,8.292204,-95.10214,-191.02638,4.858308,0.080804,4.858308,0.080804,-189.99986,-190.0,146.24675,0.342455,0.481236,192.79759,225.13391,0.010798,-0.068557,-1677.9802,1070.2029
0.0,0.0,0.0,0.0,0.0,0.0,0.5,2.48574768E8,2.48574768E8,2.48574784E8,2.48574784E8,2.48574832E8,2.48574864E8,63.991825,-22.605427,146.2474,0.080463,4.858922,179.91486,-10.484447,3.790679,0.006858,0.013035,8.349659,-97.31833,-193.24258,4.85885,0.080561,4.85885,0.080561,-189.99986,-190.0,146.2474,0.355137,0.492641,192.79245,226.02614,0.010374,-0.066616,-1676.5704,1077.0325
0.0,0.0,0.0,0.0,0.0,0.0,0.56,2.48574768E8,2.48574768E8,2.48574784E8,2.48574784E8,2.48574832E8,2.48574864E8,63.991825,-22.605427,146.24829,0.08033,4.859643,179.90784,-10.794886,3.841408,0.006908,0.013666,8.372366,-100.27415,-196.1984,4.85957,0.080349,4.85957,0.080349,-189.99986,-190.0,146.24829,0.372169,0.484892,192.78545,227.09494,0.011372,-0.064247,-1677.6948,1086.1083
0.0,0.0,0.0,0.0,0.0,0.0,0.58,2.48574768E8,2.48574768E8,2.48574784E8,2.48574784E8,2.48574832E8,2.48574864E8,63.991825,-22.605427,146.24922,0.079951,4.860374,179.90047,-11.150963,3.894764,0.006852,0.014107,8.387248,-103.17696,-199.10121,4.860301,0.080021,4.860301,0.080021,-199.99986,-200.0,146.24922,0.389838,0.536786,192.77812,228.06053,0.012476,-0.062059,-1676.7008,1096.9332
0.0,0.0,0.0,0.0,0.0,0.0,0.58,2.48574768E8,2.48574768E8,2.48574784E8,2.48574784E8,2.48574832E8,2.48574864E8,63.991825,-22.605427,146.2501,0.079648,4.86109,179.89325,-11.433916,3.945571,0.006856,0.014644,8.435897,-105.86017,-201.78441,4.861013,0.079705,4.861013,0.079705,-199.99986,-200.0,146.2501,0.406738,0.555337,192.77095,228.8602,0.013374,-0.060216,-1675.998,1108.778
0.0,0.0,0.0,0.0,0.0,0.0,0.58,2.48574768E8,2.48574768E8,2.48574784E8,2.48574784E8,2.48574832E8,2.48574864E8,63.99182,-22.605427,146.25102,0.079249,4.861875,179.88551,-11.699361,3.998487,0.006874,0.01524,8.468275,-108.55571,-204.47995,4.861791,0.079318,4.861791,0.079318,-199.99986,-200.0,146.25102,0.424232,0.572545,192.76328,229.572,0.013606,-0.058557,-1675.8092,1121.9316
0.0,0.0,0.0,0.0,0.0,0.0,0.58,2.48574768E8,2.48574768E8,2.48574784E8,2.48574784E8,2.48574832E8,2.48574864E8,63.99182,-22.605427,146.25197,0.078901,4.86274,179.87703,-11.955414,4.053838,0.00687,0.015813,8.449932,-111.29147,-207.21571,4.862649,0.078914,4.862649,0.078914,-199.99986,-200.0,146.25197,0.442353,0.600253,192.75485,230.1963,0.01404,-0.057092,-1677.1304,1135.9845
0.0,0.0,0.0,0.0,0.0,0.0,0.58,2.48574768E8,2.48574768E8,2.48574784E8,2.48574784E8,2.48574832E8,2.48574864E8,63.99182,-22.605427,146.25296,0.078388,4.863683,179.86787,-12.206401,4.111842,0.006868,0.01642,8.499176,-113.969604,-209.89384,4.863586,0.078424,4.863586,0.078424,-209.99986,-210.0,146.25296,0.461136,0.628565,192.74576,230.73355,0.014373,-0.055812,-1676.1846,1150.5828
0.0,0.0,0.0,0.0,0.0,0.0,0.58,2.48574768E8,2.48574768E8,2.48574784E8,2.48574784E8,2.48574832E8,2.48574864E8,63.99182,-22.605427,146.254,0.077812,4.864706,179.8582,-12.440232,4.172407,0.006871,0.017071,8.538389,-116.663315,-212.58757,4.864603,0.077877,4.864603,0.077877,-209.99986,-210.0,146.254,0.480617,0.65,192.73616,231.1844,0.015877,-0.054683,-1675.8934,1165.4215
0.0,0.0,0.0,0.0,0.0,0.0,0.6,2.48574768E8,2.48574768E8,2.48574784E8,2.48574784E8,2.48574832E8,2.48574864E8,63.99182,-22.605427,146.25497,0.07731,4.865703,179.84875,-12.608769,4.2297,0.006933,0.017844,8.614342,-119.16148,-215.08572,4.865596,0.077349,4.865596,0.077349,-209.99986,-210.0,146.25497,0.499122,0.63353,192.72676,231.52248,0.017292,-0.053803,-1676.7773,1179.0278
0.0,0.0,0.0,0.0,0.0,0.0,0.66,2.48574768E8,2.48574768E8,2.48574784E8,2.48574784E8,2.48574832E8,2.48574864E8,63.99182,-22.605427,146.25609,0.076707,4.866834,179.83762,-12.808641,4.295262,0.006941,0.018571,8.574178,-121.88265,-217.8069,4.866724,0.076723,4.866724,0.076723,-219.99986,-220.0,146.25609,0.520048,0.655871,192.71571,231.81013,0.019935,-0.053015,-1677.4934,1194.4359
0.0,0.0,0.0,0.0,0.0,0.0,0.66,2.48574768E8,2.48574768E8,2.48574784E8,2.48574784E8,2.48574832E8,2.48574864E8,63.991817,-22.605427,146.25734,0.075837,4.868126,179.82458,-13.047194,4.370306,0.006863,0.01916,8.608957,-124.77326,-220.69751,4.868013,0.075947,4.868013,0.075947,-219.99986,-220.0,146.25734,0.543635,0.736848,192.70277,232.0274,0.022025,-0.052357,-1676.0059,1213.0833
0.0,0.0,0.0,0.0,0.0,0.0,0.66,2.48574768E8,2.48574768E8,2.48574784E8,2.48574784E8,2.48574832E8,2.48574864E8,63.991817,-22.605427,146.25854,0.075075,4.869401,179.81154,-13.21696,4.442409,0.00687,0.019955,8.658736,-127.47009,-223.39433,4.869281,0.0752,4.869281,0.0752,-219.99986,-220.0,146.25854,0.566304,0.7661,192.68983,232.14223,0.024155,-0.051957,-1675.8193,1231.681
0.0,0.0,0.0,0.0,0.0,0.0,0.66,2.48574768E8,2.48574768E8,2.48574784E8,2.48574784E8,2.48574832E8,2.48574864E8,63.991817,-22.605427,146.2598,0.074267,4.870772,179.79736,-13.368704,4.518,0.006879,0.020799,8.696057,-130.1703,-226.09454,4.870646,0.074393,4.870646,0.074393,-219.99986,-220.0,146.2598,0.589884,0.795049,192.67575,232.17613,0.026687,-0.051763,-1675.7683,1251.0898
0.0,0.0,0.0,0.0,0.0,0.0,0.66,2.48574768E8,2.48574768E8,2.48574784E8,2.48574784E8,2.48574832E8,2.48574864E8,63.991817,-22.605427,146.26111,0.073362,4.872241,179.78195,-13.505647,4.597298,0.006874,0.021646,8.733665,-132.87167,-228.79591,4.872109,0.073506,4.872109,0.073506,-229.99986,-230.0,146.26111,0.614431,0.833122,192.66045,232.13066,0.029545,-0.051786,-1675.7587,1270.8802
0.0,0.0,0.0,0.0,0.0,0.0,0.66,2.48574768E8,2.48574768E8,2.48574784E8,2.48574784E8,2.48574832E8,2.48574864E8,63.991814,-22.605427,146.26247,0.072468,4.873789,179.76518,-13.619278,4.680219,0.006876,0.022557,8.773009,-135.57343,-231.49768,4.873653,0.072598,4.873653,0.072598,-229.99986,-230.0,146.26247,0.64,0.862306,192.64381,232.00743,0.031756,-0.052028,-1675.7579,1290.69
0.0,0.0,0.0,0.0,0.0,0.0,0.66,2.48574768E8,2.48574768E8,2.48574784E8,2.48574784E8,2.48574832E8,2.48574864E8,63.991814,-22.605427,146.2639,0.071573,4.875421,179.7471,-13.712593,4.76683,0.0069,0.023588,8.814627,-138.2753,-234.19954,4.875282,0.071673,4.875282,0.071673,-229.99986,-230.0,146.2639,0.666646,0.884949,192.62582,231.8082,0.030591,-0.052474,-1675.7548,1310.2192
0.0,0.0,0.0,0.0,0.0,0.0,0.74,2.48574768E8,2.48574768E8,2.48574784E8,2.48574784E8,2.48574832E8,2.48574864E8,63.991814,-22.605427,146.26524,0.070711,4.876959,179.72935,-13.786619,4.849568,0.00692,0.024573,8.879416,-140.80879,-236.73303,4.876819,0.070789,4.876819,0.070789,-229.99986,-230.0,146.26524,0.692066,0.898132,192.60817,231.56041,0.026992,-0.053057,-1677.9474,1327.9374
0.0,0.0,0.0,0.0,0.0,0.0,0.76,2.48574768E8,2.48574768E8,2.48574784E8,2.48574784E8,2.48574832E8,2.48574864E8,63.991814,-22.605427,146.26678,0.069698,4.878672,179.70863,-13.861684,4.943775,0.006921,0.025622,8.859653,-143.505,-239.42926,4.87853,0.069782,4.87853,0.069782,-239.99986,-240.0,146.26678,0.720931,0.940969,192.58757,231.22084,0.022888,-0.053886,-1677.556,1348.6631
0.0,0.0,0.0,0.0,0.0,0.0,0.76,2.48574768E8,2.48574768E8,2.48574784E8,2.48574784E8,2.48574832E8,2.48574864E8,63.99181,-22.605427,146.26852,0.068545,4.880611,179.68445,-13.923965,5.050735,0.006925,0.026826,8.817301,-146.41086,-242.33511,4.880466,0.068632,4.880466,0.068632,-239.99986,-240.0,146.26852,0.753606,0.985483,192.56352,230.77379,0.019043,-0.055022,-1676.5326,1373.4637
0.0,0.0,0.0,0.0,0.0,0.0,0.78,2.48574768E8,2.48574768E8,2.48574784E8,2.48574784E8,2.48574832E8,2.48574864E8,63.99181,-22.605427,146.26993,0.067597,4.882182,179.6645,-13.958763,5.13664,0.006923,0.027781,7.081604,-147.70482,-243.62907,4.882031,0.067688,4.882031,0.067688,-239.99986,-240.0,146.26993,0.779788,1.020638,192.54369,230.37552,0.016658,-0.056078,-1638.4501,1393.7565
0.0,0.0,0.0,0.0,0.0,0.0,0.82,2.48574768E8,2.48574768E8,2.48574784E8,2.48574784E8,2.48574832E8,2.48574864E8,63.99181,-22.605427,146.27197,0.066167,4.884537,179.63443,-13.987947,5.26294,0.006929,0.029221,5.765924,-148.36707,-244.29132,4.884376,0.066265,4.884376,0.066265,-239.99986,-240.0,146.27197,0.818062,1.075048,192.5138,229.74124,0.012288,-0.057843,-1539.6871,1424.1151
0.0,0.0,0.0,0.0,0.0,0.0,0.82,2.48574768E8,2.48574768E8,2.48574784E8,2.48574784E8,2.48574832E8,2.48574864E8,63.99181,-22.605427,146.2738,0.064829,4.886721,179.60641,-13.994372,5.377397,0.006933,0.030532,5.420213,-148.55191,-244.47617,4.886552,0.064933,4.886552,0.064933,-239.99986,-240.0,146.2738,0.852463,1.121877,192.48592,229.12886,0.009322,-0.059644,-1439.4426,1452.6118
0.0,0.0,0.0,0.0,0.0,0.0,0.82,2.48574768E8,2.48574768E8,2.48574784E8,2.48574784E8,2.48574832E8,2.48574864E8,63.991806,-22.605427,146.27573,0.063354,4.889097,179.5761,-13.982995,5.498132,0.00694,0.031931,5.36879,-148.62152,-244.54576,4.888918,0.063466,4.888918,0.063466,-239.99986,-240.0,146.27573,0.888432,1.17196,192.45576,228.45563,0.006577,-0.061737,-1334.2137,1482.609
0.0,0.0,0.0,0.0,0.0,0.0,0.82,2.48574768E8,2.48574768E8,2.48574784E8,2.48574784E8,2.48574832E8,2.48574864E8,63.991806,-22.605427,146.27756,0.061896,4.89143,179.5461,-13.956909,5.614642,0.006939,0.033248,5.424588,-148.64908,-244.57332,4.891243,0.062013,4.891243,0.062013,-239.99986,-240.0,146.27756,0.922867,1.225799,192.42593,227.78717,0.004042,-0.063935,-1236.0731,1510.8031
0.0,0.0,0.0,0.0,0.0,0.0,0.82,2.48574768E8,2.48574768E8,2.48574784E8,2.48574784E8,2.48574832E8,2.48574864E8,63.991806,-22.605427,146.27965,0.060194,4.894146,179.5107,-13.911976,5.748346,0.006945,0.034805,5.53014,-148.66429,-244.58853,4.89395,0.060318,4.89395,0.060318,-239.99986,-240.0,146.27965,0.962128,1.281954,192.39075,227.0043,0.001669,-0.066659,-1128.2599,1541.7504
0.0,0.0,0.0,0.0,0.0,0.0,0.82,2.48574768E8,2.48574768E8,2.48574784E8,2.48574784E8,2.48574832E8,2.48574864E8,63.991802,-22.605427,146.28183,0.058401,4.897006,179.4723,-13.85051,5.889064,0.006948,0.036428,5.658066,-148.67409,-244.59833,4.896805,0.058526,4.896805,0.058526,-239.99986,-240.0,146.28183,1.00326,1.342234,192.35254,226.168,-5.5E-4,-0.069745,-1020.14246,1572.4033
0.0,0.0,0.0,0.0,0.0,0.0,0.82,2.48574768E8,2.48574768E8,2.48574784E8,2.48574784E8,2.48574832E8,2.48574864E8,63.991802,-22.605427,146.28432,0.056389,4.900253,179.42705,-13.766754,6.049456,0.006949,0.038273,5.810404,-148.68239,-244.60664,4.900046,0.056516,4.900046,0.056516,-239.99986,-240.0,146.28432,1.050054,1.407345,192.30756,225.20479,-0.002654,-0.073517,-902.86176,1604.8046
0.0,0.0,0.0,0.0,0.0,0.0,0.88,2.48574768E8,2.48574768E8,2.48574784E8,2.48574784E8,2.48574832E8,2.48574864E8,63.9918,-22.605427,146.28673,0.054502,4.903337,179.38167,-13.675037,6.204789,0.006954,0.040085,5.960553,-148.68953,-244.61377,4.90313,0.054628,4.90313,0.054628,-239.99986,-240.0,146.28673,1.09542,1.474099,192.26244,224.26575,-0.004667,-0.077414,-794.5534,1633.944
0.0,0.0,0.0,0.0,0.0,0.0,0.9,2.48574768E8,2.48574768E8,2.48574784E8,2.48574784E8,2.48574832E8,2.48574864E8,63.9918,-22.605427,146.28925,0.052592,4.906463,179.33261,-13.34247,6.36084,0.00695,0.041934,6.117869,-148.69592,-244.62016,4.90626,0.052718,4.90626,0.052718,-239.99986,-240.0,146.28925,1.142975,1.548535,192.21358,223.28157,-0.006644,-0.081724,-686.16626,1663.6237
